~VERSION INFORMATION
VERS.                1.20: CWLS log ASCII Standart - VERSION 1.20
WRAP.                  NO: One line per depth step
~WELL INFORMATION
# MNEM.UNIT               DATA TYPE  INFORMATION
# ----.----------------------------: -------------------
STRT.M                         2608:
STOP.M                         3062:
STEP.M                          0.2:
NULL.                       -999.25:
WELL.WELL                          : 5
LOC .LOCATION                      : 
FLD .FIELD CODE                    : 
UWI .UNIQUE WELL ID                : 
SRVC.SERVICE COMP                  : 
DATE.DDMMYYYY                      : 16/07/2007
~PARAMETER INFORMATION
#MNEM.UNIT               VALUE       DESCRIPTION
#----.-----------------------------: -------------------
TD  .M                             : 3054.6
EKB .M                             : 38.64
SCD .M                             : 0.245
SCDP.M                             : 748.74
CD  .M                             : 0.146
CDP .M                             : 3069.29
DFT .                              : S
BS  .M                             : 0.216
DFD .G/CC                          : 1.32
DFV .S                             : 
DFR .OHMM                          : 
MT  .degC                          : 
RWMT.degC                          : 
SALIN.G/L                          : 
RAU_GK.IMP/MIN                     : 1599
RAU_NEUT.IMP/MIN                   : 
SPEED.M/H                          : 780.5
TDLS.IMP/MIN                       : 132368
TDLB.IMP/MIN                       : 12584
TAU_GK.S                           : 3
TAU_NEUT.S                         : 3
#TOOL1                              : RK5-76
#SENSOR1                            : NKTS(mall),NKTD(eep),MLM ,GK
#TOOL2                              : 
#SENSOR2                            : 
~CURVE INFORMATION
#MNEM.UNIT                           CURVE DESCRIPTION
#----.-----------------------------: -------------------
DEPT.M                             : Depth curve
NKTS.ue                            : Neutron-Neutron Termal Small,  ue
NKTD.ue                            : Neutron-Neutron Termal Deep,  ue
MLM .ue                            : MLM, ue
GK  .uR/h                          : Gamma ray, uR/h
~OTHER INFORMATION
#The file is generated by the program GeoTech-EditLog v2007.06
#Number of Curves = 5
~Ascii Log Data
# ...
2750.40     1.60     2.55    13.00     6.61 
2750.60     1.52     2.28    13.00     6.85 
2750.80     1.46     2.32    13.00     6.74 
2751.00     1.45     2.43    13.00     6.74 
2751.20     1.45     2.48    13.00     6.83 
2751.40     1.48     2.50    13.00     6.89 
2751.60     1.47     2.51    13.00     6.46 
2751.80     1.49     2.38    13.00     6.39 
2752.00     1.50     2.39    13.00     6.98 
2752.20     1.49     2.41    13.00     7.86 
2752.40     1.51     2.40    13.00     7.91 
2752.60     1.52     2.32    13.00     7.70 
2752.80     1.51     2.37    13.00     7.62 
2753.00     1.52     2.56    13.00     7.19 
2753.20     1.50     2.53    13.00     7.14 
2753.40     1.51     2.33    13.00     6.46 
2753.60     1.49     2.21   253.00     6.82 
2753.80     1.43     2.33   564.00     8.12 
2754.00     1.47     2.54    13.00     8.19 
2754.20     1.50     2.77    13.00     7.56 
2754.40     1.58     3.30    13.00     7.01 
2754.60     1.70     3.81    13.00     6.08 
2754.80     1.74     4.16    13.00     5.78 
2755.00     1.77     4.63    13.00     5.02 
2755.20     1.90     4.99    13.00     4.83 
2755.40     1.99     4.59    13.00     5.06 
2755.60     1.94     3.48    13.00     5.71 
2755.80     1.75     2.73    13.00     6.87 
2756.00     1.54     2.47    13.00     8.01 
2756.20     1.51     2.44    14.00     7.80 
2756.40     1.49     2.36    13.00     7.79 
2756.60     1.51     2.37    13.00     8.01 
2756.80     1.50     2.50    13.00     8.00 
2757.00     1.49     2.58    13.00     7.72 
2757.20     1.48     2.62    13.00     7.52 
2757.40     1.51     2.47    13.00     7.37 
2757.60     1.53     2.35    13.00     7.04 
2757.80     1.51     2.29    13.00     7.19 
2758.00     1.48     2.22    13.00     7.84 
2758.20     1.46     2.40    13.00     8.00 
2758.40     1.46     2.41    13.00     7.26 
2758.60     1.47     2.38    13.00     6.43 
2758.80     1.49     2.40    13.00     6.79 
2759.00     1.50     2.39    13.00     7.23 
2759.20     1.49     2.36    13.00     6.99 
2759.40     1.50     2.40    14.00     7.45 
2759.60     1.50     2.42    13.00     7.69 
2759.80     1.47     2.38    13.00     8.23 
2760.00     1.46     2.40    13.00     8.44 
2760.20     1.45     2.45    13.00     8.59 
2760.40     1.42     2.34    13.00     7.80 
2760.60     1.44     2.37    13.00     7.70 
2760.80     1.49     2.38    13.00     7.68 
2761.00     1.50     2.43    13.00     7.48 
2761.20     1.46     2.34    13.00     8.01 
2761.40     1.47     2.31    13.00     8.50 
2761.60     1.47     2.43    13.00     8.22 
2761.80     1.46     2.48    13.00     7.90 
2762.00     1.48     2.48    13.00     7.62 
2762.20     1.49     2.32    13.00     7.88 
2762.40     1.46     2.36    13.00     8.38 
2762.60     1.45     2.33    13.00     8.25 
2762.80     1.48     2.42    13.00     8.40 
2763.00     1.49     2.40    13.00     8.01 
2763.20     1.48     2.54    13.00     8.15 
2763.40     1.52     2.62    13.00     7.94 
2763.60     1.53     2.58    14.00     6.61 
2763.80     1.49     2.66   476.00     6.63 
2764.00     1.51     2.63   476.00     7.03 
2764.20     1.56     2.34    13.00     7.69 
2764.40     1.50     2.20    13.00     7.62 
2764.60     1.47     2.19    13.00     7.97 
2764.80     1.46     2.37    14.00     8.17 
2765.00     1.46     2.33    13.00     8.59 
2765.20     1.46     2.26    13.00     8.40 
2765.40     1.45     2.30    13.00     8.36 
2765.60     1.43     2.31    13.00     8.14 
2765.80     1.44     2.33    13.00     8.43 
2766.00     1.44     2.23    13.00     8.53 
2766.20     1.43     2.11    13.00     8.76 
2766.40     1.43     2.08    13.00     8.87 
2766.60     1.40     2.06    14.00     8.78 
2766.80     1.40     2.02    13.00     9.04 
2767.00     1.39     2.03    13.00     9.21 
2767.20     1.40     2.05    13.00     9.13 
2767.40     1.40     1.98    13.00     9.51 
2767.60     1.35     1.92    13.00     9.75 
2767.80     1.32     2.00    13.00     9.30 
2768.00     1.31     2.02    13.00     8.67 
2768.20     1.35     1.98    13.00     9.19 
2768.40     1.34     2.02    13.00     9.63 
2768.60     1.36     2.07    13.00     9.41 
2768.80     1.37     2.12    13.00     9.46 
2769.00     1.41     2.16    13.00     9.11 
2769.20     1.42     2.20    13.00     9.14 
2769.40     1.40     2.11    13.00     9.49 
2769.60     1.39     2.06    13.00     9.41 
2769.80     1.37     1.89    13.00     9.29 
2770.00     1.33     1.80    13.00     8.81 
2770.20     1.30     1.84    13.00     8.66 
2770.40     1.31     1.90    13.00     8.77 
2770.60     1.29     1.89    13.00     8.59 
2770.80     1.31     1.92    13.00     8.55 
2771.00     1.32     1.87    13.00     8.71 
2771.20     1.31     1.80    13.00     9.07 
2771.40     1.27     1.96    13.00     8.62 
2771.60     1.30     2.06    13.00     8.72 
2771.80     1.33     2.09    13.00     8.68 
2772.00     1.36     2.11    13.00     8.64 
2772.20     1.37     2.10    35.00     8.44 
2772.40     1.38     2.11    13.00     8.60 
2772.60     1.35     2.02    13.00     8.35 
2772.80     1.37     2.07    13.00     7.86 
2773.00     1.39     2.03    13.00     8.56 
2773.20     1.37     2.05    14.00     8.27 
2773.40     1.37     2.03    13.00     8.55 
2773.60     1.37     2.04    14.00     7.99 
2773.80     1.36     1.91   236.00     8.24 
2774.00     1.29     1.94   450.00     9.30 
2774.20     1.33     1.85    13.00     9.22 
2774.40     1.30     1.89    13.00     8.77 
2774.60     1.30     1.96    13.00     9.08 
2774.80     1.33     1.91    13.00     8.98 
2775.00     1.32     1.90    13.00     8.87 
2775.20     1.30     1.96    13.00     8.76 
2775.40     1.32     1.96    13.00     9.00 
2775.60     1.34     1.98    13.00     8.61 
2775.80     1.32     2.04    13.00     8.38 
2776.00     1.34     2.09    13.00     8.24 
2776.20     1.36     1.99    13.00     8.52 
2776.40     1.35     1.98    13.00     8.43 
2776.60     1.34     1.97    13.00     8.31 
2776.80     1.33     2.04    13.00     8.02 
2777.00     1.33     2.17    13.00     7.95 
2777.20     1.37     2.21    13.00     7.94 
2777.40     1.40     2.21    13.00     8.04 
2777.60     1.43     2.21    13.00     7.93 
2777.80     1.43     2.10    13.00     7.85 
2778.00     1.42     2.06    13.00     8.53 
2778.20     1.40     2.10    13.00     8.61 
2778.40     1.38     2.11    13.00     8.35 
2778.60     1.38     2.18    13.00     8.67 
2778.80     1.38     2.09    13.00     8.58 
2779.00     1.38     2.05    13.00     8.50 
2779.20     1.38     2.01    13.00     8.54 
2779.40     1.38     2.07    13.00     9.41 
2779.60     1.37     2.08    13.00     9.42 
2779.80     1.38     2.04    13.00     8.95 
2780.00     1.35     1.99    13.00     8.51 
2780.20     1.31     1.99    14.00     8.33 
2780.40     1.33     1.89    13.00     8.63 
2780.60     1.34     1.92    13.00     9.00 
2780.80     1.33     1.94    14.00     8.75 
2781.00     1.32     1.87    13.00     9.08 
2781.20     1.32     1.96    13.00     8.58 
2781.40     1.35     1.96    13.00     8.13 
2781.60     1.35     2.00    13.00     7.70 
2781.80     1.36     2.12    13.00     7.36 
2782.00     1.37     2.16    13.00     7.78 
2782.20     1.38     2.15    13.00     7.95 
2782.40     1.40     2.08    13.00     8.16 
2782.60     1.39     2.06    13.00     8.88 
2782.80     1.39     2.03    13.00     8.61 
2783.00     1.40     2.08    13.00     7.60 
2783.20     1.37     2.05    13.00     7.64 
2783.40     1.35     1.98    13.00     7.55 
2783.60     1.35     1.99    13.00     7.12 
2783.80     1.36     2.06   372.00     6.64 
2784.00     1.32     2.09   560.00     7.18 
2784.20     1.39     2.13    14.00     7.59 
2784.40     1.39     2.14    14.00     7.59 
2784.60     1.37     2.18    14.00     7.87 
2784.80     1.38     2.19    14.00     7.50 
2785.00     1.41     2.13    14.00     7.60 
2785.20     1.40     2.02    13.00     8.07 
2785.40     1.39     2.09    14.00     7.71 
2785.60     1.40     2.18    13.00     7.96 
2785.80     1.40     2.14    13.00     7.94 
