~VERSION INFORMATION
VERS.                1.20: CWLS log ASCII Standart - VERSION 1.20
WRAP.                  NO: One line per depth step
~WELL INFORMATION
# MNEM.UNIT               DATA TYPE  INFORMATION
# ----.----------------------------: -------------------
STRT.M                         2608:
STOP.M                         3062:
STEP.M                          0.2:
NULL.                       -999.25:
WELL.WELL                          : 5
LOC .LOCATION                      : 
FLD .FIELD CODE                    : 
UWI .UNIQUE WELL ID                : 
SRVC.SERVICE COMP                  : 
DATE.DDMMYYYY                      : 16/07/2007
~PARAMETER INFORMATION
#MNEM.UNIT               VALUE       DESCRIPTION
#----.-----------------------------: -------------------
TD  .M                             : 3054.6
EKB .M                             : 38.64
SCD .M                             : 0.245
SCDP.M                             : 748.74
CD  .M                             : 0.146
CDP .M                             : 3069.29
DFT .                              : S
BS  .M                             : 0.216
DFD .G/CC                          : 1.32
DFV .S                             : 
DFR .OHMM                          : 
MT  .degC                          : 
RWMT.degC                          : 
SALIN.G/L                          : 
RAU_GK.IMP/MIN                     : 1599
RAU_NEUT.IMP/MIN                   : 
SPEED.M/H                          : 780.5
TDLS.IMP/MIN                       : 132368
TDLB.IMP/MIN                       : 12584
TAU_GK.S                           : 3
TAU_NEUT.S                         : 3
#TOOL1                              : RK5-76
#SENSOR1                            : NKTS(mall),NKTD(eep),MLM ,GK
#TOOL2                              : 
#SENSOR2                            : 
~CURVE INFORMATION
#MNEM.UNIT                           CURVE DESCRIPTION
#----.-----------------------------: -------------------
DEPT.M                             : Depth curve
NKTS.ue                            : Neutron-Neutron Termal Small,  ue
NKTD.ue                            : Neutron-Neutron Termal Deep,  ue
MLM .ue                            : MLM, ue
GK  .uR/h                          : Gamma ray, uR/h
~OTHER INFORMATION
#The file is generated by the program GeoTech-EditLog v2007.06
#Number of Curves = 5
~Ascii Log Data
2608.00     1.06     1.70    13.00     7.59 
2608.20     1.07     1.69    13.00     7.96 
2608.40     1.06     1.58    13.00     8.30 
2608.60     1.06     1.58    13.00     8.30 
2608.80     1.06     1.67    13.00     7.92 
2609.00     1.07     1.66    13.00     8.37 
2609.20     1.08     1.67    13.00     7.95 
2609.40     1.08     1.71    13.00     8.21 
2609.60     1.09     1.71    13.00     8.40 
2609.80     1.09     1.87    13.00     7.49 
2610.00     1.17     2.10    13.00     6.13 
2610.20     1.22     2.09    13.00     6.87 
2610.40     1.16     2.00    13.00     8.05 
2610.60     1.11     1.83    13.00     8.70 
2610.80     1.11     1.67    13.00     8.84 
2611.00     1.09     1.54    13.00     8.59 
2611.20     1.05     1.51    13.00     8.55 
2611.40     1.03     1.45    13.00     8.29 
2611.60     0.97     1.26    13.00     7.88 
2611.80     0.90     1.23    13.00     7.34 
2612.00     0.87     1.17    14.00     7.74 
2612.20     0.84     1.21    13.00     7.92 
2612.40     0.85     1.18    13.00     7.52 
2612.60     0.86     1.19    13.00     8.50 
2612.80     0.86     1.21    13.00     8.49 
2613.00     0.96     1.46    13.00     8.56 
2613.20     1.04     1.71    13.00     8.50 
2613.40     1.07     1.66    13.00     8.32 
2613.60     1.09     1.71    13.00     8.52 
2613.80     1.05     1.63    13.00     8.10 
2614.00     1.05     1.55    13.00     8.41 
2614.20     1.06     1.62    13.00     8.35 
2614.40     1.06     1.63    13.00     8.54 
2614.60     1.04     1.55    13.00     8.73 
2614.80     1.04     1.68    13.00     8.24 
2615.00     1.06     1.72    13.00     8.17 
2615.20     1.09     1.81    13.00     8.28 
2615.40     1.07     1.80    13.00     8.14 
2615.60     1.05     1.71    13.00     8.66 
2615.80     1.05     1.65    13.00     8.69 
2616.00     1.06     1.67    13.00     8.56 
2616.20     1.02     1.62    13.00     8.71 
2616.40     1.00     1.56    13.00     8.13 
2616.60     0.97     1.42   226.00     7.89 
2616.80     0.92     1.34   472.00     8.53 
2617.00     1.01     1.52    13.00     8.30 
2617.20     1.03     1.60    13.00     7.82 
2617.40     1.10     1.81    13.00     7.38 
2617.60     1.10     1.88    13.00     6.59 
2617.80     1.12     1.97    13.00     6.14 
2618.00     1.13     1.86    13.00     6.23 
2618.20     1.12     1.85    13.00     6.13 
2618.40     1.14     1.94    13.00     6.00 
2618.60     1.17     2.15    13.00     6.32 
2618.80     1.18     2.23    13.00     7.18 
2619.00     1.19     2.14    13.00     7.19 
2619.20     1.15     2.08    13.00     6.93 
2619.40     1.12     1.81    13.00     6.80 
2619.60     1.08     1.78    13.00     6.77 
2619.80     1.09     1.80    13.00     6.91 
2620.00     1.05     1.67    13.00     7.02 
2620.20     1.05     1.68    13.00     7.35 
2620.40     1.08     1.60    13.00     7.62 
2620.60     1.11     1.65    13.00     7.65 
2620.80     1.10     1.68    13.00     6.98 
2621.00     1.11     1.75    13.00     6.49 
2621.20     1.11     1.89    13.00     7.03 
2621.40     1.13     1.86    13.00     7.23 
2621.60     1.14     1.95    13.00     7.94 
2621.80     1.17     2.00    13.00     8.62 
2622.00     1.17     2.02    13.00     8.80 
2622.20     1.16     1.99    13.00     8.05 
2622.40     1.14     1.92    13.00     7.36 
2622.60     1.12     1.97    13.00     7.32 
2622.80     1.14     1.95    13.00     7.35 
2623.00     1.14     1.86    13.00     7.35 
2623.20     1.13     1.89    13.00     7.19 
2623.40     1.12     1.90    13.00     7.47 
2623.60     1.13     1.88    13.00     7.12 
2623.80     1.14     1.95    13.00     7.02 
2624.00     1.15     1.98    13.00     7.10 
2624.20     1.17     2.04    13.00     7.23 
2624.40     1.16     2.05    13.00     7.26 
2624.60     1.14     2.06    13.00     7.27 
2624.80     1.15     2.02    13.00     7.59 
2625.00     1.13     2.02    13.00     7.91 
2625.20     1.13     1.98    13.00     7.86 
2625.40     1.14     1.97    13.00     7.64 
2625.60     1.14     2.09    13.00     7.34 
2625.80     1.17     2.12    13.00     7.34 
2626.00     1.17     2.05    13.00     6.78 
2626.20     1.16     2.00    13.00     6.68 
2626.40     1.19     1.98    13.00     6.58 
2626.60     1.20     2.00    13.00     7.19 
2626.80     1.20     1.94    13.00     7.32 
2627.00     1.19     1.96    13.00     7.55 
2627.20     1.18     1.99    13.00     6.80 
2627.40     1.19     2.07    13.00     6.76 
2627.60     1.20     2.13    14.00     6.87 
2627.80     1.15     1.98   454.00     7.40 
2628.00     1.12     1.83   557.00     7.77 
2628.20     1.14     1.77    13.00     8.26 
2628.40     1.12     1.76    13.00     8.22 
2628.60     1.12     1.77    13.00     7.76 
2628.80     1.13     1.84    13.00     6.96 
2629.00     1.16     1.89    13.00     6.92 
2629.20     1.16     1.86    13.00     8.13 
2629.40     1.12     1.71    13.00     8.51 
2629.60     1.13     1.64    13.00     8.28 
2629.80     1.12     1.73    13.00     8.23 
2630.00     1.11     1.74    13.00     8.46 
2630.20     1.12     1.77    13.00     8.28 
2630.40     1.14     1.90    13.00     7.98 
2630.60     1.15     2.00    13.00     7.44 
2630.80     1.20     1.93    13.00     7.93 
2631.00     1.20     1.96    13.00     8.03 
2631.20     1.17     1.99    13.00     8.06 
2631.40     1.15     2.02    13.00     8.26 
2631.60     1.17     2.03    13.00     8.12 
2631.80     1.19     1.91    13.00     7.95 
2632.00     1.17     1.88    13.00     8.24 
2632.20     1.17     1.90    13.00     8.14 
2632.40     1.15     1.87    13.00     8.15 
2632.60     1.16     1.87    13.00     8.06 
2632.80     1.18     1.95    13.00     7.68 
2633.00     1.19     2.03    13.00     7.22 
2633.20     1.19     1.88    13.00     8.02 
2633.40     1.16     1.93    13.00     8.27 
2633.60     1.17     2.00    13.00     8.31 
2633.80     1.17     2.00    13.00     7.77 
2634.00     1.17     2.02    13.00     7.86 
2634.20     1.15     2.03    13.00     8.03 
2634.40     1.15     1.97    13.00     7.86 
2634.60     1.16     1.97    13.00     7.90 
2634.80     1.15     1.96    13.00     8.32 
2635.00     1.16     2.00    13.00     8.14 
2635.20     1.15     1.97    13.00     7.96 
2635.40     1.18     2.00    13.00     7.62 
2635.60     1.21     1.97    14.00     7.46 
2635.80     1.19     1.97    13.00     7.13 
2636.00     1.17     2.04    13.00     7.60 
2636.20     1.17     1.96    13.00     7.82 
2636.40     1.17     1.84    13.00     7.64 
2636.60     1.19     1.88    13.00     7.74 
2636.80     1.20     1.95    13.00     7.94 
2637.00     1.19     1.92    13.00     7.81 
2637.20     1.19     1.96    13.00     7.83 
2637.40     1.21     2.03    13.00     7.60 
2637.60     1.22     1.96    13.00     7.63 
2637.80     1.26     1.95    13.00     7.80 
2638.00     1.25     2.04    13.00     7.97 
2638.20     1.24     2.14    13.00     7.63 
2638.40     1.24     2.11    13.00     7.31 
2638.60     1.24     2.10    68.00     6.80 
2638.80     1.17     2.08   514.00     7.51 
2639.00     1.19     2.05   412.00     8.16 
2639.20     1.22     2.08    13.00     8.37 
2639.40     1.21     1.96    13.00     8.25 
2639.60     1.21     2.02    13.00     8.38 
2639.80     1.21     2.05    13.00     8.24 
2640.00     1.23     2.06    13.00     8.18 
2640.20     1.25     2.00    13.00     7.90 
2640.40     1.23     2.00    13.00     7.90 
2640.60     1.23     1.98    13.00     8.37 
2640.80     1.23     1.93    13.00     8.01 
2641.00     1.22     1.95    13.00     7.97 
2641.20     1.22     2.04    13.00     7.74 
2641.40     1.22     2.00    13.00     7.69 
2641.60     1.22     2.03    13.00     7.42 
2641.80     1.22     2.05    13.00     8.01 
2642.00     1.23     2.03    13.00     8.38 
2642.20     1.22     1.92    13.00     8.51 
2642.40     1.20     1.98    13.00     8.81 
2642.60     1.17     1.87    13.00     8.94 
2642.80     1.19     1.77    13.00     8.67 
2643.00     1.18     1.75    13.00     8.56 
2643.20     1.17     1.91    13.00     8.94 
2643.40     1.21     1.86    14.00     9.22 
