~VERSION INFORMATION
VERS.                1.20: CWLS log ASCII Standart - VERSION 1.20
WRAP.                  NO: One line per depth step
~WELL INFORMATION
# MNEM.UNIT               DATA TYPE  INFORMATION
# ----.----------------------------: -------------------
STRT.M                         2608:
STOP.M                         3062:
STEP.M                          0.2:
NULL.                       -999.25:
WELL.WELL                          : 5
LOC .LOCATION                      : 
FLD .FIELD CODE                    : 
UWI .UNIQUE WELL ID                : 
SRVC.SERVICE COMP                  : 
DATE.DDMMYYYY                      : 16/07/2007
~PARAMETER INFORMATION
#MNEM.UNIT               VALUE       DESCRIPTION
#----.-----------------------------: -------------------
TD  .M                             : 3054.6
EKB .M                             : 38.64
SCD .M                             : 0.245
SCDP.M                             : 748.74
CD  .M                             : 0.146
CDP .M                             : 3069.29
DFT .                              : S
BS  .M                             : 0.216
DFD .G/CC                          : 1.32
DFV .S                             : 
DFR .OHMM                          : 
MT  .degC                          : 
RWMT.degC                          : 
SALIN.G/L                          : 
RAU_GK.IMP/MIN                     : 1599
RAU_NEUT.IMP/MIN                   : 
SPEED.M/H                          : 780.5
TDLS.IMP/MIN                       : 132368
TDLB.IMP/MIN                       : 12584
TAU_GK.S                           : 3
TAU_NEUT.S                         : 3
#TOOL1                              : RK5-76
#SENSOR1                            : NKTS(mall),NKTD(eep),MLM ,GK
#TOOL2                              : 
#SENSOR2                            : 
~CURVE INFORMATION
#MNEM.UNIT                           CURVE DESCRIPTION
#----.-----------------------------: -------------------
DEPT.M                             : Depth curve
NKTS.ue                            : Neutron-Neutron Termal Small,  ue
NKTD.ue                            : Neutron-Neutron Termal Deep,  ue
MLM .ue                            : MLM, ue
GK  .uR/h                          : Gamma ray, uR/h
~OTHER INFORMATION
#The file is generated by the program GeoTech-EditLog v2007.06
#Number of Curves = 5
~Ascii Log Data
# ...
2786.00     1.39     2.12    13.00     7.89 
2786.20     1.40     2.18    13.00     8.41 
2786.40     1.41     2.17    13.00     8.37 
2786.60     1.40     2.15    13.00     8.00 
2786.80     1.40     2.27    13.00     7.68 
2787.00     1.40     2.19    13.00     8.26 
2787.20     1.40     2.11    13.00     8.38 
2787.40     1.37     2.15    13.00     8.54 
2787.60     1.37     2.15    13.00     8.96 
2787.80     1.37     2.13    13.00     8.81 
2788.00     1.39     2.18    13.00     8.50 
2788.20     1.43     2.26    13.00     8.22 
2788.40     1.44     2.20    13.00     7.81 
2788.60     1.41     2.06    13.00     8.34 
2788.80     1.41     2.14    13.00     8.40 
2789.00     1.40     2.18    13.00     8.68 
2789.20     1.42     2.14    13.00     8.66 
2789.40     1.43     2.20    13.00     8.48 
2789.60     1.41     2.21    14.00     8.42 
2789.80     1.39     2.05    13.00     8.50 
2790.00     1.40     2.08    13.00     8.43 
2790.20     1.40     2.06    13.00     8.70 
2790.40     1.41     2.10    13.00     8.53 
2790.60     1.40     2.09    13.00     8.51 
2790.80     1.42     2.22    13.00     8.46 
2791.00     1.41     2.22    13.00     8.16 
2791.20     1.43     2.06    13.00     7.69 
2791.40     1.38     2.12    13.00     8.29 
2791.60     1.38     2.04    13.00     8.64 
2791.80     1.40     2.08    13.00     8.76 
2792.00     1.40     2.15    13.00     9.11 
2792.20     1.41     2.13    13.00     9.68 
2792.40     1.38     2.04    13.00     9.56 
2792.60     1.37     2.01    13.00     8.90 
2792.80     1.37     2.00    13.00     8.74 
2793.00     1.35     2.06    13.00     9.16 
2793.20     1.34     2.05    13.00     8.95 
2793.40     1.36     2.05    14.00     8.60 
2793.60     1.35     1.88   313.00     8.63 
2793.80     1.29     1.82   537.00     9.43 
2794.00     1.34     1.94    13.00     9.72 
2794.20     1.32     1.97    13.00     8.98 
2794.40     1.33     2.00    13.00     8.68 
2794.60     1.34     1.96    13.00     8.71 
2794.80     1.34     1.93    13.00     9.03 
2795.00     1.34     1.95    13.00     8.73 
2795.20     1.34     1.99    13.00     8.15 
2795.40     1.37     2.04    13.00     8.75 
2795.60     1.38     2.09    13.00     8.90 
2795.80     1.37     2.12    13.00     8.40 
2796.00     1.41     2.15    13.00     7.93 
2796.20     1.41     2.26    13.00     6.94 
2796.40     1.43     2.42    13.00     6.07 
2796.60     1.44     2.41    13.00     5.47 
2796.80     1.40     2.24    13.00     5.73 
2797.00     1.42     2.19    13.00     5.78 
2797.20     1.41     2.14    13.00     6.21 
2797.40     1.41     2.20    13.00     6.11 
2797.60     1.39     2.14    13.00     6.15 
2797.80     1.37     2.10    13.00     6.04 
2798.00     1.36     2.11    13.00     6.55 
2798.20     1.38     2.12    13.00     5.98 
2798.40     1.40     2.12    13.00     6.41 
2798.60     1.42     2.24    13.00     7.30 
2798.80     1.45     2.54    13.00     6.97 
2799.00     1.56     3.10    13.00     6.31 
2799.20     1.76     3.86    13.00     5.23 
2799.40     1.84     4.13    13.00     5.04 
2799.60     1.81     4.29    13.00     5.05 
2799.80     1.81     4.13    13.00     5.40 
2800.00     1.77     3.94    13.00     5.77 
2800.20     1.74     3.61    13.00     5.47 
2800.40     1.72     3.50    13.00     5.70 
2800.60     1.69     3.14    13.00     6.25 
2800.80     1.56     2.66    13.00     7.46 
2801.00     1.45     2.28    13.00     7.61 
2801.20     1.42     2.11    14.00     7.47 
2801.40     1.39     2.20    13.00     7.07 
2801.60     1.40     2.08    13.00     7.35 
2801.80     1.37     2.04    13.00     7.16 
2802.00     1.36     2.13    13.00     7.22 
2802.20     1.40     2.12    13.00     6.81 
2802.40     1.40     2.11    13.00     6.92 
2802.60     1.38     2.11    13.00     7.79 
2802.80     1.40     2.14    13.00     7.93 
2803.00     1.41     2.15    13.00     7.75 
2803.20     1.41     2.10    13.00     7.25 
2803.40     1.38     1.99    13.00     6.37 
2803.60     1.36     1.91   171.00     5.50 
2803.80     1.23     1.90   522.00     6.55 
2804.00     1.18     1.80    13.00     7.00 
2804.20     1.26     1.91    13.00     5.85 
2804.40     1.30     2.08    13.00     5.51 
2804.60     1.33     2.08    13.00     6.50 
2804.80     1.34     2.12    13.00     6.58 
2805.00     1.34     2.12    13.00     6.55 
2805.20     1.36     2.18    14.00     6.40 
2805.40     1.38     2.16    13.00     6.59 
2805.60     1.38     2.19    13.00     6.32 
2805.80     1.37     2.19    13.00     6.82 
2806.00     1.39     2.09    13.00     7.23 
2806.20     1.36     1.98    13.00     7.14 
2806.40     1.37     2.04    13.00     6.83 
2806.60     1.37     2.03    13.00     6.69 
2806.80     1.39     2.04    13.00     7.05 
2807.00     1.41     2.12    13.00     7.63 
2807.20     1.43     2.17    13.00     7.76 
2807.40     1.41     2.19    13.00     8.01 
2807.60     1.40     2.22    13.00     8.12 
2807.80     1.40     2.21    13.00     7.59 
2808.00     1.38     2.13    13.00     7.48 
2808.20     1.40     2.12    13.00     7.20 
2808.40     1.41     2.17    13.00     6.84 
2808.60     1.41     2.21    13.00     7.09 
2808.80     1.42     2.22    13.00     7.39 
2809.00     1.40     2.12    13.00     6.60 
2809.20     1.39     2.09    13.00     6.18 
2809.40     1.40     2.23    13.00     6.00 
2809.60     1.43     2.21    13.00     7.12 
2809.80     1.40     2.16    13.00     7.26 
2810.00     1.39     2.19    13.00     7.40 
2810.20     1.39     2.25    13.00     7.38 
2810.40     1.40     2.29    13.00     7.26 
2810.60     1.42     2.26    13.00     7.78 
2810.80     1.42     2.26    13.00     7.94 
2811.00     1.43     2.19    14.00     7.87 
2811.20     1.43     2.25    13.00     8.06 
2811.40     1.43     2.34    13.00     7.63 
2811.60     1.46     2.36    14.00     7.44 
2811.80     1.47     2.34    13.00     6.85 
2812.00     1.43     2.36    13.00     6.78 
2812.20     1.45     2.38    13.00     7.51 
2812.40     1.46     2.32    13.00     8.09 
2812.60     1.47     2.30    13.00     8.18 
2812.80     1.46     2.30    13.00     8.41 
2813.00     1.42     2.26    13.00     7.97 
2813.20     1.43     2.26    13.00     7.55 
2813.40     1.42     2.27   345.00     7.61 
2813.60     1.38     2.10   519.28     7.48 
2813.80     1.40     2.16   211.08     7.48 
2814.00     1.41     2.18   168.10     7.48 
2814.20     1.41     2.22    13.00     7.48 
2814.40     1.42     2.23    13.00     7.82 
2814.60     1.42     2.19    13.00     8.53 
2814.80     1.40     2.23    13.00     8.33 
2815.00     1.40     2.25    13.00     7.83 
2815.20     1.40     2.29    13.00     8.13 
2815.40     1.44     2.32    13.00     8.36 
2815.60     1.44     2.27    13.00     8.26 
2815.80     1.44     2.22    13.00     8.20 
2816.00     1.45     2.31    13.00     7.96 
2816.20     1.43     2.27    13.00     7.78 
2816.40     1.43     2.28    13.00     7.93 
2816.60     1.44     2.36    13.00     8.03 
2816.80     1.47     2.56    13.00     7.82 
2817.00     1.54     2.63    13.00     7.08 
2817.20     1.50     2.50    13.00     6.47 
2817.40     1.45     2.33    13.00     7.11 
2817.60     1.45     2.29    13.00     7.96 
2817.80     1.47     2.30    13.00     8.02 
2818.00     1.46     2.34    13.00     7.99 
2818.20     1.48     2.41    13.00     7.96 
2818.40     1.52     2.70    13.00     7.71 
2818.60     1.61     3.16    13.00     7.06 
2818.80     1.67     3.30    13.00     6.26 
2819.00     1.62     2.93    13.00     6.44 
2819.20     1.54     2.57    13.00     7.21 
2819.40     1.45     2.24    13.00     7.29 
2819.60     1.44     2.29    13.00     7.45 
2819.80     1.42     2.38    13.00     8.15 
2820.00     1.42     2.41    13.00     8.60 
2820.20     1.44     2.46    13.00     8.53 
2820.40     1.49     2.44    13.00     8.40 
2820.60     1.49     2.39    13.00     8.24 
2820.80     1.46     2.39    13.00     8.53 
2821.00     1.46     2.40    13.00     8.50 
2821.20     1.47     2.33    13.00     8.61 
2821.40     1.47     2.26    13.00     8.45 
