~VERSION INFORMATION
VERS.                1.20: CWLS log ASCII Standart - VERSION 1.20
WRAP.                  NO: One line per depth step
~WELL INFORMATION
# MNEM.UNIT               DATA TYPE  INFORMATION
# ----.----------------------------: -------------------
STRT.M                         2608:
STOP.M                         3062:
STEP.M                          0.2:
NULL.                       -999.25:
WELL.WELL                          : 5
LOC .LOCATION                      : 
FLD .FIELD CODE                    : 
UWI .UNIQUE WELL ID                : 
SRVC.SERVICE COMP                  : 
DATE.DDMMYYYY                      : 16/07/2007
~PARAMETER INFORMATION
#MNEM.UNIT               VALUE       DESCRIPTION
#----.-----------------------------: -------------------
TD  .M                             : 3054.6
EKB .M                             : 38.64
SCD .M                             : 0.245
SCDP.M                             : 748.74
CD  .M                             : 0.146
CDP .M                             : 3069.29
DFT .                              : S
BS  .M                             : 0.216
DFD .G/CC                          : 1.32
DFV .S                             : 
DFR .OHMM                          : 
MT  .degC                          : 
RWMT.degC                          : 
SALIN.G/L                          : 
RAU_GK.IMP/MIN                     : 1599
RAU_NEUT.IMP/MIN                   : 
SPEED.M/H                          : 780.5
TDLS.IMP/MIN                       : 132368
TDLB.IMP/MIN                       : 12584
TAU_GK.S                           : 3
TAU_NEUT.S                         : 3
#TOOL1                              : RK5-76
#SENSOR1                            : NKTS(mall),NKTD(eep),MLM ,GK
#TOOL2                              : 
#SENSOR2                            : 
~CURVE INFORMATION
#MNEM.UNIT                           CURVE DESCRIPTION
#----.-----------------------------: -------------------
DEPT.M                             : Depth curve
NKTS.ue                            : Neutron-Neutron Termal Small,  ue
NKTD.ue                            : Neutron-Neutron Termal Deep,  ue
MLM .ue                            : MLM, ue
GK  .uR/h                          : Gamma ray, uR/h
~OTHER INFORMATION
#The file is generated by the program GeoTech-EditLog v2007.06
#Number of Curves = 5
~Ascii Log Data
# ...
3035.20     1.33     1.94    13.00     8.65 
3035.40     1.31     2.02    14.00     8.94 
3035.60     1.37     2.05    13.00     9.10 
3035.80     1.35     2.04    14.00     9.25 
3036.00     1.34     2.00    13.00     9.04 
3036.20     1.35     2.07    14.00     9.02 
3036.40     1.34     2.08    13.00     8.84 
3036.60     1.36     2.08    14.00     9.06 
3036.80     1.36     1.99    13.00     8.87 
3037.00     1.35     1.93    13.00     8.66 
3037.20     1.34     1.89    13.00     9.15 
3037.40     1.35     1.93    13.00     9.15 
3037.60     1.33     1.93    14.00     9.38 
3037.80     1.33     1.90    13.00     9.68 
3038.00     1.34     1.94    13.00     9.82 
3038.20     1.34     2.01    13.00     9.99 
3038.40     1.33     2.00    13.00    10.24 
3038.60     1.33     2.02    14.00    10.15 
3038.80     1.34     1.89    13.00     9.83 
3039.00     1.34     1.91    14.00     9.66 
3039.20     1.31     1.90    13.00     9.98 
3039.40     1.33     1.93    14.00     9.91 
3039.60     1.34     2.04    14.00    10.01 
3039.80     1.33     1.94    14.00    10.40 
3040.00     1.31     1.89    13.00     9.95 
3040.20     1.33     1.99    13.00     9.60 
3040.40     1.36     2.02    13.00    10.13 
3040.60     1.34     2.08    13.00    10.19 
3040.80     1.33     1.94    13.00     9.97 
3041.00     1.29     1.82    13.00     9.69 
3041.20     1.32     1.92    13.00     9.91 
3041.40     1.35     1.92    14.00     9.54 
3041.60     1.35     1.88    13.00     9.38 
3041.80     1.32     1.90    14.00     9.69 
3042.00     1.31     1.91    14.00     9.53 
3042.20     1.32     1.94    13.00     9.62 
3042.40     1.32     1.97    13.00     8.91 
3042.60     1.31     1.86    14.00     8.77 
3042.80     1.30     1.83    13.00     9.34 
3043.00     1.30     1.83    14.00    10.01 
3043.20     1.28     1.78    13.00    10.17 
3043.40     1.26     1.77    14.00     9.87 
3043.60     1.28     1.80    13.00     9.49 
3043.80     1.24     1.77   322.00     9.20 
3044.00     1.22     1.82   636.00     9.87 
3044.20     1.27     1.93    13.00     9.48 
3044.40     1.26     1.92    13.00     8.98 
3044.60     1.29     1.94    13.00     9.32 
3044.80     1.32     1.94    13.00     9.27 
3045.00     1.29     1.90    13.00     9.22 
3045.20     1.26     1.87    13.00     9.43 
3045.40     1.27     1.88    13.00     9.50 
3045.60     1.26     1.81    13.00     9.85 
3045.80     1.25     1.80    13.00     9.84 
3046.00     1.27     1.78    13.00     9.82 
3046.20     1.31     1.87    13.00     9.79 
3046.40     1.33     1.88    14.00     9.96 
3046.60     1.34     1.85    13.00     9.79 
3046.80     1.34     1.91    13.00     9.70 
3047.00     1.33     1.97    14.00     9.42 
3047.20     1.30     1.82    14.00     9.77 
3047.40     1.30     1.91    13.00     9.92 
3047.60     1.30     1.97    13.00     9.93 
3047.80     1.31     1.90    14.00     9.25 
3048.00     1.28     1.89    13.00     9.31 
3048.20     1.31     1.90    13.00     9.09 
3048.40     1.32     1.94    13.00     9.27 
3048.60     1.31     1.96    14.00     9.32 
3048.80     1.36     2.06    14.00     9.32 
3049.00     1.38     2.14    13.00     9.71 
3049.20     1.37     2.14    13.00     9.41 
3049.40     1.36     2.07    14.00     9.23 
3049.60     1.37     2.03    13.00     9.29 
3049.80     1.34     2.03    14.00     9.13 
3050.00     1.34     2.01    14.00     9.34 
3050.20     1.36     2.07    13.00     9.41 
3050.40     1.36     2.10    14.00     9.20 
3050.60     1.36     2.00    14.00     9.44 
3050.80     1.38     2.01    14.00     8.82 
3051.00     1.38     2.06    14.00    11.02 
3051.20     1.36     1.91    13.00    13.32 
3051.40     1.32     1.93    13.00    13.78 
3051.60     1.32     1.97    44.00    11.66 
3051.80     1.34     2.06    13.00    10.06 
3052.00     1.35     2.10    13.00    10.04 
3052.20     1.36     2.04    13.00     9.87 
3052.40     1.36     2.00    14.00    10.16 
3052.60     1.33     2.07    13.00    10.14 
3052.80     1.31     2.03    13.00     9.99 
3053.00     1.32     1.90    13.00     9.64 
3053.20     1.35     1.95    13.00     9.64 
3053.40     1.35     1.88    13.00     9.70 
3053.60     1.36     1.87    13.00    10.54 
3053.80     1.35     1.92    13.00    10.17 
3054.00     1.33     1.97    13.00     9.91 
3054.20     1.32     1.88    13.00     9.74 
3054.40     1.33     1.95    13.00    10.29 
3054.60     1.34     2.02    13.00    10.34 
3054.80     1.33     1.95    13.00     9.99 
3055.00     1.33     1.85    13.00     9.74 
3055.20     1.37     1.88    13.00     9.79 
3055.40     1.36     1.89    13.00    10.02 
3055.60     1.35     1.88    13.00    10.29 
3055.80     1.32     1.88    13.00    10.13 
3056.00     1.31     1.90    13.00    10.19 
3056.20     1.31     1.92    13.00    10.12 
3056.40     1.32     1.87    13.00     9.88 
3056.60     1.33     1.92    13.00    10.65 
3056.80     1.36     1.95    13.00    10.23 
3057.00     1.38     1.96    13.00     9.96 
3057.20     1.37     1.98    13.00    10.45 
3057.40     1.33     2.02    13.00    10.28 
3057.60     1.33     1.94    13.00    10.10 
3057.80     1.34     1.85    13.00    10.60 
3058.00     1.33     1.81    13.00    10.51 
3058.20     1.35     1.87    13.00    10.26 
3058.40     1.34     1.91    13.00    10.36 
3058.60     1.33     1.98    13.00    10.45 
3058.80     1.33     1.99    13.00    10.42 
3059.00     1.34     2.01    13.00    10.24 
3059.20     1.33     1.90    13.00    10.20 
3059.40     1.32     1.90    13.00    10.14 
3059.60     1.31     1.90    13.00    10.06 
3059.80     1.34     1.92    13.00    10.29 
3060.00     1.35     1.82    13.00    10.14 
3060.20     1.34     1.88    13.00    10.31 
3060.40     1.33     1.90  -999.25    10.08 
3060.60     1.33     1.88  -999.25  -999.25 
3060.80     1.31     1.93  -999.25  -999.25 
3061.00     1.31     1.87  -999.25  -999.25 
3061.20     1.33     1.93  -999.25  -999.25 
3061.40     1.33     1.93  -999.25  -999.25 
3061.60     1.32     1.85  -999.25  -999.25 
3061.80     1.35     1.93  -999.25  -999.25 
3062.00     1.34  -999.25  -999.25  -999.25 
