~VERSION INFORMATION
VERS.                1.20: CWLS log ASCII Standart - VERSION 1.20
WRAP.                  NO: One line per depth step
~WELL INFORMATION
# MNEM.UNIT               DATA TYPE  INFORMATION
# ----.----------------------------: -------------------
STRT.M                         2608:
STOP.M                         3062:
STEP.M                          0.2:
NULL.                       -999.25:
WELL.WELL                          : 5
LOC .LOCATION                      : 
FLD .FIELD CODE                    : 
UWI .UNIQUE WELL ID                : 
SRVC.SERVICE COMP                  : 
DATE.DDMMYYYY                      : 16/07/2007
~PARAMETER INFORMATION
#MNEM.UNIT               VALUE       DESCRIPTION
#----.-----------------------------: -------------------
TD  .M                             : 3054.6
EKB .M                             : 38.64
SCD .M                             : 0.245
SCDP.M                             : 748.74
CD  .M                             : 0.146
CDP .M                             : 3069.29
DFT .                              : S
BS  .M                             : 0.216
DFD .G/CC                          : 1.32
DFV .S                             : 
DFR .OHMM                          : 
MT  .degC                          : 
RWMT.degC                          : 
SALIN.G/L                          : 
RAU_GK.IMP/MIN                     : 1599
RAU_NEUT.IMP/MIN                   : 
SPEED.M/H                          : 780.5
TDLS.IMP/MIN                       : 132368
TDLB.IMP/MIN                       : 12584
TAU_GK.S                           : 3
TAU_NEUT.S                         : 3
#TOOL1                              : RK5-76
#SENSOR1                            : NKTS(mall),NKTD(eep),MLM ,GK
#TOOL2                              : 
#SENSOR2                            : 
~CURVE INFORMATION
#MNEM.UNIT                           CURVE DESCRIPTION
#----.-----------------------------: -------------------
DEPT.M                             : Depth curve
NKTS.ue                            : Neutron-Neutron Termal Small,  ue
NKTD.ue                            : Neutron-Neutron Termal Deep,  ue
MLM .ue                            : MLM, ue
GK  .uR/h                          : Gamma ray, uR/h
~OTHER INFORMATION
#The file is generated by the program GeoTech-EditLog v2007.06
#Number of Curves = 5
~Ascii Log Data
# ...
2857.20     1.46     2.33    13.00     7.39 
2857.40     1.44     2.28    13.00     7.69 
2857.60     1.42     2.30    13.00     8.03 
2857.80     1.41     2.27    13.00     8.18 
2858.00     1.42     2.32    13.00     8.28 
2858.20     1.42     2.23    13.00     8.34 
2858.40     1.41     2.26    13.00     8.46 
2858.60     1.39     2.32    13.00     8.11 
2858.80     1.41     2.37    13.00     7.81 
2859.00     1.44     2.35    13.00     8.01 
2859.20     1.47     2.40    13.00     7.55 
2859.40     1.46     2.49    13.00     7.27 
2859.60     1.46     2.49    13.00     7.34 
2859.80     1.47     2.43    13.00     7.57 
2860.00     1.46     2.47    13.00     7.91 
2860.20     1.48     2.57    13.00     7.95 
2860.40     1.53     2.67    13.00     6.70 
2860.60     1.59     2.68    13.00     6.91 
2860.80     1.56     2.55    13.00     7.73 
2861.00     1.47     2.51    13.00     8.52 
2861.20     1.47     2.46    13.00     8.73 
2861.40     1.48     2.40    13.00     8.94 
2861.60     1.47     2.43    13.00     8.79 
2861.80     1.46     2.46    13.00     8.15 
2862.00     1.47     2.53    13.00     7.72 
2862.20     1.51     2.63    14.00     7.57 
2862.40     1.60     2.75    13.00     7.12 
2862.60     1.58     2.80    13.00     7.90 
2862.80     1.49     2.64    13.00     8.79 
2863.00     1.46     2.51    13.00     8.42 
2863.20     1.45     2.53    13.00     8.51 
2863.40     1.49     2.43    13.00     8.39 
2863.60     1.52     2.52    13.00     8.43 
2863.80     1.56     2.57    13.00     7.96 
2864.00     1.47     2.40   171.00     7.91 
2864.20     1.45     2.36   635.00     8.54 
2864.40     1.45     2.39   159.00     8.68 
2864.60     1.44     2.34    13.00     8.90 
2864.80     1.46     2.33    46.00     8.41 
2865.00     1.42     2.32    14.00     8.05 
2865.20     1.43     2.23    13.00     8.40 
2865.40     1.47     2.25    39.00     8.51 
2865.60     1.48     2.37    38.00     8.34 
2865.80     1.49     2.31    13.00     8.47 
2866.00     1.47     2.39    13.00     8.86 
2866.20     1.46     2.39    13.00     8.01 
2866.40     1.46     2.42    13.00     8.35 
2866.60     1.46     2.38    13.00     8.02 
2866.80     1.45     2.37    13.00     8.21 
2867.00     1.48     2.47    13.00     8.02 
2867.20     1.49     2.44    13.00     8.24 
2867.40     1.49     2.49    13.00     8.03 
2867.60     1.48     2.50    13.00     8.14 
2867.80     1.48     2.42    13.00     8.08 
2868.00     1.44     2.27    13.00     8.41 
2868.20     1.45     2.28    13.00     8.03 
2868.40     1.45     2.34    13.00     8.33 
2868.60     1.45     2.34    13.00     8.09 
2868.80     1.43     2.22    13.00     8.30 
2869.00     1.42     2.14    13.00     8.59 
2869.20     1.42     2.24    13.00     8.48 
2869.40     1.44     2.31    13.00     8.77 
2869.60     1.46     2.38    13.00     8.17 
2869.80     1.46     2.35    13.00     8.20 
2870.00     1.45     2.40    13.00     8.48 
2870.20     1.44     2.32    13.00     8.40 
2870.40     1.46     2.36    13.00     8.01 
2870.60     1.46     2.35    13.00     8.40 
2870.80     1.45     2.39    13.00     8.85 
2871.00     1.43     2.36    13.00     8.54 
2871.20     1.43     2.32    13.00     8.01 
2871.40     1.46     2.40    13.00     7.68 
2871.60     1.47     2.34    13.00     8.12 
2871.80     1.46     2.40    13.00     8.17 
2872.00     1.48     2.27    13.00     8.23 
2872.20     1.46     2.27    13.00     8.49 
2872.40     1.46     2.35    13.00     8.18 
2872.60     1.47     2.40    13.00     8.49 
2872.80     1.49     2.41    13.00     8.58 
2873.00     1.49     2.43    13.00     8.00 
2873.20     1.48     2.34    13.00     7.85 
2873.40     1.49     2.45    13.00     7.73 
2873.60     1.50     2.37    13.00     8.07 
2873.80     1.46     2.25    13.00     7.89 
2874.00     1.39     2.17    88.00     7.71 
2874.20     1.42     2.27   538.00     8.14 
2874.40     1.43     2.32   309.00     8.22 
2874.60     1.42     2.22    53.00     8.74 
2874.80     1.45     2.23    13.00     8.65 
2875.00     1.44     2.20    13.00     8.67 
2875.20     1.42     2.25    14.00     8.03 
2875.40     1.41     2.31    14.00     8.19 
2875.60     1.43     2.26    13.00     8.45 
2875.80     1.43     2.39    13.00     8.14 
2876.00     1.45     2.42    14.00     8.09 
2876.20     1.44     2.33    13.00     7.82 
2876.40     1.43     2.23    13.00     8.18 
2876.60     1.43     2.36    13.00     8.44 
2876.80     1.43     2.34    13.00     8.20 
2877.00     1.45     2.37    13.00     7.62 
2877.20     1.46     2.38    13.00     8.06 
2877.40     1.46     2.36    13.00     8.22 
2877.60     1.48     2.59    13.00     7.81 
2877.80     1.49     2.61    13.00     7.55 
2878.00     1.50     2.59    13.00     7.46 
2878.20     1.44     2.40    13.00     7.64 
2878.40     1.44     2.29    13.00     8.36 
2878.60     1.42     2.31    13.00     8.28 
2878.80     1.42     2.25    13.00     8.61 
2879.00     1.42     2.27    13.00     8.19 
2879.20     1.42     2.33    13.00     8.63 
2879.40     1.40     2.24    13.00     8.37 
2879.60     1.43     2.25    13.00     8.51 
2879.80     1.43     2.26    13.00     8.65 
2880.00     1.42     2.17    14.00     8.64 
2880.20     1.42     2.15    13.00     8.69 
2880.40     1.44     2.27    13.00     8.82 
2880.60     1.44     2.28    13.00     8.56 
2880.80     1.44     2.32    13.00     8.92 
2881.00     1.43     2.27    13.00     8.48 
2881.20     1.41     2.21    13.00     8.34 
2881.40     1.43     2.21    13.00     8.44 
2881.60     1.43     2.14    13.00     8.86 
2881.80     1.41     2.15    13.00     8.43 
2882.00     1.40     2.17    13.00     8.67 
2882.20     1.38     2.22    13.00     8.92 
2882.40     1.43     2.26    13.00     8.23 
2882.60     1.45     2.24    13.00     8.13 
2882.80     1.44     2.29    13.00     8.11 
2883.00     1.45     2.32    13.00     8.03 
2883.20     1.47     2.32    13.00     7.77 
2883.40     1.42     2.43    13.00     7.37 
2883.60     1.49     2.42    13.00     6.69 
2883.80     1.41     2.15   350.00     6.11 
2884.00     1.42     2.31   604.00     7.21 
2884.20     1.45     2.38    35.00     7.79 
2884.40     1.44     2.23    49.00     7.90 
2884.60     1.48     2.26    52.00     8.41 
2884.80     1.52     2.30    52.00     8.13 
2885.00     1.49     2.27    13.00     7.94 
2885.20     1.43     2.24    13.00     8.50 
2885.40     1.45     2.27    13.00     8.75 
2885.60     1.42     2.30    13.00     9.02 
2885.80     1.42     2.24    13.00     9.04 
2886.00     1.41     2.24    13.00     8.36 
2886.20     1.40     2.26    13.00     8.62 
2886.40     1.39     2.07    13.00     8.89 
2886.60     1.41     2.19    13.00     8.63 
2886.80     1.40     2.17    13.00     8.58 
2887.00     1.42     2.08    13.00     8.89 
2887.20     1.42     2.19    13.00     8.58 
2887.40     1.44     2.17    13.00     8.33 
2887.60     1.43     2.14    13.00     8.20 
2887.80     1.43     2.33    13.00     8.22 
2888.00     1.44     2.31    13.00     8.11 
2888.20     1.44     2.40    13.00     7.92 
2888.40     1.49     2.74    13.00     7.63 
2888.60     1.52     2.56    13.00     7.61 
2888.80     1.47     2.37    13.00     8.06 
2889.00     1.43     2.24    13.00     8.59 
2889.20     1.44     2.17    13.00     8.79 
2889.40     1.42     2.24    13.00     8.61 
2889.60     1.41     2.23    13.00     8.43 
2889.80     1.44     2.28    13.00     8.60 
2890.00     1.43     2.20    13.00     8.44 
2890.20     1.43     2.22    13.00     8.08 
2890.40     1.43     2.21    13.00     8.08 
2890.60     1.41     2.21    13.00     8.96 
2890.80     1.39     2.15    13.00     8.46 
2891.00     1.40     2.23    13.00     8.36 
2891.20     1.39     2.24    13.00     9.02 
2891.40     1.40     2.28    13.00     8.58 
2891.60     1.42     2.37    13.00     8.45 
2891.80     1.44     2.38    13.00     8.11 
2892.00     1.43     2.30    13.00     7.69 
2892.20     1.41     2.27    13.00     7.95 
2892.40     1.41     2.27    13.00     8.12 
2892.60     1.41     2.24    13.00     8.21 
