~VERSION INFORMATION
VERS.                1.20: CWLS log ASCII Standart - VERSION 1.20
WRAP.                  NO: One line per depth step
~WELL INFORMATION
# MNEM.UNIT               DATA TYPE  INFORMATION
# ----.----------------------------: -------------------
STRT.M                         2608:
STOP.M                         3062:
STEP.M                          0.2:
NULL.                       -999.25:
WELL.WELL                          : 5
LOC .LOCATION                      : 
FLD .FIELD CODE                    : 
UWI .UNIQUE WELL ID                : 
SRVC.SERVICE COMP                  : 
DATE.DDMMYYYY                      : 16/07/2007
~PARAMETER INFORMATION
#MNEM.UNIT               VALUE       DESCRIPTION
#----.-----------------------------: -------------------
TD  .M                             : 3054.6
EKB .M                             : 38.64
SCD .M                             : 0.245
SCDP.M                             : 748.74
CD  .M                             : 0.146
CDP .M                             : 3069.29
DFT .                              : S
BS  .M                             : 0.216
DFD .G/CC                          : 1.32
DFV .S                             : 
DFR .OHMM                          : 
MT  .degC                          : 
RWMT.degC                          : 
SALIN.G/L                          : 
RAU_GK.IMP/MIN                     : 1599
RAU_NEUT.IMP/MIN                   : 
SPEED.M/H                          : 780.5
TDLS.IMP/MIN                       : 132368
TDLB.IMP/MIN                       : 12584
TAU_GK.S                           : 3
TAU_NEUT.S                         : 3
#TOOL1                              : RK5-76
#SENSOR1                            : NKTS(mall),NKTD(eep),MLM ,GK
#TOOL2                              : 
#SENSOR2                            : 
~CURVE INFORMATION
#MNEM.UNIT                           CURVE DESCRIPTION
#----.-----------------------------: -------------------
DEPT.M                             : Depth curve
NKTS.ue                            : Neutron-Neutron Termal Small,  ue
NKTD.ue                            : Neutron-Neutron Termal Deep,  ue
MLM .ue                            : MLM, ue
GK  .uR/h                          : Gamma ray, uR/h
~OTHER INFORMATION
#The file is generated by the program GeoTech-EditLog v2007.06
#Number of Curves = 5
~Ascii Log Data
# ...
2964.00     1.39     2.17    37.00     8.72 
2964.20     1.42     2.20    14.00     7.98 
2964.40     1.39     2.10    13.00     7.24 
2964.60     1.41     2.15    13.00     6.09 
2964.80     1.44     2.34    43.00     5.35 
2965.00     1.43     2.33    13.00     5.11 
2965.20     1.43     2.32    14.00     5.07 
2965.40     1.44     2.27    13.00     5.36 
2965.60     1.43     2.33    14.00     5.65 
2965.80     1.45     2.36    13.00     5.93 
2966.00     1.44     2.18    13.00     6.51 
2966.20     1.43     2.18    13.00     7.66 
2966.40     1.41     2.25    13.00     9.02 
2966.60     1.38     2.25    13.00     8.95 
2966.80     1.38     2.18    13.00     9.06 
2967.00     1.38     2.19    13.00     8.79 
2967.20     1.40     2.31    13.00     9.05 
2967.40     1.38     2.28    14.00     8.96 
2967.60     1.40     2.27    13.00     7.70 
2967.80     1.39     2.30    13.00     6.46 
2968.00     1.43     2.29    13.00     6.05 
2968.20     1.45     2.29    13.00     5.48 
2968.40     1.44     2.33    13.00     4.90 
2968.60     1.44     2.26    13.00     5.39 
2968.80     1.42     2.21    14.00     5.80 
2969.00     1.43     2.29    14.00     6.44 
2969.20     1.40     2.24    13.00     6.73 
2969.40     1.42     2.21    13.00     6.88 
2969.60     1.41     2.22    13.00     6.57 
2969.80     1.41     2.30    13.00     6.28 
2970.00     1.45     2.20    13.00     6.31 
2970.20     1.45     2.21    13.00     6.59 
2970.40     1.43     2.13    13.00     7.58 
2970.60     1.40     2.14    13.00     8.04 
2970.80     1.41     2.28    13.00     7.71 
2971.00     1.43     2.45    13.00     6.37 
2971.20     1.44     2.40    13.00     5.62 
2971.40     1.46     2.44    13.00     5.48 
2971.60     1.44     2.56    13.00     5.36 
2971.80     1.47     2.63    13.00     5.31 
2972.00     1.54     2.74    13.00     5.18 
2972.20     1.58     2.70    13.00     4.87 
2972.40     1.54     2.62    13.00     4.81 
2972.60     1.52     2.50    13.00     4.63 
2972.80     1.52     2.06   196.00     5.32 
2973.00     1.43     2.18   528.00     6.64 
2973.20     1.38     2.25    14.00     7.65 
2973.40     1.37     2.17    13.00     8.11 
2973.60     1.40     2.24    13.00     7.07 
2973.80     1.42     2.29    14.00     6.35 
2974.00     1.45     2.35    13.00     5.79 
2974.20     1.46     2.42    13.00     6.36 
2974.40     1.46     2.35    13.00     6.33 
2974.60     1.45     2.33    13.00     6.66 
2974.80     1.46     2.31    13.00     6.50 
2975.00     1.44     2.32    13.00     5.58 
2975.20     1.45     2.39    13.00     5.14 
2975.40     1.46     2.44    13.00     4.89 
2975.60     1.46     2.34    13.00     5.63 
2975.80     1.45     2.27    13.00     5.47 
2976.00     1.45     2.31    13.00     5.31 
2976.20     1.44     2.27    13.00     5.67 
2976.40     1.45     2.28    13.00     6.62 
2976.60     1.44     2.19    14.00     7.11 
2976.80     1.42     2.23    13.00     6.51 
2977.00     1.42     2.31    13.00     5.66 
2977.20     1.45     2.25    13.00     5.62 
2977.40     1.47     2.12    13.00     6.30 
2977.60     1.45     2.16    13.00     7.83 
2977.80     1.42     2.22    13.00     9.67 
2978.00     1.43     2.25    13.00     9.87 
2978.20     1.41     2.25    13.00     9.96 
2978.40     1.43     2.23    13.00     9.32 
2978.60     1.43     2.19    13.00     8.87 
2978.80     1.44     2.26    13.00     8.77 
2979.00     1.44     2.23    14.00     9.38 
2979.20     1.41     2.18    13.00     9.34 
2979.40     1.42     2.14    13.00     8.91 
2979.60     1.46     2.16    13.00     8.44 
2979.80     1.44     2.28    13.00     6.85 
2980.00     1.45     2.30    13.00     6.45 
2980.20     1.47     2.30    13.00     7.15 
2980.40     1.42     2.26    13.00     7.53 
2980.60     1.41     2.11    13.00     7.66 
2980.80     1.43     2.14    14.00     7.92 
2981.00     1.42     2.15    13.00     7.05 
2981.20     1.43     2.21    13.00     6.03 
2981.40     1.46     2.21    13.00     6.18 
2981.60     1.44     2.26    13.00     6.03 
2981.80     1.45     2.37    13.00     6.06 
2982.00     1.44     2.46    13.00     6.04 
2982.20     1.47     2.39    13.00     5.98 
2982.40     1.48     2.38    14.00     6.38 
2982.60     1.50     2.44    13.00     6.32 
2982.80     1.55     2.43    13.00     5.35 
2983.00     1.50     2.37   274.00     5.08 
2983.20     1.42     2.20   619.00     5.84 
2983.40     1.42     2.27    14.00     6.03 
2983.60     1.38     2.36    13.00     5.74 
2983.80     1.48     2.32    13.00     5.64 
2984.00     1.46     2.33    13.00     5.65 
2984.20     1.45     2.39    13.00     5.81 
2984.40     1.46     2.45    13.00     6.03 
2984.60     1.46     2.35    14.00     5.80 
2984.80     1.44     2.33    13.00     5.76 
2985.00     1.46     2.50    13.00     6.15 
2985.20     1.49     2.42    13.00     6.42 
2985.40     1.47     2.43    13.00     6.37 
2985.60     1.45     2.46    13.00     6.53 
2985.80     1.47     2.46    13.00     6.59 
2986.00     1.45     2.43    13.00     6.18 
2986.20     1.46     2.54    13.00     6.16 
2986.40     1.47     2.52    13.00     6.28 
2986.60     1.46     2.51    13.00     6.19 
2986.80     1.45     2.46    13.00     6.17 
2987.00     1.48     2.46    13.00     6.22 
2987.20     1.53     2.61    13.00     5.73 
2987.40     1.58     3.00    13.00     5.41 
2987.60     1.73     3.44    13.00     5.01 
2987.80     1.84     3.83    13.00     4.60 
2988.00     1.85     3.88    13.00     4.69 
2988.20     1.83     3.89    13.00     4.80 
2988.40     1.87     3.98    13.00     4.72 
2988.60     1.86     3.78    13.00     4.68 
2988.80     1.84     3.57    13.00     4.85 
2989.00     1.80     3.76    13.00     4.99 
2989.20     1.82     4.00    13.00     5.16 
2989.40     1.88     4.41    13.00     5.43 
2989.60     1.89     4.39    13.00     5.17 
2989.80     1.87     4.30    13.00     5.07 
2990.00     1.84     4.13    13.00     5.27 
2990.20     1.79     3.86    14.00     5.37 
2990.40     1.75     3.31    13.00     5.86 
2990.60     1.62     2.83    13.00     6.16 
2990.80     1.52     2.67    13.00     5.92 
2991.00     1.51     2.48    13.00     5.96 
2991.20     1.49     2.40    13.00     5.68 
2991.40     1.48     2.39    14.00     5.85 
2991.60     1.46     2.36    14.00     6.14 
2991.80     1.46     2.31    14.00     6.83 
2992.00     1.47     2.26    14.00     8.17 
2992.20     1.46     2.33    13.00     8.24 
2992.40     1.42     2.32    13.00     6.81 
2992.60     1.42     2.37    13.00     5.37 
2992.80     1.47     2.51    14.00     4.44 
2993.00     1.46     2.33   321.00     4.49 
2993.20     1.43     2.26   564.00     5.37 
2993.40     1.46     2.26    13.00     5.56 
2993.60     1.44     2.29    13.00     5.82 
2993.80     1.46     2.47    13.00     6.07 
2994.00     1.46     2.39    13.00     5.68 
2994.20     1.43     2.40    13.00     5.34 
2994.40     1.46     2.38    13.00     5.26 
2994.60     1.46     2.28    13.00     5.35 
2994.80     1.47     2.32    14.00     5.65 
2995.00     1.47     2.26    13.00     5.91 
2995.20     1.45     2.29    13.00     6.15 
2995.40     1.43     2.28    13.00     6.69 
2995.60     1.41     2.19    13.00     6.91 
2995.80     1.43     2.14    13.00     6.90 
2996.00     1.41     2.05    13.00     6.92 
2996.20     1.39     2.12    13.00     6.67 
2996.40     1.43     2.31    14.00     6.21 
2996.60     1.51     2.60    13.00     5.24 
2996.80     1.56     2.76    13.00     5.24 
2997.00     1.54     2.59    14.00     5.94 
2997.20     1.48     2.40    13.00     6.99 
2997.40     1.47     2.28    14.00     7.26 
2997.60     1.44     2.26    13.00     7.59 
2997.80     1.43     2.33    13.00     7.03 
2998.00     1.45     2.36    13.00     6.32 
2998.20     1.48     2.38    14.00     5.98 
2998.40     1.49     2.45    13.00     6.63 
2998.60     1.49     2.30    13.00     7.61 
2998.80     1.47     2.27    13.00     8.45 
2999.00     1.43     2.23    13.00     8.53 
2999.20     1.44     2.20    14.00     7.95 
2999.40     1.44     2.23    13.00     7.55 
