~VERSION INFORMATION
VERS.                1.20: CWLS log ASCII Standart - VERSION 1.20
WRAP.                  NO: One line per depth step
~WELL INFORMATION
# MNEM.UNIT               DATA TYPE  INFORMATION
# ----.----------------------------: -------------------
STRT.M                         2608:
STOP.M                         3062:
STEP.M                          0.2:
NULL.                       -999.25:
WELL.WELL                          : 5
LOC .LOCATION                      : 
FLD .FIELD CODE                    : 
UWI .UNIQUE WELL ID                : 
SRVC.SERVICE COMP                  : 
DATE.DDMMYYYY                      : 16/07/2007
~PARAMETER INFORMATION
#MNEM.UNIT               VALUE       DESCRIPTION
#----.-----------------------------: -------------------
TD  .M                             : 3054.6
EKB .M                             : 38.64
SCD .M                             : 0.245
SCDP.M                             : 748.74
CD  .M                             : 0.146
CDP .M                             : 3069.29
DFT .                              : S
BS  .M                             : 0.216
DFD .G/CC                          : 1.32
DFV .S                             : 
DFR .OHMM                          : 
MT  .degC                          : 
RWMT.degC                          : 
SALIN.G/L                          : 
RAU_GK.IMP/MIN                     : 1599
RAU_NEUT.IMP/MIN                   : 
SPEED.M/H                          : 780.5
TDLS.IMP/MIN                       : 132368
TDLB.IMP/MIN                       : 12584
TAU_GK.S                           : 3
TAU_NEUT.S                         : 3
#TOOL1                              : RK5-76
#SENSOR1                            : NKTS(mall),NKTD(eep),MLM ,GK
#TOOL2                              : 
#SENSOR2                            : 
~CURVE INFORMATION
#MNEM.UNIT                           CURVE DESCRIPTION
#----.-----------------------------: -------------------
DEPT.M                             : Depth curve
NKTS.ue                            : Neutron-Neutron Termal Small,  ue
NKTD.ue                            : Neutron-Neutron Termal Deep,  ue
MLM .ue                            : MLM, ue
GK  .uR/h                          : Gamma ray, uR/h
~OTHER INFORMATION
#The file is generated by the program GeoTech-EditLog v2007.06
#Number of Curves = 5
~Ascii Log Data
# ...
2679.20     1.37     2.14    13.00     8.04 
2679.40     1.38     2.20    13.00     8.61 
2679.60     1.35     2.20    13.00     8.07 
2679.80     1.35     2.21    13.00     8.13 
2680.00     1.36     2.20    13.00     8.40 
2680.20     1.36     2.24    13.00     8.29 
2680.40     1.35     2.14    13.00     8.53 
2680.60     1.33     2.07    13.00     8.90 
2680.80     1.32     1.99    13.00     8.65 
2681.00     1.32     2.08    13.00     8.56 
2681.20     1.33     2.12    13.00     8.20 
2681.40     1.35     2.20    13.00     7.93 
2681.60     1.39     2.30    13.00     6.72 
2681.80     1.46     2.54    13.00     7.60 
2682.00     1.48     2.62    13.00     8.42 
2682.20     1.36     2.23    13.00     8.27 
2682.40     1.31     2.01    14.00     7.60 
2682.60     1.31     1.97   328.00     7.96 
2682.80     1.28     1.98   461.00     8.10 
2683.00     1.19     1.88    13.00     8.13 
2683.20     1.20     1.79    14.00     8.04 
2683.40     1.23     1.77    13.00     8.20 
2683.60     1.25     1.75    13.00     7.57 
2683.80     1.22     1.71    13.00     7.75 
2684.00     1.20     1.67    13.00     8.21 
2684.20     1.18     1.73    13.00     8.18 
2684.40     1.19     1.71    14.00     7.96 
2684.60     1.17     1.71    13.00     8.03 
2684.80     1.18     1.73    13.00     8.16 
2685.00     1.20     1.75    13.00     8.75 
2685.20     1.18     1.70    13.00     8.57 
2685.40     1.18     1.77    13.00     8.29 
2685.60     1.20     1.88    13.00     7.88 
2685.80     1.21     1.89    13.00     8.01 
2686.00     1.23     1.82    13.00     8.12 
2686.20     1.26     1.81    13.00     8.33 
2686.40     1.24     1.79    13.00     8.69 
2686.60     1.24     1.72    13.00     8.84 
2686.80     1.23     1.78    13.00     8.92 
2687.00     1.23     1.83    13.00     8.63 
2687.20     1.22     1.89    13.00     8.69 
2687.40     1.24     1.81    13.00     8.12 
2687.60     1.25     1.83    13.00     8.18 
2687.80     1.26     1.85    13.00     8.65 
2688.00     1.27     1.92    13.00     8.64 
2688.20     1.30     1.92    13.00     8.66 
2688.40     1.29     1.94    13.00     8.78 
2688.60     1.29     1.89    13.00     8.47 
2688.80     1.27     1.91    13.00     8.04 
2689.00     1.25     1.90    13.00     7.90 
2689.20     1.25     1.94    13.00     8.17 
2689.40     1.26     2.03    13.00     8.04 
2689.60     1.27     1.95    13.00     8.07 
2689.80     1.29     1.93    13.00     8.39 
2690.00     1.27     1.86    13.00     8.30 
2690.20     1.28     1.91    13.00     8.04 
2690.40     1.29     2.00    13.00     8.37 
2690.60     1.28     1.97    13.00     8.41 
2690.80     1.28     1.94    13.00     8.03 
2691.00     1.28     1.96    13.00     8.01 
2691.20     1.29     2.02    13.00     7.93 
2691.40     1.30     2.01    13.00     7.82 
2691.60     1.28     1.93    13.00     7.94 
2691.80     1.25     1.81    13.00     7.73 
2692.00     1.25     1.90    13.00     7.57 
2692.20     1.25     1.91    13.00     7.49 
2692.40     1.27     1.89    14.00     7.56 
2692.60     1.28     1.86   428.00     7.81 
2692.80     1.24     1.89   611.00     7.89 
2693.00     1.29     1.95    13.00     7.58 
2693.20     1.28     1.93    13.00     7.86 
2693.40     1.25     1.91    13.00     7.96 
2693.60     1.21     1.92    13.00     7.82 
2693.80     1.25     1.88    13.00     8.26 
2694.00     1.29     1.88    13.00     8.44 
2694.20     1.30     2.06    13.00     8.13 
2694.40     1.34     2.21    13.00     6.92 
2694.60     1.39     2.40    13.00     6.87 
2694.80     1.37     2.25    13.00     6.87 
2695.00     1.38     2.21    13.00     6.63 
2695.20     1.36     2.19    13.00     6.92 
2695.40     1.37     2.13    13.00     7.29 
2695.60     1.38     2.13    13.00     7.25 
2695.80     1.35     2.13    13.00     7.60 
2696.00     1.35     2.04    13.00     7.52 
2696.20     1.35     1.99    13.00     7.85 
2696.40     1.32     2.00    13.00     7.82 
2696.60     1.30     2.03    14.00     7.62 
2696.80     1.30     1.98    13.00     7.56 
2697.00     1.30     1.96    13.00     7.76 
2697.20     1.32     1.91    13.00     8.00 
2697.40     1.32     1.92    13.00     7.92 
2697.60     1.32     1.98    13.00     7.98 
2697.80     1.31     1.97    13.00     7.92 
2698.00     1.30     1.94    13.00     8.08 
2698.20     1.31     1.98    13.00     7.93 
2698.40     1.32     2.02    13.00     7.77 
2698.60     1.30     1.98    13.00     7.86 
2698.80     1.31     1.94    13.00     7.86 
2699.00     1.31     2.09    13.00     7.70 
2699.20     1.31     2.01    13.00     7.89 
2699.40     1.31     2.05    13.00     8.06 
2699.60     1.31     2.09    13.00     7.76 
2699.80     1.31     2.09    13.00     8.30 
2700.00     1.33     2.02    13.00     8.26 
2700.20     1.35     2.00    13.00     7.87 
2700.40     1.34     1.86    14.00     7.86 
2700.60     1.32     1.82    13.00     7.66 
2700.80     1.31     2.00    13.00     7.85 
2701.00     1.30     1.99    13.00     8.13 
2701.20     1.31     2.09    13.00     7.81 
2701.40     1.33     2.07    13.00     8.20 
2701.60     1.32     2.01    13.00     8.18 
2701.80     1.33     1.98    13.00     8.14 
2702.00     1.32     1.95    13.00     7.78 
2702.20     1.33     1.98    14.00     6.84 
2702.40     1.33     2.03   365.00     6.72 
2702.60     1.32     2.06   420.00     7.75 
2702.80     1.27     2.00    13.00     7.75 
2703.00     1.30     2.10    13.00     7.91 
2703.20     1.33     1.96    13.00     7.77 
2703.40     1.35     1.92    13.00     7.98 
2703.60     1.33     1.98    13.00     7.80 
2703.80     1.32     1.99    13.00     8.48 
2704.00     1.33     1.98    13.00     8.09 
2704.20     1.36     2.02    13.00     7.98 
2704.40     1.36     2.07    13.00     7.66 
2704.60     1.36     2.09    13.00     7.99 
2704.80     1.36     2.11    13.00     8.32 
2705.00     1.37     2.18    13.00     8.71 
2705.20     1.35     2.14    13.00     8.84 
2705.40     1.34     2.06    13.00     8.54 
2705.60     1.32     1.95    13.00     8.56 
2705.80     1.30     1.94    13.00     8.43 
2706.00     1.32     2.02    13.00     7.87 
2706.20     1.35     2.17    13.00     7.65 
2706.40     1.37     2.12    13.00     7.54 
2706.60     1.35     2.06    13.00     8.09 
2706.80     1.33     2.03    13.00     8.50 
2707.00     1.33     2.00    13.00     8.84 
2707.20     1.32     2.00    13.00     8.78 
2707.40     1.33     1.97    13.00     8.87 
2707.60     1.32     1.96    13.00     8.74 
2707.80     1.32     2.02    13.00     8.92 
2708.00     1.35     1.96    13.00     8.83 
2708.20     1.31     1.91    13.00     8.87 
2708.40     1.29     1.87    13.00     9.19 
2708.60     1.27     1.81    13.00     8.71 
2708.80     1.27     1.84    13.00     8.30 
2709.00     1.26     1.82    13.00     8.31 
2709.20     1.26     1.81    13.00     9.01 
2709.40     1.27     1.86    13.00     9.50 
2709.60     1.29     1.85    13.00     9.01 
2709.80     1.28     1.77    13.00     8.81 
2710.00     1.27     1.96    13.00     8.89 
2710.20     1.29     1.95    13.00     8.86 
2710.40     1.31     1.98    13.00     9.25 
2710.60     1.32     2.06    13.00     9.02 
2710.80     1.33     2.08    14.00     9.05 
2711.00     1.34     2.03    13.00     9.00 
2711.20     1.32     1.98    13.00     8.90 
2711.40     1.30     1.95    13.00     9.47 
2711.60     1.30     1.87    13.00     9.31 
2711.80     1.31     1.88    13.00     9.51 
2712.00     1.29     1.91    13.00     9.20 
2712.20     1.25     1.85    13.00     9.28 
2712.40     1.27     1.95    13.00     9.70 
2712.60     1.29     1.95    13.00     8.89 
2712.80     1.34     1.93    13.00     7.67 
2713.00     1.36     1.95   308.00     8.03 
2713.20     1.34     2.07   457.00     8.56 
2713.40     1.27     2.02    13.00     8.85 
2713.60     1.25     1.81    13.00     8.81 
2713.80     1.24     1.75    13.00     8.43 
2714.00     1.22     1.76    13.00     8.69 
2714.20     1.24     1.66    13.00     9.10 
2714.40     1.23     1.67    13.00     8.81 
2714.60     1.22     1.74    13.00     8.51 
