~VERSION INFORMATION
VERS.                1.20: CWLS log ASCII Standart - VERSION 1.20
WRAP.                  NO: One line per depth step
~WELL INFORMATION
# MNEM.UNIT               DATA TYPE  INFORMATION
# ----.----------------------------: -------------------
STRT.M                         2608:
STOP.M                         3062:
STEP.M                          0.2:
NULL.                       -999.25:
WELL.WELL                          : 5
LOC .LOCATION                      : 
FLD .FIELD CODE                    : 
UWI .UNIQUE WELL ID                : 
SRVC.SERVICE COMP                  : 
DATE.DDMMYYYY                      : 16/07/2007
~PARAMETER INFORMATION
#MNEM.UNIT               VALUE       DESCRIPTION
#----.-----------------------------: -------------------
TD  .M                             : 3054.6
EKB .M                             : 38.64
SCD .M                             : 0.245
SCDP.M                             : 748.74
CD  .M                             : 0.146
CDP .M                             : 3069.29
DFT .                              : S
BS  .M                             : 0.216
DFD .G/CC                          : 1.32
DFV .S                             : 
DFR .OHMM                          : 
MT  .degC                          : 
RWMT.degC                          : 
SALIN.G/L                          : 
RAU_GK.IMP/MIN                     : 1599
RAU_NEUT.IMP/MIN                   : 
SPEED.M/H                          : 780.5
TDLS.IMP/MIN                       : 132368
TDLB.IMP/MIN                       : 12584
TAU_GK.S                           : 3
TAU_NEUT.S                         : 3
#TOOL1                              : RK5-76
#SENSOR1                            : NKTS(mall),NKTD(eep),MLM ,GK
#TOOL2                              : 
#SENSOR2                            : 
~CURVE INFORMATION
#MNEM.UNIT                           CURVE DESCRIPTION
#----.-----------------------------: -------------------
DEPT.M                             : Depth curve
NKTS.ue                            : Neutron-Neutron Termal Small,  ue
NKTD.ue                            : Neutron-Neutron Termal Deep,  ue
MLM .ue                            : MLM, ue
GK  .uR/h                          : Gamma ray, uR/h
~OTHER INFORMATION
#The file is generated by the program GeoTech-EditLog v2007.06
#Number of Curves = 5
~Ascii Log Data
# ...
2892.80     1.45     2.36    13.00     8.21 
2893.00     1.46     2.40    13.00     8.22 
2893.20     1.49     2.60    13.00     7.93 
2893.40     1.52     2.60    14.00     7.18 
2893.60     1.46     2.52   115.00     6.78 
2893.80     1.49     2.54   524.00     7.02 
2894.00     1.51     2.39   339.00     7.43 
2894.20     1.46     2.27    13.00     7.28 
2894.40     1.43     2.22    13.00     7.39 
2894.60     1.45     2.27    13.00     7.72 
2894.80     1.44     2.35    13.00     7.70 
2895.00     1.43     2.28    13.00     7.60 
2895.20     1.41     2.26    13.00     7.76 
2895.40     1.40     2.33    13.00     8.28 
2895.60     1.44     2.26    13.00     8.06 
2895.80     1.45     2.26    13.00     7.73 
2896.00     1.42     2.30    13.00     8.10 
2896.20     1.44     2.35    13.00     7.77 
2896.40     1.46     2.40    13.00     7.73 
2896.60     1.44     2.40    13.00     8.01 
2896.80     1.47     2.43    13.00     7.74 
2897.00     1.44     2.42    13.00     8.30 
2897.20     1.43     2.50    13.00     8.55 
2897.40     1.45     2.54    13.00     7.70 
2897.60     1.46     2.41    13.00     7.58 
2897.80     1.45     2.29    13.00     7.64 
2898.00     1.45     2.27    13.00     8.02 
2898.20     1.42     2.31    13.00     8.26 
2898.40     1.42     2.17    13.00     8.73 
2898.60     1.40     2.13    13.00     8.76 
2898.80     1.43     2.17    13.00     8.60 
2899.00     1.44     2.26    13.00     8.27 
2899.20     1.44     2.30    13.00     8.10 
2899.40     1.44     2.29    13.00     8.25 
2899.60     1.42     2.31    13.00     8.65 
2899.80     1.43     2.30    14.00     7.81 
2900.00     1.41     2.30    13.00     7.90 
2900.20     1.41     2.30    13.00     7.83 
2900.40     1.42     2.26    13.00     8.29 
2900.60     1.45     2.31    13.00     8.92 
2900.80     1.45     2.33    13.00     8.74 
2901.00     1.47     2.39    13.00     8.42 
2901.20     1.46     2.46    13.00     8.47 
2901.40     1.52     2.58    13.00     7.70 
2901.60     1.53     2.61    13.00     7.19 
2901.80     1.45     2.37    13.00     7.88 
2902.00     1.42     2.32    13.00     7.72 
2902.20     1.43     2.45    13.00     7.53 
2902.40     1.45     2.40    13.00     7.69 
2902.60     1.41     2.25    14.00     8.16 
2902.80     1.43     2.22    13.00     7.45 
2903.00     1.46     2.27    13.00     7.07 
2903.20     1.44     2.20    13.00     7.32 
2903.40     1.39     2.20    13.00     7.14 
2903.60     1.35     2.11   413.00     7.43 
2903.80     1.43     2.30   572.00     8.68 
2904.00     1.46     2.38    13.00     8.78 
2904.20     1.46     2.36    13.00     8.59 
2904.40     1.45     2.35    13.00     8.07 
2904.60     1.45     2.41    13.00     7.63 
2904.80     1.46     2.38    13.00     7.35 
2905.00     1.51     2.61    13.00     7.05 
2905.20     1.60     3.25    13.00     6.51 
2905.40     1.69     3.80    13.00     6.37 
2905.60     1.78     4.00    13.00     5.52 
2905.80     1.73     3.64    13.00     5.39 
2906.00     1.60     2.90    13.00     5.95 
2906.20     1.46     2.36    13.00     7.01 
2906.40     1.42     2.29    13.00     7.56 
2906.60     1.42     2.28    13.00     7.71 
2906.80     1.44     2.30    13.00     7.38 
2907.00     1.42     2.22    13.00     7.23 
2907.20     1.45     2.17    14.00     7.37 
2907.40     1.42     2.16    13.00     7.17 
2907.60     1.39     2.03    14.00     7.18 
2907.80     1.36     2.14    13.00     7.57 
2908.00     1.38     2.22    13.00     8.01 
2908.20     1.42     2.20    13.00     8.20 
2908.40     1.41     2.21    14.00     7.88 
2908.60     1.43     2.30    13.00     7.71 
2908.80     1.44     2.39    13.00     8.31 
2909.00     1.45     2.42    13.00     8.37 
2909.20     1.45     2.49    13.00     7.82 
2909.40     1.44     2.40    13.00     7.42 
2909.60     1.45     2.36    13.00     7.59 
2909.80     1.43     2.34    13.00     8.15 
2910.00     1.43     2.34    13.00     8.11 
2910.20     1.42     2.40    13.00     8.76 
2910.40     1.43     2.28    13.00     8.30 
2910.60     1.45     2.32    13.00     8.41 
2910.80     1.45     2.28    13.00     8.41 
2911.00     1.46     2.28    13.00     8.61 
2911.20     1.47     2.32    13.00     8.26 
2911.40     1.49     2.42    13.00     8.14 
2911.60     1.49     2.50    14.00     7.90 
2911.80     1.53     2.63    13.00     7.75 
2912.00     1.51     2.51    13.00     7.56 
2912.20     1.52     2.55    13.00     7.99 
2912.40     1.49     2.45    13.00     7.75 
2912.60     1.49     2.49    13.00     7.99 
2912.80     1.56     2.61    13.00     7.94 
2913.00     1.51     2.52    13.00     7.49 
2913.20     1.43     2.37    13.00     7.88 
2913.40     1.45     2.25    13.00     8.40 
2913.60     1.45     2.29    13.00     8.55 
2913.80     1.45     2.32    13.00     7.70 
2914.00     1.38     2.30   277.00     7.47 
2914.20     1.42     2.30   561.00     7.64 
2914.40     1.44     2.38    13.00     7.65 
2914.60     1.42     2.35    13.00     8.07 
2914.80     1.40     2.31    14.00     8.99 
2915.00     1.44     2.34    14.00     8.12 
2915.20     1.47     2.30    13.00     7.39 
2915.40     1.44     2.27    14.00     7.40 
2915.60     1.41     2.35    14.00     7.96 
2915.80     1.42     2.34    13.00     7.88 
2916.00     1.42     2.36    13.00     8.10 
2916.20     1.39     2.28    13.00     8.25 
2916.40     1.42     2.23    13.00     8.31 
2916.60     1.42     2.29    13.00     8.11 
2916.80     1.42     2.31    13.00     7.89 
2917.00     1.44     2.30    13.00     7.98 
2917.20     1.42     2.30    13.00     8.46 
2917.40     1.41     2.21    13.00     9.03 
2917.60     1.43     2.25    13.00     9.02 
2917.80     1.44     2.29    13.00     8.70 
2918.00     1.44     2.11    13.00     8.53 
2918.20     1.39     2.14    13.00     8.21 
2918.40     1.42     2.13    13.00     8.67 
2918.60     1.41     2.17    13.00     8.32 
2918.80     1.39     2.23    13.00     8.51 
2919.00     1.43     2.26    13.00     9.52 
2919.20     1.42     2.20    14.00     9.16 
2919.40     1.41     2.11    13.00     8.97 
2919.60     1.40     2.17    13.00     9.11 
2919.80     1.42     2.16    13.00     8.40 
2920.00     1.42     2.24    13.00     8.52 
2920.20     1.42     2.23    13.00     8.77 
2920.40     1.43     2.29    13.00     9.21 
2920.60     1.45     2.22    13.00     9.13 
2920.80     1.43     2.28    13.00     8.88 
2921.00     1.42     2.34    13.00     8.46 
2921.20     1.43     2.34    13.00     8.83 
2921.40     1.43     2.24    13.00     8.91 
2921.60     1.44     2.22    14.00     8.75 
2921.80     1.43     2.20    13.00     8.83 
2922.00     1.44     2.15    13.00     8.83 
2922.20     1.42     2.18    13.00     8.90 
2922.40     1.43     2.23    13.00     9.28 
2922.60     1.41     2.30    13.00     8.76 
2922.80     1.42     2.27    13.00     8.78 
2923.00     1.44     2.30    13.00     8.62 
2923.20     1.42     2.26    13.00     7.72 
2923.40     1.41     2.13   478.00     7.80 
2923.60     1.33     2.20   595.00     8.76 
2923.80     1.40     2.24    13.00     8.46 
2924.00     1.43     2.42    13.00     8.22 
2924.20     1.45     2.45    13.00     8.06 
2924.40     1.47     2.41    13.00     8.24 
2924.60     1.45     2.29    13.00     8.60 
2924.80     1.45     2.28    13.00     8.57 
2925.00     1.45     2.23    13.00     8.41 
2925.20     1.43     2.33    13.00     7.79 
2925.40     1.43     2.42    13.00     8.00 
2925.60     1.46     2.51    13.00     8.08 
2925.80     1.46     2.55    13.00     8.12 
2926.00     1.49     2.50    14.00     7.67 
2926.20     1.48     2.40    13.00     7.89 
2926.40     1.44     2.44    13.00     7.86 
2926.60     1.45     2.39    13.00     8.12 
2926.80     1.47     2.38    13.00     8.26 
2927.00     1.46     2.43    13.00     8.17 
2927.20     1.47     2.42    14.00     8.17 
2927.40     1.46     2.40    13.00     7.76 
2927.60     1.46     2.43    13.00     8.03 
2927.80     1.45     2.47    13.00     8.08 
2928.00     1.46     2.72    13.00     7.64 
2928.20     1.55     2.96    13.00     6.59 
