~VERSION INFORMATION
VERS.                1.20: CWLS log ASCII Standart - VERSION 1.20
WRAP.                  NO: One line per depth step
~WELL INFORMATION
# MNEM.UNIT               DATA TYPE  INFORMATION
# ----.----------------------------: -------------------
STRT.M                         2608:
STOP.M                         3062:
STEP.M                          0.2:
NULL.                       -999.25:
WELL.WELL                          : 5
LOC .LOCATION                      : 
FLD .FIELD CODE                    : 
UWI .UNIQUE WELL ID                : 
SRVC.SERVICE COMP                  : 
DATE.DDMMYYYY                      : 16/07/2007
~PARAMETER INFORMATION
#MNEM.UNIT               VALUE       DESCRIPTION
#----.-----------------------------: -------------------
TD  .M                             : 3054.6
EKB .M                             : 38.64
SCD .M                             : 0.245
SCDP.M                             : 748.74
CD  .M                             : 0.146
CDP .M                             : 3069.29
DFT .                              : S
BS  .M                             : 0.216
DFD .G/CC                          : 1.32
DFV .S                             : 
DFR .OHMM                          : 
MT  .degC                          : 
RWMT.degC                          : 
SALIN.G/L                          : 
RAU_GK.IMP/MIN                     : 1599
RAU_NEUT.IMP/MIN                   : 
SPEED.M/H                          : 780.5
TDLS.IMP/MIN                       : 132368
TDLB.IMP/MIN                       : 12584
TAU_GK.S                           : 3
TAU_NEUT.S                         : 3
#TOOL1                              : RK5-76
#SENSOR1                            : NKTS(mall),NKTD(eep),MLM ,GK
#TOOL2                              : 
#SENSOR2                            : 
~CURVE INFORMATION
#MNEM.UNIT                           CURVE DESCRIPTION
#----.-----------------------------: -------------------
DEPT.M                             : Depth curve
NKTS.ue                            : Neutron-Neutron Termal Small,  ue
NKTD.ue                            : Neutron-Neutron Termal Deep,  ue
MLM .ue                            : MLM, ue
GK  .uR/h                          : Gamma ray, uR/h
~OTHER INFORMATION
#The file is generated by the program GeoTech-EditLog v2007.06
#Number of Curves = 5
~Ascii Log Data
# ...
2999.60     1.48     2.31    13.00     6.45 
2999.80     1.49     2.48    13.00     5.61 
3000.00     1.52     2.49    13.00     6.05 
3000.20     1.54     2.47    13.00     7.06 
3000.40     1.53     2.30    14.00     8.11 
3000.60     1.49     2.21    13.00     9.12 
3000.80     1.46     2.23    14.00     9.44 
3001.00     1.43     2.14    13.00     9.76 
3001.20     1.35     2.00    13.00     9.67 
3001.40     1.33     1.94    13.00     9.36 
3001.60     1.33     2.00    13.00     9.68 
3001.80     1.35     2.11    13.00     9.20 
3002.00     1.43     2.13    14.00     9.20 
3002.20     1.47     2.29    13.00     6.11 
3002.40     1.49     2.34    13.00     5.54 
3002.60     1.51     2.50    13.00     5.21 
3002.80     1.49     2.42    13.00     5.63 
3003.00     1.40     2.02    13.00     6.54 
3003.20     1.28     1.70    13.00     7.77 
3003.40     1.25     1.62    13.00     7.74 
3003.60     1.23     1.64    78.00     7.50 
3003.80     1.20     1.66   586.00     8.70 
3004.00     1.26     1.79   460.00     8.78 
3004.20     1.26     1.81    13.00     8.70 
3004.40     1.27     1.78    13.00     8.53 
3004.60     1.25     1.71    13.00     8.56 
3004.80     1.27     1.73    13.00     8.61 
3005.00     1.26     1.72    13.00     8.59 
3005.20     1.25     1.69    13.00     8.60 
3005.40     1.25     1.75    13.00     8.89 
3005.60     1.27     1.80    14.00     8.68 
3005.80     1.30     1.79    13.00     8.87 
3006.00     1.30     1.82    13.00     9.12 
3006.20     1.30     1.92    13.00     8.85 
3006.40     1.31     1.85    13.00     8.74 
3006.60     1.32     1.81    13.00     8.99 
3006.80     1.33     1.88    13.00     8.90 
3007.00     1.34     2.02    13.00     8.86 
3007.20     1.38     2.06    13.00     9.13 
3007.40     1.39     1.97    13.00     8.97 
3007.60     1.38     1.99    13.00     8.46 
3007.80     1.34     2.00    14.00     8.86 
3008.00     1.36     2.11    14.00     9.27 
3008.20     1.36     2.05    14.00     8.98 
3008.40     1.38     2.07    14.00     8.74 
3008.60     1.39     2.14    13.00     9.59 
3008.80     1.37     2.13    13.00     9.65 
3009.00     1.34     2.15    13.00     9.41 
3009.20     1.37     2.11    14.00     8.97 
3009.40     1.40     2.11    13.00     9.04 
3009.60     1.37     2.13    14.00     9.03 
3009.80     1.38     2.18    13.00     8.57 
3010.00     1.39     2.10    13.00     8.79 
3010.20     1.41     2.12    13.00     8.97 
3010.40     1.42     2.21    13.00     8.99 
3010.60     1.43     2.26    13.00     9.47 
3010.80     1.43     2.18    13.00     9.12 
3011.00     1.43     2.07    13.00     8.86 
3011.20     1.42     2.14    13.00     9.10 
3011.40     1.40     2.19    14.00     9.07 
3011.60     1.41     2.17    14.00     8.61 
3011.80     1.40     2.12    13.00     9.34 
3012.00     1.43     2.10    13.00     8.71 
3012.20     1.43     2.19    13.00     8.17 
3012.40     1.42     2.23    13.00     8.74 
3012.60     1.44     2.25    13.00     9.55 
3012.80     1.45     2.31    13.00     9.38 
3013.00     1.46     2.25    14.00     8.83 
3013.20     1.42     2.14    13.00     8.09 
3013.40     1.42     2.14    14.00     8.14 
3013.60     1.34     2.00   147.00     7.50 
3013.80     1.40     2.16   406.00     8.34 
3014.00     1.44     2.24    13.00     9.05 
3014.20     1.43     2.22    13.00     9.18 
3014.40     1.40     2.14    13.00     9.04 
3014.60     1.38     2.18    13.00     9.07 
3014.80     1.39     2.20    13.00     9.62 
3015.00     1.42     2.20    13.00     9.66 
3015.20     1.45     2.19    14.00     9.61 
3015.40     1.44     2.28    13.00     9.29 
3015.60     1.49     2.31    13.00     9.40 
3015.80     1.49     2.39    13.00     9.02 
3016.00     1.51     2.31    13.00     9.11 
3016.20     1.51     2.40    13.00     9.05 
3016.40     1.52     2.51    13.00     9.28 
3016.60     1.53     2.59    13.00     8.55 
3016.80     1.58     2.73    13.00     7.70 
3017.00     1.56     2.64    13.00     7.40 
3017.20     1.48     2.54    13.00     8.93 
3017.40     1.46     2.29    13.00     8.83 
3017.60     1.45     2.30    13.00     9.07 
3017.80     1.47     2.28    13.00     8.82 
3018.00     1.46     2.25    13.00     9.17 
3018.20     1.46     2.25    13.00     9.30 
3018.40     1.45     2.29    13.00     9.37 
3018.60     1.44     2.34    13.00     9.11 
3018.80     1.45     2.32    13.00     9.29 
3019.00     1.47     2.36    14.00     8.90 
3019.20     1.49     2.40    13.00     8.89 
3019.40     1.48     2.39    13.00     9.07 
3019.60     1.50     2.32    13.00     8.99 
3019.80     1.48     2.29    14.00     8.82 
3020.00     1.46     2.33    13.00     9.00 
3020.20     1.47     2.36    13.00     9.78 
3020.40     1.46     2.28    13.00     9.44 
3020.60     1.46     2.26    13.00     9.48 
3020.80     1.47     2.30    13.00     8.63 
3021.00     1.49     2.41    14.00     8.64 
3021.20     1.47     2.33    13.00     8.24 
3021.40     1.51     2.28    13.00     8.46 
3021.60     1.50     2.37    14.00     8.33 
3021.80     1.46     2.41    13.00     8.54 
3022.00     1.45     2.35    13.00     8.89 
3022.20     1.47     2.29    14.00     8.60 
3022.40     1.46     2.29    13.00     8.73 
3022.60     1.46     2.27    13.00     8.86 
3022.80     1.45     2.21    13.00     8.88 
3023.00     1.46     2.18    13.00     8.65 
3023.20     1.45     2.22    13.00     8.77 
3023.40     1.41     2.20    13.00     8.35 
3023.60     1.39     2.13    13.00     8.14 
3023.80     1.40     2.15    14.00     7.45 
3024.00     1.34     2.14   488.00     7.40 
3024.20     1.42     2.14   532.00     8.49 
3024.40     1.40     2.16    13.00     8.48 
3024.60     1.38     2.12    13.00     8.46 
3024.80     1.41     2.13    13.00     8.80 
3025.00     1.41     2.19    13.00     9.07 
3025.20     1.40     2.19    13.00     8.85 
3025.40     1.39     2.13    14.00     8.53 
3025.60     1.40     2.19    13.00     9.21 
3025.80     1.39     2.12    13.00     8.45 
3026.00     1.39     2.22    13.00     8.19 
3026.20     1.40     2.18    13.00     8.77 
3026.40     1.39     2.05    13.00     9.37 
3026.60     1.35     2.08    13.00     9.48 
3026.80     1.37     2.05    13.00     9.48 
3027.00     1.36     2.09    13.00     9.38 
3027.20     1.32     2.07    14.00     9.36 
3027.40     1.35     2.01    13.00     8.92 
3027.60     1.37     2.03    14.00     8.56 
3027.80     1.38     1.94    13.00     9.00 
3028.00     1.37     1.97    13.00     8.99 
3028.20     1.38     1.90    13.00     8.88 
3028.40     1.35     1.82    13.00     8.70 
3028.60     1.35     1.88    14.00     9.33 
3028.80     1.34     1.99    14.00     9.05 
3029.00     1.35     2.07    14.00     9.31 
3029.20     1.36     2.05    13.00     9.46 
3029.40     1.36     2.11    13.00     9.08 
3029.60     1.38     2.06    13.00     9.53 
3029.80     1.36     2.04    13.00     9.79 
3030.00     1.34     1.99    13.00     9.72 
3030.20     1.34     1.99    13.00     9.71 
3030.40     1.37     1.99    14.00     9.12 
3030.60     1.35     1.95    13.00     8.88 
3030.80     1.35     2.02    13.00     8.77 
3031.00     1.37     2.02    13.00     9.41 
3031.20     1.37     2.09    13.00     9.29 
3031.40     1.38     2.14    13.00     8.93 
3031.60     1.39     2.17    13.00     9.13 
3031.80     1.41     2.18    14.00     8.48 
3032.00     1.39     2.18    13.00     8.79 
3032.20     1.41     2.11    14.00     8.81 
3032.40     1.40     2.24    13.00     8.89 
3032.60     1.39     2.14    14.00     9.06 
3032.80     1.39     2.15    13.00     8.71 
3033.00     1.40     2.14    13.00     8.58 
3033.20     1.39     2.11    13.00     8.62 
3033.40     1.40     2.10    13.00     8.60 
3033.60     1.38     2.10    13.00     8.24 
3033.80     1.41     2.11    14.00     7.83 
3034.00     1.30     2.11   240.00     7.50 
3034.20     1.36     2.25   547.00     7.93 
3034.40     1.40     2.19    14.00     8.43 
3034.60     1.37     2.02    35.00     8.86 
3034.80     1.37     1.95    14.00     8.73 
3035.00     1.34     1.95    14.00     8.86 
