~VERSION INFORMATION
VERS.                1.20: CWLS log ASCII Standart - VERSION 1.20
WRAP.                  NO: One line per depth step
~WELL INFORMATION
# MNEM.UNIT               DATA TYPE  INFORMATION
# ----.----------------------------: -------------------
STRT.M                         2608:
STOP.M                         3062:
STEP.M                          0.2:
NULL.                       -999.25:
WELL.WELL                          : 5
LOC .LOCATION                      : 
FLD .FIELD CODE                    : 
UWI .UNIQUE WELL ID                : 
SRVC.SERVICE COMP                  : 
DATE.DDMMYYYY                      : 16/07/2007
~PARAMETER INFORMATION
#MNEM.UNIT               VALUE       DESCRIPTION
#----.-----------------------------: -------------------
TD  .M                             : 3054.6
EKB .M                             : 38.64
SCD .M                             : 0.245
SCDP.M                             : 748.74
CD  .M                             : 0.146
CDP .M                             : 3069.29
DFT .                              : S
BS  .M                             : 0.216
DFD .G/CC                          : 1.32
DFV .S                             : 
DFR .OHMM                          : 
MT  .degC                          : 
RWMT.degC                          : 
SALIN.G/L                          : 
RAU_GK.IMP/MIN                     : 1599
RAU_NEUT.IMP/MIN                   : 
SPEED.M/H                          : 780.5
TDLS.IMP/MIN                       : 132368
TDLB.IMP/MIN                       : 12584
TAU_GK.S                           : 3
TAU_NEUT.S                         : 3
#TOOL1                              : RK5-76
#SENSOR1                            : NKTS(mall),NKTD(eep),MLM ,GK
#TOOL2                              : 
#SENSOR2                            : 
~CURVE INFORMATION
#MNEM.UNIT                           CURVE DESCRIPTION
#----.-----------------------------: -------------------
DEPT.M                             : Depth curve
NKTS.ue                            : Neutron-Neutron Termal Small,  ue
NKTD.ue                            : Neutron-Neutron Termal Deep,  ue
MLM .ue                            : MLM, ue
GK  .uR/h                          : Gamma ray, uR/h
~OTHER INFORMATION
#The file is generated by the program GeoTech-EditLog v2007.06
#Number of Curves = 5
~Ascii Log Data
# ...
2643.60     1.18     1.81    13.00     8.76 
2643.80     1.16     1.73    13.00     8.37 
2644.00     1.13     1.70    14.00     8.68 
2644.20     1.11     1.63    13.00     9.24 
2644.40     1.10     1.64    13.00     8.74 
2644.60     1.13     1.66    13.00     7.92 
2644.80     1.12     1.58    13.00     8.04 
2645.00     1.01     1.36    13.00     7.96 
2645.20     0.95     1.23    13.00     7.45 
2645.40     0.95     1.31    13.00     7.38 
2645.60     0.97     1.32    13.00     7.68 
2645.80     0.98     1.39    13.00     7.89 
2646.00     0.98     1.37    13.00     8.24 
2646.20     1.01     1.48    13.00     8.43 
2646.40     1.10     1.69    13.00     8.85 
2646.60     1.14     1.69    13.00     8.83 
2646.80     1.17     1.75    13.00     8.76 
2647.00     1.15     1.83    13.00     8.71 
2647.20     1.15     1.87    13.00     9.22 
2647.40     1.17     1.81    13.00     9.81 
2647.60     1.16     1.73    13.00     9.49 
2647.80     1.14     1.69    13.00     9.66 
2648.00     1.14     1.66    13.00     9.45 
2648.20     1.14     1.69    13.00     8.54 
2648.40     1.14     1.74    13.00     8.58 
2648.60     1.14     1.85    13.00     9.01 
2648.80     1.14     1.82    13.00     9.21 
2649.00     1.14     1.77    13.00     9.24 
2649.20     1.16     1.77    13.00     9.17 
2649.40     1.17     1.75    13.00     8.05 
2649.60     1.15     1.70    51.00     7.39 
2649.80     1.08     1.60   502.00     7.88 
2650.00     1.11     1.64   415.00     8.52 
2650.20     1.15     1.66    13.00     9.54 
2650.40     1.17     1.72    13.00     9.42 
2650.60     1.16     1.80    13.00     9.26 
2650.80     1.16     1.66    13.00     8.92 
2651.00     1.14     1.71    13.00     8.83 
2651.20     1.15     1.71    13.00     9.31 
2651.40     1.17     1.74    13.00     8.76 
2651.60     1.16     1.73    13.00     8.62 
2651.80     1.14     1.71    13.00     9.11 
2652.00     1.14     1.65    14.00     9.41 
2652.20     1.15     1.71    13.00     9.35 
2652.40     1.13     1.75    13.00     8.98 
2652.60     1.12     1.65    14.00     8.82 
2652.80     1.12     1.59    13.00     8.97 
2653.00     1.11     1.58    13.00     9.33 
2653.20     1.12     1.66    13.00     9.45 
2653.40     1.16     1.68    13.00     9.09 
2653.60     1.16     1.67    13.00     8.76 
2653.80     1.17     1.66    13.00     8.94 
2654.00     1.16     1.61    13.00     9.42 
2654.20     1.14     1.59    13.00     9.57 
2654.40     1.16     1.62    13.00     8.82 
2654.60     1.16     1.62    13.00     8.52 
2654.80     1.16     1.63    13.00     8.04 
2655.00     1.16     1.58    13.00     8.99 
2655.20     1.17     1.69    13.00     8.82 
2655.40     1.17     1.73    13.00     9.08 
2655.60     1.19     1.74    13.00     9.02 
2655.80     1.20     1.72    14.00     9.06 
2656.00     1.19     1.72    13.00     9.10 
2656.20     1.17     1.75    13.00     8.79 
2656.40     1.17     1.75    13.00     8.92 
2656.60     1.16     1.70    13.00     9.01 
2656.80     1.17     1.78    13.00     9.30 
2657.00     1.19     1.74    13.00     8.83 
2657.20     1.18     1.67    13.00     8.63 
2657.40     1.18     1.60    13.00     9.28 
2657.60     1.19     1.69    13.00     9.50 
2657.80     1.20     1.84    13.00     9.09 
2658.00     1.21     1.77    13.00     9.66 
2658.20     1.21     1.72    13.00     9.49 
2658.40     1.18     1.66    13.00     8.71 
2658.60     1.15     1.60    13.00     7.96 
2658.80     1.14     1.59    13.00     7.68 
2659.00     1.08     1.56    13.00     8.53 
2659.20     1.08     1.56    13.00     9.08 
2659.40     1.09     1.56    13.00     8.79 
2659.60     1.06     1.53    13.00     9.04 
2659.80     1.13     1.60    13.00     9.49 
2660.00     1.18     1.70    13.00     9.73 
2660.20     1.16     1.64    13.00     9.60 
2660.40     1.17     1.71    13.00     9.43 
2660.60     1.18     1.80    13.00     9.20 
2660.80     1.22     1.73   150.00     8.40 
2661.00     1.17     1.69   518.00     8.79 
2661.20     1.21     1.73    13.00     9.36 
2661.40     1.21     1.83    13.00     9.14 
2661.60     1.21     1.82    13.00     9.22 
2661.80     1.18     1.78    13.00     9.39 
2662.00     1.17     1.74    13.00     9.52 
2662.20     1.18     1.72    13.00     9.66 
2662.40     1.17     1.73    13.00    10.18 
2662.60     1.19     1.81    13.00     9.78 
2662.80     1.20     1.73    13.00     9.71 
2663.00     1.19     1.69    13.00     9.76 
2663.20     1.17     1.77    13.00     9.71 
2663.40     1.19     1.73    13.00     9.66 
2663.60     1.19     1.75    13.00     9.47 
2663.80     1.20     1.73    13.00     9.02 
2664.00     1.19     1.75    13.00     9.25 
2664.20     1.18     1.79    13.00    10.11 
2664.40     1.21     1.86    13.00     9.34 
2664.60     1.24     1.86    13.00     8.58 
2664.80     1.22     1.82    13.00     8.44 
2665.00     1.22     1.74    13.00     8.85 
2665.20     1.23     1.76    13.00     9.07 
2665.40     1.23     1.73    13.00     8.84 
2665.60     1.22     1.77    13.00     8.94 
2665.80     1.21     1.79    13.00     9.12 
2666.00     1.21     1.78    13.00     8.52 
2666.20     1.21     1.88    13.00     8.74 
2666.40     1.20     1.89    14.00     9.13 
2666.60     1.19     1.80    13.00     9.36 
2666.80     1.19     1.78    13.00     9.15 
2667.00     1.20     1.80    13.00     9.16 
2667.20     1.23     1.97    13.00     8.80 
2667.40     1.24     2.00    13.00     8.43 
2667.60     1.27     1.92    13.00     8.57 
2667.80     1.27     1.89    13.00     8.36 
2668.00     1.27     1.90    13.00     8.67 
2668.20     1.26     2.01    13.00     8.57 
2668.40     1.27     2.06    13.00     8.79 
2668.60     1.26     1.96    13.00     8.59 
2668.80     1.23     1.86    13.00     8.28 
2669.00     1.25     1.79    13.00     8.63 
2669.20     1.27     1.77    13.00     8.51 
2669.40     1.27     1.79    13.00     8.54 
2669.60     1.25     1.80    13.00     8.59 
2669.80     1.26     1.80    13.00     8.73 
2670.00     1.25     1.89    13.00     8.43 
2670.20     1.24     1.91    13.00     8.32 
2670.40     1.24     1.95    13.00     8.29 
2670.60     1.26     2.00    13.00     8.45 
2670.80     1.25     1.90    13.00     8.36 
2671.00     1.26     1.86    13.00     8.59 
2671.20     1.25     1.91    13.00     8.65 
2671.40     1.25     1.87    13.00     8.98 
2671.60     1.26     1.85   259.00     7.77 
2671.80     1.26     1.88   586.00     8.00 
2672.00     1.20     1.88    13.00     8.22 
2672.20     1.26     1.86    13.00     8.80 
2672.40     1.22     1.79    13.00     9.11 
2672.60     1.21     1.80    13.00     9.47 
2672.80     1.23     1.82    13.00     9.52 
2673.00     1.20     1.75    13.00     9.12 
2673.20     1.20     1.86    13.00     8.93 
2673.40     1.23     1.93    13.00     8.56 
2673.60     1.25     1.91    14.00     8.22 
2673.80     1.27     1.99    13.00     8.45 
2674.00     1.30     2.05    13.00     8.56 
2674.20     1.29     2.04    13.00     8.70 
2674.40     1.24     1.92    13.00     8.71 
2674.60     1.25     1.97    13.00     8.26 
2674.80     1.25     1.84    13.00     8.84 
2675.00     1.26     1.77    13.00     9.17 
2675.20     1.26     1.82    13.00     9.23 
2675.40     1.27     2.00    13.00     8.47 
2675.60     1.28     2.07    13.00     8.42 
2675.80     1.27     1.98    13.00     8.48 
2676.00     1.28     2.01    13.00     8.46 
2676.20     1.28     2.01    13.00     8.49 
2676.40     1.27     1.93    13.00     8.28 
2676.60     1.26     1.98    13.00     8.87 
2676.80     1.26     2.00    13.00     9.12 
2677.00     1.25     2.07    13.00     8.66 
2677.20     1.26     2.03    13.00     8.91 
2677.40     1.27     1.98    13.00     8.82 
2677.60     1.23     1.95    13.00     8.57 
2677.80     1.27     2.02    13.00     8.52 
2678.00     1.28     1.91    13.00     8.66 
2678.20     1.31     1.98    13.00     8.76 
2678.40     1.32     2.10    13.00     8.53 
2678.60     1.32     2.11    13.00     8.46 
2678.80     1.34     2.14    13.00     7.81 
2679.00     1.37     2.17    13.00     7.53 
