~VERSION INFORMATION
VERS.                1.20: CWLS log ASCII Standart - VERSION 1.20
WRAP.                  NO: One line per depth step
~WELL INFORMATION
# MNEM.UNIT               DATA TYPE  INFORMATION
# ----.----------------------------: -------------------
STRT.M                         2608:
STOP.M                         3062:
STEP.M                          0.2:
NULL.                       -999.25:
WELL.WELL                          : 5
LOC .LOCATION                      : 
FLD .FIELD CODE                    : 
UWI .UNIQUE WELL ID                : 
SRVC.SERVICE COMP                  : 
DATE.DDMMYYYY                      : 16/07/2007
~PARAMETER INFORMATION
#MNEM.UNIT               VALUE       DESCRIPTION
#----.-----------------------------: -------------------
TD  .M                             : 3054.6
EKB .M                             : 38.64
SCD .M                             : 0.245
SCDP.M                             : 748.74
CD  .M                             : 0.146
CDP .M                             : 3069.29
DFT .                              : S
BS  .M                             : 0.216
DFD .G/CC                          : 1.32
DFV .S                             : 
DFR .OHMM                          : 
MT  .degC                          : 
RWMT.degC                          : 
SALIN.G/L                          : 
RAU_GK.IMP/MIN                     : 1599
RAU_NEUT.IMP/MIN                   : 
SPEED.M/H                          : 780.5
TDLS.IMP/MIN                       : 132368
TDLB.IMP/MIN                       : 12584
TAU_GK.S                           : 3
TAU_NEUT.S                         : 3
#TOOL1                              : RK5-76
#SENSOR1                            : NKTS(mall),NKTD(eep),MLM ,GK
#TOOL2                              : 
#SENSOR2                            : 
~CURVE INFORMATION
#MNEM.UNIT                           CURVE DESCRIPTION
#----.-----------------------------: -------------------
DEPT.M                             : Depth curve
NKTS.ue                            : Neutron-Neutron Termal Small,  ue
NKTD.ue                            : Neutron-Neutron Termal Deep,  ue
MLM .ue                            : MLM, ue
GK  .uR/h                          : Gamma ray, uR/h
~OTHER INFORMATION
#The file is generated by the program GeoTech-EditLog v2007.06
#Number of Curves = 5
~Ascii Log Data
# ...
2714.80     1.27     1.85    13.00     8.76 
2715.00     1.34     1.89    13.00     8.78 
2715.20     1.35     1.96    14.00     8.09 
2715.40     1.36     2.07    13.00     8.09 
2715.60     1.35     2.04    13.00     7.77 
2715.80     1.37     2.17    13.00     6.84 
2716.00     1.34     2.88    13.00     6.12 
2716.20     1.57     2.77    13.00     6.56 
2716.40     1.51     2.53    13.00     7.06 
2716.60     1.47     2.49    13.00     7.56 
2716.80     1.49     2.65    13.00     6.68 
2717.00     1.56     2.84    13.00     6.15 
2717.20     1.59     2.77    13.00     6.46 
2717.40     1.56     2.67    13.00     6.71 
2717.60     1.53     2.62    13.00     7.09 
2717.80     1.52     2.66    13.00     7.28 
2718.00     1.52     2.58    13.00     7.36 
2718.20     1.53     2.57    13.00     6.92 
2718.40     1.55     2.62    13.00     6.28 
2718.60     1.56     2.67    13.00     6.48 
2718.80     1.52     2.69    13.00     6.86 
2719.00     1.50     2.57    13.00     7.57 
2719.20     1.48     2.38    13.00     8.15 
2719.40     1.47     2.43    13.00     7.82 
2719.60     1.45     2.41    13.00     7.36 
2719.80     1.46     2.35    13.00     7.25 
2720.00     1.45     2.33    13.00     7.66 
2720.20     1.43     2.25    13.00     8.15 
2720.40     1.43     2.26    13.00     8.06 
2720.60     1.44     2.25    13.00     7.96 
2720.80     1.40     2.22    13.00     7.70 
2721.00     1.41     2.22    13.00     7.35 
2721.20     1.40     2.12    13.00     6.92 
2721.40     1.41     2.09    14.00     7.15 
2721.60     1.41     2.16    13.00     7.46 
2721.80     1.40     2.35    14.00     7.49 
2722.00     1.42     2.33    13.00     7.42 
2722.20     1.46     2.39    13.00     6.99 
2722.40     1.48     2.49    13.00     7.33 
2722.60     1.50     2.48    13.00     7.84 
2722.80     1.49     2.49    13.00     7.76 
2723.00     1.47     2.39   106.00     7.26 
2723.20     1.41     2.30   634.00     7.54 
2723.40     1.38     2.25   508.00     7.91 
2723.60     1.43     2.28    13.00     7.81 
2723.80     1.44     2.23    13.00     7.22 
2724.00     1.43     2.25    13.00     7.72 
2724.20     1.39     2.20    13.00     8.16 
2724.40     1.41     2.21    13.00     8.07 
2724.60     1.41     2.18    13.00     7.90 
2724.80     1.41     2.23    13.00     8.07 
2725.00     1.42     2.20    13.00     8.03 
2725.20     1.44     2.24    13.00     7.49 
2725.40     1.45     2.28    13.00     7.59 
2725.60     1.47     2.36    13.00     7.01 
2725.80     1.52     2.58    13.00     6.85 
2726.00     1.56     2.90    13.00     6.58 
2726.20     1.57     2.87    13.00     6.19 
2726.40     1.57     2.59    13.00     6.42 
2726.60     1.53     2.50    13.00     7.27 
2726.80     1.50     2.40    13.00     7.69 
2727.00     1.44     2.27    13.00     7.74 
2727.20     1.42     2.26    13.00     8.37 
2727.40     1.38     2.19    13.00     8.42 
2727.60     1.37     2.17    13.00     8.19 
2727.80     1.41     2.12    13.00     7.79 
2728.00     1.37     2.17    13.00     7.60 
2728.20     1.37     2.17    13.00     7.69 
2728.40     1.37     2.18    13.00     8.10 
2728.60     1.37     2.28    13.00     8.27 
2728.80     1.38     2.25    13.00     7.96 
2729.00     1.41     2.24    13.00     8.06 
2729.20     1.41     2.21    13.00     8.50 
2729.40     1.39     2.18    13.00     8.67 
2729.60     1.38     2.19    13.00     8.33 
2729.80     1.40     2.15    13.00     8.51 
2730.00     1.38     2.11    13.00     8.23 
2730.20     1.35     2.11    13.00     8.36 
2730.40     1.36     2.04    13.00     8.24 
2730.60     1.37     2.05    13.00     7.86 
2730.80     1.37     2.02    13.00     7.82 
2731.00     1.35     2.10    13.00     7.95 
2731.20     1.35     2.17    13.00     8.52 
2731.40     1.37     2.15    13.00     8.47 
2731.60     1.34     2.07    13.00     8.26 
2731.80     1.35     2.13    13.00     8.54 
2732.00     1.37     2.13    13.00     8.54 
2732.20     1.37     2.08    13.00     8.40 
2732.40     1.35     2.06    13.00     8.14 
2732.60     1.35     2.04    13.00     8.87 
2732.80     1.36     2.08    13.00     8.33 
2733.00     1.34     2.14    13.00     7.70 
2733.20     1.32     1.91   214.00     7.64 
2733.40     1.28     1.87   583.00     8.48 
2733.60     1.31     1.91    13.00     8.42 
2733.80     1.34     1.92    13.00     8.54 
2734.00     1.34     1.96    13.00     8.67 
2734.20     1.35     1.98    13.00     8.45 
2734.40     1.33     1.93    13.00     8.38 
2734.60     1.32     1.93    13.00     8.40 
2734.80     1.32     1.98    13.00     8.80 
2735.00     1.32     1.94    13.00     8.81 
2735.20     1.31     1.94    13.00     8.53 
2735.40     1.30     1.96    13.00     8.01 
2735.60     1.31     1.92    13.00     7.93 
2735.80     1.32     2.05    13.00     8.41 
2736.00     1.32     2.06    13.00     8.93 
2736.20     1.31     1.99    13.00     8.69 
2736.40     1.32     2.04    13.00     8.62 
2736.60     1.33     2.01    13.00     9.06 
2736.80     1.31     1.92    13.00     8.44 
2737.00     1.28     1.77    13.00     8.92 
2737.20     1.30     1.85    13.00     8.79 
2737.40     1.31     1.93    13.00     8.59 
2737.60     1.39     2.22    13.00     8.27 
2737.80     1.47     2.43    13.00     7.12 
2738.00     1.51     2.67    13.00     6.53 
2738.20     1.54     2.80    13.00     6.68 
2738.40     1.59     2.73    13.00     6.23 
2738.60     1.55     2.54    13.00     6.91 
2738.80     1.47     2.23    14.00     7.23 
2739.00     1.44     2.20    13.00     7.44 
2739.20     1.41     2.22    13.00     7.96 
2739.40     1.42     2.33    13.00     8.18 
2739.60     1.40     2.22    13.00     7.87 
2739.80     1.41     2.22    13.00     7.89 
2740.00     1.42     2.30    13.00     8.01 
2740.20     1.44     2.28    13.00     7.25 
2740.40     1.45     2.19    13.00     7.17 
2740.60     1.46     2.29    13.00     7.31 
2740.80     1.45     2.26    13.00     7.43 
2741.00     1.45     2.23    13.00     7.44 
2741.20     1.42     2.17    13.00     7.65 
2741.40     1.41     2.20    13.00     7.95 
2741.60     1.39     2.22    13.00     8.17 
2741.80     1.41     2.21    13.00     8.16 
2742.00     1.40     2.25    13.00     8.22 
2742.20     1.39     2.19    13.00     8.12 
2742.40     1.41     2.19    13.00     7.95 
2742.60     1.42     2.22    13.00     7.36 
2742.80     1.39     2.33    13.00     7.45 
2743.00     1.41     2.25    13.00     7.88 
2743.20     1.39     2.11    13.00     7.77 
2743.40     1.37     2.12    13.00     7.26 
2743.60     1.39     2.18   102.00     6.42 
2743.80     1.34     2.15   565.00     7.18 
2744.00     1.30     2.08   418.00     7.41 
2744.20     1.35     2.09    13.00     7.80 
2744.40     1.34     2.06    13.00     7.83 
2744.60     1.36     2.16    13.00     7.68 
2744.80     1.36     2.14    13.00     7.69 
2745.00     1.36     2.10    13.00     7.79 
2745.20     1.38     2.12    13.00     7.90 
2745.40     1.36     2.20    13.00     7.75 
2745.60     1.37     2.10    13.00     7.22 
2745.80     1.40     2.17    13.00     7.13 
2746.00     1.37     2.10    13.00     7.85 
2746.20     1.33     2.15    13.00     8.10 
2746.40     1.37     2.12    13.00     7.89 
2746.60     1.38     2.15    13.00     8.37 
2746.80     1.38     2.07    13.00     8.18 
2747.00     1.36     2.06    13.00     8.16 
2747.20     1.34     2.06    13.00     8.12 
2747.40     1.36     2.11    13.00     7.86 
2747.60     1.35     2.28    13.00     7.43 
2747.80     1.37     2.38    13.00     7.43 
2748.00     1.41     2.32    13.00     7.43 
2748.20     1.43     2.34    13.00     7.72 
2748.40     1.43     2.25    13.00     7.53 
2748.60     1.42     2.27    13.00     7.21 
2748.80     1.46     2.37    13.00     6.97 
2749.00     1.48     2.67    13.00     6.55 
2749.20     1.55     2.89    13.00     6.01 
2749.40     1.60     2.94    13.00     6.10 
2749.60     1.60     3.09    13.00     6.25 
2749.80     1.63     3.19    13.00     6.26 
2750.00     1.68     3.12    13.00     6.46 
2750.20     1.64     2.89    13.00     6.36 
