~VERSION INFORMATION
VERS.                1.20: CWLS log ASCII Standart - VERSION 1.20
WRAP.                  NO: One line per depth step
~WELL INFORMATION
# MNEM.UNIT               DATA TYPE  INFORMATION
# ----.----------------------------: -------------------
STRT.M                         2608:
STOP.M                         3062:
STEP.M                          0.2:
NULL.                       -999.25:
WELL.WELL                          : 5
LOC .LOCATION                      : 
FLD .FIELD CODE                    : 
UWI .UNIQUE WELL ID                : 
SRVC.SERVICE COMP                  : 
DATE.DDMMYYYY                      : 16/07/2007
~PARAMETER INFORMATION
#MNEM.UNIT               VALUE       DESCRIPTION
#----.-----------------------------: -------------------
TD  .M                             : 3054.6
EKB .M                             : 38.64
SCD .M                             : 0.245
SCDP.M                             : 748.74
CD  .M                             : 0.146
CDP .M                             : 3069.29
DFT .                              : S
BS  .M                             : 0.216
DFD .G/CC                          : 1.32
DFV .S                             : 
DFR .OHMM                          : 
MT  .degC                          : 
RWMT.degC                          : 
SALIN.G/L                          : 
RAU_GK.IMP/MIN                     : 1599
RAU_NEUT.IMP/MIN                   : 
SPEED.M/H                          : 780.5
TDLS.IMP/MIN                       : 132368
TDLB.IMP/MIN                       : 12584
TAU_GK.S                           : 3
TAU_NEUT.S                         : 3
#TOOL1                              : RK5-76
#SENSOR1                            : NKTS(mall),NKTD(eep),MLM ,GK
#TOOL2                              : 
#SENSOR2                            : 
~CURVE INFORMATION
#MNEM.UNIT                           CURVE DESCRIPTION
#----.-----------------------------: -------------------
DEPT.M                             : Depth curve
NKTS.ue                            : Neutron-Neutron Termal Small,  ue
NKTD.ue                            : Neutron-Neutron Termal Deep,  ue
MLM .ue                            : MLM, ue
GK  .uR/h                          : Gamma ray, uR/h
~OTHER INFORMATION
#The file is generated by the program GeoTech-EditLog v2007.06
#Number of Curves = 5
~Ascii Log Data
# ...
2821.60     1.46     2.39    14.00     8.25 
2821.80     1.46     2.33    13.00     8.11 
2822.00     1.45     2.35    13.00     8.03 
2822.20     1.44     2.35    13.00     8.11 
2822.40     1.44     2.36    13.00     8.00 
2822.60     1.45     2.32    13.00     8.00 
2822.80     1.46     2.35    13.00     8.20 
2823.00     1.45     2.39    13.00     8.54 
2823.20     1.48     2.30    13.00     8.93 
2823.40     1.51     2.28    13.00     8.66 
2823.60     1.49     2.46    13.00     8.91 
2823.80     1.48     2.47    13.00     8.08 
2824.00     1.39     2.21   183.00     7.63 
2824.20     1.45     2.21   483.00     8.02 
2824.40     1.46     2.24    13.00     7.81 
2824.60     1.42     2.29    13.00     7.98 
2824.80     1.43     2.38    13.00     8.00 
2825.00     1.46     2.32    13.00     8.18 
2825.20     1.47     2.36    14.00     7.93 
2825.40     1.50     2.44    13.00     7.70 
2825.60     1.48     2.41    13.00     7.43 
2825.80     1.46     2.40    13.00     7.90 
2826.00     1.42     2.40    13.00     8.16 
2826.20     1.40     2.31    13.00     8.40 
2826.40     1.43     2.19    13.00     8.29 
2826.60     1.45     2.29    13.00     8.27 
2826.80     1.45     2.37    13.00     8.38 
2827.00     1.44     2.27    13.00     8.76 
2827.20     1.44     2.28    13.00     8.33 
2827.40     1.46     2.22    13.00     8.14 
2827.60     1.44     2.29    13.00     8.75 
2827.80     1.41     2.34    13.00     8.09 
2828.00     1.41     2.34    13.00     8.19 
2828.20     1.39     2.38    13.00     8.43 
2828.40     1.38     2.23    13.00     8.23 
2828.60     1.40     2.20    13.00     8.06 
2828.80     1.41     2.17    13.00     8.28 
2829.00     1.43     2.28    13.00     7.75 
2829.20     1.41     2.34    14.00     7.88 
2829.40     1.41     2.28    13.00     8.47 
2829.60     1.42     2.26    13.00     8.29 
2829.80     1.44     2.38    13.00     7.85 
2830.00     1.45     2.32    13.00     8.02 
2830.20     1.48     2.30    13.00     8.23 
2830.40     1.48     2.49    13.00     7.88 
2830.60     1.50     2.62    13.00     7.54 
2830.80     1.46     2.57    13.00     7.84 
2831.00     1.46     2.46    13.00     8.12 
2831.20     1.42     2.32    13.00     7.97 
2831.40     1.42     2.32    14.00     8.11 
2831.60     1.45     2.37    13.00     8.44 
2831.80     1.46     2.29    13.00     8.39 
2832.00     1.43     2.33    13.00     8.13 
2832.20     1.43     2.26    13.00     8.46 
2832.40     1.43     2.32    13.00     8.92 
2832.60     1.43     2.21    13.00     8.63 
2832.80     1.46     2.33    13.00     8.21 
2833.00     1.46     2.32    13.00     8.33 
2833.20     1.42     2.30    13.00     8.47 
2833.40     1.44     2.26    13.00     8.08 
2833.60     1.39     2.23    14.00     7.44 
2833.80     1.33     2.13   351.00     7.69 
2834.00     1.39     2.16   617.00     7.71 
2834.20     1.42     2.30    13.00     7.92 
2834.40     1.43     2.37    13.00     7.83 
2834.60     1.44     2.43    13.00     7.66 
2834.80     1.42     2.33    13.00     8.00 
2835.00     1.42     2.20    13.00     8.11 
2835.20     1.40     2.17    13.00     8.29 
2835.40     1.37     2.28    13.00     8.28 
2835.60     1.40     2.19    13.00     8.29 
2835.80     1.39     2.24    13.00     8.42 
2836.00     1.38     2.25    13.00     8.47 
2836.20     1.38     2.28    13.00     7.87 
2836.40     1.39     2.38    13.00     7.86 
2836.60     1.43     2.29    13.00     7.62 
2836.80     1.42     2.36    13.00     7.49 
2837.00     1.47     2.58    13.00     7.12 
2837.20     1.52     2.52    13.00     6.43 
2837.40     1.53     2.52    13.00     7.44 
2837.60     1.50     2.39    14.00     7.31 
2837.80     1.51     2.43    13.00     7.48 
2838.00     1.52     2.49    13.00     7.93 
2838.20     1.49     2.40    13.00     7.44 
2838.40     1.43     2.23    14.00     7.57 
2838.60     1.43     2.24    13.00     7.96 
2838.80     1.44     2.31    13.00     7.68 
2839.00     1.41     2.32    13.00     7.99 
2839.20     1.42     2.34    13.00     8.28 
2839.40     1.44     2.32    13.00     8.27 
2839.60     1.44     2.27    13.00     7.73 
2839.80     1.43     2.27    13.00     7.77 
2840.00     1.45     2.32    13.00     8.04 
2840.20     1.45     2.27    13.00     7.69 
2840.40     1.44     2.29    13.00     7.91 
2840.60     1.45     2.48    13.00     8.07 
2840.80     1.48     2.46    13.00     7.97 
2841.00     1.48     2.30    13.00     7.88 
2841.20     1.47     2.23    13.00     7.88 
2841.40     1.45     2.32    13.00     7.87 
2841.60     1.44     2.37    13.00     8.08 
2841.80     1.45     2.28    13.00     7.62 
2842.00     1.45     2.25    13.00     7.58 
2842.20     1.43     2.26    13.00     8.15 
2842.40     1.43     2.27    13.00     8.24 
2842.60     1.41     2.25    13.00     8.67 
2842.80     1.41     2.27    13.00     8.69 
2843.00     1.43     2.26    13.00     7.65 
2843.20     1.41     2.37    13.00     7.26 
2843.40     1.38     2.18   119.00     6.86 
2843.60     1.35     2.10   621.00     7.25 
2843.80     1.42     2.15   484.00     8.07 
2844.00     1.42     2.19    13.00     8.40 
2844.20     1.42     2.21    13.00     8.23 
2844.40     1.41     2.33    13.00     7.79 
2844.60     1.43     2.35    13.00     7.46 
2844.80     1.48     2.31    13.00     7.50 
2845.00     1.50     2.33    13.00     7.16 
2845.20     1.42     2.20    13.00     8.25 
2845.40     1.41     2.16    13.00     8.28 
2845.60     1.41     2.17    13.00     7.86 
2845.80     1.40     2.27    13.00     7.85 
2846.00     1.44     2.26    13.00     8.02 
2846.20     1.44     2.23    13.00     8.15 
2846.40     1.42     2.29    13.00     8.17 
2846.60     1.42     2.28    13.00     8.17 
2846.80     1.44     2.32    13.00     7.70 
2847.00     1.45     2.37    13.00     8.09 
2847.20     1.43     2.32    13.00     8.14 
2847.40     1.41     2.35    13.00     8.03 
2847.60     1.42     2.34    13.00     8.34 
2847.80     1.42     2.34    13.00     8.31 
2848.00     1.44     2.23    13.00     8.55 
2848.20     1.45     2.31    13.00     8.29 
2848.40     1.48     2.38    13.00     7.56 
2848.60     1.51     2.45    13.00     7.42 
2848.80     1.50     2.50    13.00     7.15 
2849.00     1.49     2.62    13.00     7.61 
2849.20     1.51     2.52    13.00     7.70 
2849.40     1.43     2.28    13.00     8.39 
2849.60     1.42     2.23    13.00     8.01 
2849.80     1.41     2.37    13.00     8.42 
2850.00     1.43     2.36    13.00     8.05 
2850.20     1.46     2.37    13.00     8.02 
2850.40     1.45     2.34    13.00     7.90 
2850.60     1.40     2.27    13.00     8.23 
2850.80     1.41     2.32    13.00     8.26 
2851.00     1.37     2.29    13.00     8.53 
2851.20     1.39     2.15    13.00     8.66 
2851.40     1.38     2.18    13.00     8.78 
2851.60     1.39     2.14    13.00     8.18 
2851.80     1.40     2.14    13.00     7.95 
2852.00     1.38     2.25    13.00     8.51 
2852.20     1.39     2.28    13.00     8.13 
2852.40     1.40     2.23    13.00     7.88 
2852.60     1.40     2.12    13.00     8.51 
2852.80     1.38     2.13    13.00     8.13 
2853.00     1.40     2.08    13.00     8.06 
2853.20     1.41     2.05    13.00     7.93 
2853.40     1.32     2.02   177.00     7.75 
2853.60     1.35     2.18   480.00     7.90 
2853.80     1.41     2.28    13.00     7.91 
2854.00     1.42     2.25    13.00     7.89 
2854.20     1.40     2.27    13.00     7.92 
2854.40     1.39     2.13    13.00     8.01 
2854.60     1.39     2.25    13.00     7.93 
2854.80     1.42     2.25    13.00     8.23 
2855.00     1.39     2.24    13.00     8.12 
2855.20     1.40     2.23    13.00     7.97 
2855.40     1.44     2.28    13.00     7.65 
2855.60     1.46     2.30    13.00     7.58 
2855.80     1.42     2.25    13.00     7.51 
2856.00     1.42     2.33    13.00     7.82 
2856.20     1.43     2.43    13.00     7.41 
2856.40     1.47     2.58    13.00     7.26 
2856.60     1.49     2.76    13.00     6.95 
2856.80     1.53     2.84    13.00     6.74 
2857.00     1.51     2.58    13.00     6.80 
