~VERSION INFORMATION
VERS.                1.20: CWLS log ASCII Standart - VERSION 1.20
WRAP.                  NO: One line per depth step
~WELL INFORMATION
# MNEM.UNIT               DATA TYPE  INFORMATION
# ----.----------------------------: -------------------
STRT.M                         2608:
STOP.M                         3062:
STEP.M                          0.2:
NULL.                       -999.25:
WELL.WELL                          : 5
LOC .LOCATION                      : 
FLD .FIELD CODE                    : 
UWI .UNIQUE WELL ID                : 
SRVC.SERVICE COMP                  : 
DATE.DDMMYYYY                      : 16/07/2007
~PARAMETER INFORMATION
#MNEM.UNIT               VALUE       DESCRIPTION
#----.-----------------------------: -------------------
TD  .M                             : 3054.6
EKB .M                             : 38.64
SCD .M                             : 0.245
SCDP.M                             : 748.74
CD  .M                             : 0.146
CDP .M                             : 3069.29
DFT .                              : S
BS  .M                             : 0.216
DFD .G/CC                          : 1.32
DFV .S                             : 
DFR .OHMM                          : 
MT  .degC                          : 
RWMT.degC                          : 
SALIN.G/L                          : 
RAU_GK.IMP/MIN                     : 1599
RAU_NEUT.IMP/MIN                   : 
SPEED.M/H                          : 780.5
TDLS.IMP/MIN                       : 132368
TDLB.IMP/MIN                       : 12584
TAU_GK.S                           : 3
TAU_NEUT.S                         : 3
#TOOL1                              : RK5-76
#SENSOR1                            : NKTS(mall),NKTD(eep),MLM ,GK
#TOOL2                              : 
#SENSOR2                            : 
~CURVE INFORMATION
#MNEM.UNIT                           CURVE DESCRIPTION
#----.-----------------------------: -------------------
DEPT.M                             : Depth curve
NKTS.ue                            : Neutron-Neutron Termal Small,  ue
NKTD.ue                            : Neutron-Neutron Termal Deep,  ue
MLM .ue                            : MLM, ue
GK  .uR/h                          : Gamma ray, uR/h
~OTHER INFORMATION
#The file is generated by the program GeoTech-EditLog v2007.06
#Number of Curves = 5
~Ascii Log Data
# ...
2928.40     1.65     2.87    13.00     6.48 
2928.60     1.62     2.69    13.00     7.18 
2928.80     1.53     2.67    13.00     7.00 
2929.00     1.52     2.48    13.00     7.09 
2929.20     1.51     2.37    14.00     7.16 
2929.40     1.43     2.31    13.00     7.70 
2929.60     1.40     2.28    13.00     8.23 
2929.80     1.41     2.33    13.00     8.67 
2930.00     1.44     2.30    13.00     8.49 
2930.20     1.47     2.34    14.00     8.01 
2930.40     1.46     2.36    13.00     8.49 
2930.60     1.46     2.31    13.00     8.61 
2930.80     1.47     2.22    13.00     8.70 
2931.00     1.43     2.24    14.00     8.83 
2931.20     1.43     2.21    13.00     8.73 
2931.40     1.45     2.21    13.00     8.32 
2931.60     1.45     2.23    13.00     7.77 
2931.80     1.43     2.27    13.00     8.10 
2932.00     1.42     2.26    13.00     7.81 
2932.20     1.45     2.32    13.00     7.97 
2932.40     1.47     2.37    13.00     7.97 
2932.60     1.46     2.27    13.00     8.32 
2932.80     1.46     2.26    13.00     8.13 
2933.00     1.46     2.23    13.00     7.72 
2933.20     1.44     2.22    38.00     7.22 
2933.40     1.41     2.24   448.00     7.67 
2933.60     1.34     2.23   448.00     7.96 
2933.80     1.42     2.20    13.00     7.63 
2934.00     1.45     2.29    13.00     7.88 
2934.20     1.43     2.24    13.00     7.76 
2934.40     1.41     2.24    13.00     7.74 
2934.60     1.40     2.23    13.00     7.65 
2934.80     1.43     2.20    13.00     7.89 
2935.00     1.44     2.37    13.00     7.39 
2935.20     1.44     2.66    13.00     7.13 
2935.40     1.49     2.85    14.00     6.82 
2935.60     1.56     2.92    13.00     6.38 
2935.80     1.54     3.28    13.00     6.67 
2936.00     1.59     3.22    14.00     5.81 
2936.20     1.67     2.54    13.00     6.30 
2936.40     1.55     2.30    13.00     7.20 
2936.60     1.44     2.24    14.00     7.42 
2936.80     1.42     2.33    13.00     7.51 
2937.00     1.43     2.29    13.00     7.41 
2937.20     1.48     2.31    13.00     7.66 
2937.40     1.46     2.20    13.00     7.84 
2937.60     1.45     2.22    13.00     7.75 
2937.80     1.46     2.23    13.00     7.50 
2938.00     1.45     2.32    13.00     8.12 
2938.20     1.43     2.34    13.00     8.63 
2938.40     1.45     2.43    13.00     8.45 
2938.60     1.47     2.59    13.00     7.98 
2938.80     1.53     2.47    13.00     6.89 
2939.00     1.48     2.34    13.00     7.21 
2939.20     1.46     2.31    13.00     7.84 
2939.40     1.45     2.22    13.00     8.26 
2939.60     1.41     2.30    13.00     8.64 
2939.80     1.43     2.34    13.00     7.82 
2940.00     1.45     2.33    13.00     7.61 
2940.20     1.42     2.28    13.00     8.38 
2940.40     1.42     2.15    13.00     8.36 
2940.60     1.42     2.18    13.00     8.66 
2940.80     1.42     2.25    13.00     8.73 
2941.00     1.39     2.36    14.00     8.23 
2941.20     1.40     2.38    13.00     8.69 
2941.40     1.41     2.24    13.00     9.60 
2941.60     1.42     2.24    13.00     9.34 
2941.80     1.41     2.31    13.00     9.34 
2942.00     1.43     2.28    13.00     8.31 
2942.20     1.43     2.19    13.00     7.89 
2942.40     1.43     2.31    13.00     8.13 
2942.60     1.42     2.32    13.00     7.66 
2942.80     1.43     2.15    13.00     7.66 
2943.00     1.43     2.15    13.00     7.41 
2943.20     1.42     2.11    52.00     6.56 
2943.40     1.40     2.16   603.00     6.79 
2943.60     1.36     2.21   459.00     7.81 
2943.80     1.42     2.13    13.00     7.77 
2944.00     1.42     2.21    13.00     8.01 
2944.20     1.41     2.28    13.00     7.29 
2944.40     1.42     2.35    13.00     7.63 
2944.60     1.44     2.29    14.00     7.70 
2944.80     1.45     2.32    13.00     7.66 
2945.00     1.47     2.46    13.00     6.53 
2945.20     1.48     2.41    14.00     5.95 
2945.40     1.46     2.37    13.00     7.03 
2945.60     1.44     2.27    13.00     7.20 
2945.80     1.45     2.29    13.00     6.73 
2946.00     1.44     2.26    13.00     7.48 
2946.20     1.42     2.25    13.00     7.90 
2946.40     1.42     2.25    13.00     8.10 
2946.60     1.42     2.14    14.00     8.57 
2946.80     1.42     2.16    13.00     8.18 
2947.00     1.40     2.16    13.00     8.45 
2947.20     1.42     2.23    13.00     8.83 
2947.40     1.41     2.30    14.00     8.48 
2947.60     1.40     2.26    13.00     8.76 
2947.80     1.39     2.31    13.00     9.10 
2948.00     1.41     2.25    13.00     8.64 
2948.20     1.43     2.31    13.00     8.34 
2948.40     1.44     2.35    14.00     8.40 
2948.60     1.45     2.27    13.00     8.13 
2948.80     1.44     2.28    13.00     8.48 
2949.00     1.43     2.34    13.00     8.90 
2949.20     1.42     2.31    14.00     8.89 
2949.40     1.43     2.36    13.00     8.49 
2949.60     1.43     2.36    13.00     7.97 
2949.80     1.45     2.27    13.00     8.23 
2950.00     1.45     2.23    13.00     8.00 
2950.20     1.44     2.19    14.00     7.06 
2950.40     1.44     2.43    13.00     6.56 
2950.60     1.45     2.68    14.00     6.57 
2950.80     1.50     2.98    13.00     6.32 
2951.00     1.58     3.21    13.00     5.46 
2951.20     1.62     3.58    14.00     5.67 
2951.40     1.73     4.29    13.00     4.83 
2951.60     1.86     4.85    14.00     4.93 
2951.80     1.97     4.97    13.00     4.95 
2952.00     1.98     4.64    13.00     5.21 
2952.20     1.94     3.86    13.00     5.14 
2952.40     1.86     2.92    14.00     5.47 
2952.60     1.67     2.58    13.00     5.33 
2952.80     1.55     2.29    14.00     4.98 
2953.00     1.48     2.25    72.00     4.81 
2953.20     1.43     2.14   629.00     5.08 
2953.40     1.37     2.20   494.00     6.24 
2953.60     1.45     2.18    13.00     7.42 
2953.80     1.43     2.20    13.00     7.48 
2954.00     1.41     2.24    14.00     7.62 
2954.20     1.42     2.27    14.00     7.63 
2954.40     1.41     2.29    14.00     8.04 
2954.60     1.42     2.24    13.00     7.63 
2954.80     1.43     2.14    13.00     7.40 
2955.00     1.43     2.09    13.00     7.86 
2955.20     1.41     2.11    13.00     8.44 
2955.40     1.41     2.08    13.00     8.30 
2955.60     1.39     2.21    13.00     8.15 
2955.80     1.39     2.34    13.00     7.52 
2956.00     1.39     2.29    13.00     7.61 
2956.20     1.41     2.19    13.00     8.01 
2956.40     1.41     2.29    13.00     8.03 
2956.60     1.41     2.31    13.00     8.24 
2956.80     1.43     2.23    13.00     8.14 
2957.00     1.44     2.22    13.00     8.41 
2957.20     1.41     2.19    13.00     8.50 
2957.40     1.38     2.25    13.00     8.41 
2957.60     1.38     2.15    13.00     8.01 
2957.80     1.41     2.03    13.00     8.09 
2958.00     1.42     2.14    13.00     8.30 
2958.20     1.39     2.18    13.00     8.48 
2958.40     1.39     2.27    13.00     8.68 
2958.60     1.39     2.32    13.00     8.40 
2958.80     1.41     2.23    13.00     7.83 
2959.00     1.46     2.30    14.00     6.88 
2959.20     1.45     2.32    13.00     6.70 
2959.40     1.44     2.24    13.00     7.81 
2959.60     1.43     2.24    13.00     7.84 
2959.80     1.40     2.27    13.00     8.42 
2960.00     1.41     2.32    14.00     8.43 
2960.20     1.42     2.28    13.00     8.45 
2960.40     1.43     2.20    13.00     8.62 
2960.60     1.43     2.17    13.00     8.43 
2960.80     1.42     2.14    13.00     8.64 
2961.00     1.42     2.12    13.00     8.34 
2961.20     1.42     2.17    14.00     9.27 
2961.40     1.41     2.14    13.00     8.98 
2961.60     1.39     2.19    13.00     8.97 
2961.80     1.39     2.21    14.00     9.63 
2962.00     1.42     2.22    14.00     9.07 
2962.20     1.41     2.18    13.00     8.88 
2962.40     1.42     2.22    13.00     8.65 
2962.60     1.42     2.20    13.00     8.73 
2962.80     1.40     2.13    13.00     8.32 
2963.00     1.39     2.01   223.00     7.78 
2963.20     1.33     2.04   638.00     8.55 
2963.40     1.38     2.10    13.00     8.58 
2963.60     1.39     2.07    13.00     8.74 
2963.80     1.39     2.09    14.00     8.83 
