~Version Information
VERS.                     2.0 : CWLS Log ASCII Standart
WRAP.                     NO  : One line per depth step
~Well Information
STRT.M                      1451.2000  : Start Depth
STOP.M                      1602.5000  : Stop Depth
STEP.M                         0.1000  : Step
NULL.                         -999.25  : Null Value
COMP.                                  : Company
WELL.                                  : Well
FLD .                                  : Field
LOC .                                  : Location
PROV.                                  : Province
SRVC.                                  : Service Company
DATE.      06/12/2011                  : Log Date
UWI .                                  : Unique Well ID
~Curve Information
DEPT.M                                 :
mapo_mek.                                  :
speed_mek.                                   :
MGZ_mek.Ž¬                                 :
MPZ_mek.Ž¬                                 :
BMK_mek.O¬                                 :
U_mek.‚                                    :
J_mek.A                                    :
tense_mek.                                 :
~ASCII Log Data
1451.2000     0.000  -819.405  -999.250  -999.250  -999.250  -999.250  -999.250   907.667
1451.3000     0.000  -799.073  -999.250  -999.250  -999.250  -999.250  -999.250   907.667
1451.4000     0.000  -811.636  -999.250  -999.250  -999.250  -999.250  -999.250   907.548
1451.5000     0.000  -825.159  -999.250  -999.250  -999.250  -999.250  -999.250   907.615
1451.6000     0.000  -822.857  -999.250  -999.250  -999.250  -999.250  -999.250   907.667
1451.7000     0.000  -830.721  -999.250  -999.250  -999.250  -999.250  -999.250   907.667
1451.8000     0.000  -827.077  -999.250  -999.250  -999.250  -999.250  -999.250   907.590
1451.9000     0.000  -819.980  -999.250  -999.250  -999.250  -999.250  -999.250   907.436
1452.0000     0.000  -833.598  -999.250  -999.250  -999.250  -999.250  -999.250   907.513
1452.1000     0.000  -816.527  -999.250  -999.250  -999.250  -999.250  -999.250   907.667
1452.2000     0.000  -824.816  -999.250  -999.250  -999.250  -999.250  -999.250   907.667
1452.3000     0.000  -810.874  -999.250  -999.250  -999.250  -999.250  -999.250   907.472
1452.4000     0.000  -807.124  -999.250  -999.250  -999.250  -999.250  -999.250   907.357
1452.5000     0.000  -812.052  -999.250  -999.250  -999.250  -999.250  -999.250   907.205
1452.6000     0.000  -815.249  -999.250  -999.250  -999.250  -999.250  -999.250   906.615
1452.7000     0.000  -818.829  -999.250  -999.250  -999.250  -999.250  -999.250   904.641
1452.8000     0.000  -822.282  -999.250  -999.250  -999.250  -999.250  -999.250   899.308
1452.9000     0.000  -816.089  -999.250  -999.250  -999.250  -999.250  -999.250   897.595
1453.0000     0.000  -818.048  -999.250  -999.250  -999.250  -999.250  -999.250   907.619
1453.1000     0.000  -812.627  -999.250  -999.250  -999.250  -999.250  -999.250   907.667
1453.2000     0.000  -808.344  -999.250  -999.250  -999.250  -999.250  -999.250   907.487
1453.3000     0.000  -812.883     0.803     0.670    36.814     0.383     0.000   907.667
1453.4000     0.000  -823.624     0.980     0.790    92.677     0.389     0.000   907.667
1453.5000     0.000  -818.637     0.911     1.005    90.130     0.369     0.000   907.538
1453.6000     0.000  -815.632     1.114     0.995    73.329     0.361     0.000   907.051
1453.7000     0.000  -834.941     1.058     1.121    60.142     0.361     0.000   905.667
1453.8000     0.000  -831.297     1.069     1.040    54.547     0.367     0.000   901.769
1453.9000     0.000  -829.123     0.931     1.135    54.195     0.373     0.000   904.410
1454.0000     0.000  -822.679     1.259     1.108    77.603     0.360     0.000   907.071
1454.1000     0.000  -811.732     1.347     1.216    28.340     0.363     0.000   905.820
1454.2000     0.000  -817.103     1.555     1.135    31.724     0.362     0.000   903.000
1454.3000     0.000  -813.842     1.089     1.130    46.454     0.371     0.000   894.128
1454.4000     0.000  -819.213     1.222     1.549    50.517     0.378     0.000   877.923
1454.5000     0.000  -836.156     1.159     1.261    56.583     0.396     0.000   887.462
1454.6000     0.000  -841.974     1.463     1.231    87.352     0.408     0.000   905.205
1454.7000     0.000  -821.259     1.271     1.199   120.225     0.404     0.000   904.282
1454.8000     0.000  -805.594     0.862     0.961    91.906     0.397     0.000   897.615
1454.9000     0.000  -701.388     0.919     0.973    56.107     0.397     0.000   876.262
1455.0000     0.000  -216.104     1.058     1.081   100.725     0.395     0.000   843.137
1455.1000     0.000  -385.018     1.296     1.344   113.702     0.402     0.000   873.755
1455.2000     0.000  -792.698     1.145     1.195   121.398     0.411     0.000   903.619
1455.3000     0.000  -801.055     1.305     1.174    56.425     0.406     0.000   896.026
1455.4000     0.000  -830.694     1.092     1.157    38.230     0.400     0.000   902.024
1455.5000     0.000  -827.221     1.440     1.093    53.873     0.396     0.000   907.444
1455.6000     0.000  -831.936     1.507     1.563   131.554     0.402     0.000   907.436
1455.7000     0.000  -840.787     1.192     1.230   118.969     0.401     0.000   907.333
1455.8000     0.000  -834.749     1.255     1.278   112.235     0.399     0.000   907.333
1455.9000     0.000  -828.260     1.517     1.278    92.246     0.398     0.000   907.333
1456.0000     0.000  -826.419     1.667     1.542   129.353     0.396     0.000   907.333
1456.1000     0.000  -818.446     1.442     1.240   124.825     0.392     0.000   907.128
1456.2000     0.000  -830.338     0.973     1.134   114.369     0.388     0.000   907.231
1456.3000     0.000  -825.351     1.206     1.206    93.303     0.382     0.000   907.333
1456.4000     0.000  -827.666     1.667     1.449   124.411     0.384     0.000   907.333
1456.5000     0.000  -831.792     1.255     1.337   126.042     0.389     0.000   907.250
1456.6000     0.000  -826.757     1.139     1.195   131.833     0.391     0.000   907.000
1456.7000     0.000  -838.649     1.165     1.060   126.775     0.383     0.000   907.262
1456.8000     0.000  -843.572     0.887     1.116   117.361     0.380     0.000   907.333
1456.9000     0.000  -849.455     1.376     1.209    20.415     0.389     0.000   907.333
1457.0000     0.000  -847.025     0.980     1.090    15.749     0.398     0.000   907.333
1457.1000     0.000  -835.133     1.011     1.132    19.428     0.399     0.000   907.180
1457.2000     0.000  -826.805     1.139     1.142    40.928     0.397     0.000   907.000
1457.3000     0.000  -822.282     1.084     1.286    17.376     0.385     0.000   907.000
1457.4000     0.000  -830.785     1.893     1.343    29.387     0.380     0.000   907.154
1457.5000     0.000  -839.896     1.532     1.552    61.727     0.386     0.000   907.048
1457.6000     0.000  -851.437     1.722     1.352    18.767     0.394     0.000   907.103
1457.7000     0.000  -849.524     1.244     1.373    87.525     0.402     0.000   907.278
1457.8000     0.000  -839.672     1.571     1.351   121.522     0.391     0.000   907.256
1457.9000     0.000  -829.187     1.164     1.303    61.907     0.355     0.000   907.026
1458.0000     0.000  -837.818     1.106     1.135     8.336     0.348     0.001   907.000
1458.1000     0.000  -822.857     1.877     1.189    13.148     0.333     0.000   907.000
1458.2000     1.000  -828.036     1.205     1.059     8.834     0.368     0.001   907.000
1458.3000     1.000  -825.351     1.005     0.944     7.725     0.365     0.001   907.000
1458.4000     1.000  -818.048     0.747     0.902     7.203     0.381     0.001   907.214
1458.5000     0.000  -825.542     1.193     1.111     7.272     0.380     0.001   907.026
1458.6000     0.000  -837.818     1.588     1.540     6.560     0.378     0.001   907.000
1458.7000     0.000  -835.900     1.391     1.148     7.325     0.375     0.001   907.282
1458.8000     0.000  -830.913     1.196     1.056     7.238     0.374     0.001   907.333
1458.9000     0.000  -833.598     1.502     0.995     8.524     0.376     0.001   907.333
1459.0000     1.000  -841.143     0.561     0.811    11.161     0.351     0.000   907.333
1459.1000     0.000  -821.131     1.284     1.143     2.009     0.312     0.002   907.000
1459.2000     0.000  -831.105     0.563     0.660     1.681     0.287     0.003   907.128
1459.3000     0.000  -828.468     0.278     0.426     5.706     0.304     0.001   907.333
1459.4000     0.000  -825.159     1.455     1.365    19.023     0.314     0.000   907.333
1459.5000     0.000  -832.119     1.662     1.411    15.116     0.309     0.000   907.262
1459.6000     0.000  -840.312     1.359     1.641    28.356     0.328     0.000   907.103
1459.7000     0.000  -845.874     1.640     1.597   110.747     0.389     0.000   907.026
1459.8000     0.000  -828.883     2.848     1.924   109.466     0.408     0.000   907.333
1459.9000     0.000  -847.473     1.273     1.520    54.311     0.411     0.000   907.333
1460.0000     0.000  -836.412     1.917     1.449    56.204     0.414     0.000   907.231
