~Version Information
VERS.                     2.0 : CWLS Log ASCII Standart
WRAP.                     NO  : One line per depth step
~Well Information
STRT.M                      1422.8000  : Start Depth
STOP.M                      1601.3000  : Stop Depth
STEP.M                         0.1000  : Step
NULL.                         -999.25  : Null Value
COMP.                                  : Company
WELL.                                  : Well
FLD .                                  : Field
LOC .                                  : Location
PROV.                                  : Province
SRVC.                                  : Service Company
DATE.      06/12/2011                  : Log Date
UWI .                                  : Unique Well ID
~Curve Information
DEPT.M                                 :
mapo_ek.                                  :
speed_ek.                                   :
IK_ek.¬‘¬/¬                            :
BK_ek.Ž¬¬                              :
A4M05N_ek.O¬¬                  :
A8M1N_ek.Ž¬¬                  :
A04M01N_ek.Ž¬¬                  :
A1M01N_ek.Ž¬¬                  :
A2M05N_ek.Ž¬¬                  :
REZ_ek.Ž¬¬                   :
tense_ek.                                 :
_GK_ek.¨¬¯/c                               :
PS_ek.                                 :
~ASCII Log Data
# ...
1469.2000     0.000  -847.554   175.344     7.455    38.325    72.126     1.198     5.245    20.090     0.046   971.381    59.671 -1413.830
1469.3000     0.000  -844.108   125.455     8.229    37.239    71.937     1.177     5.388    19.462     0.045   974.222    61.236 -1413.566
1469.4000     0.000  -840.792   118.549     9.090    36.017    71.668     1.252     5.497    18.767     0.045   983.067    66.427 -1413.395
1469.5000     0.000  -839.123   147.716     9.182    35.964    71.679     1.136     5.138    18.695     0.045   997.667    66.704 -1413.062
1469.6000     0.000  -838.428   157.491     9.488    36.398    71.646     1.175     5.171    18.932     0.046   994.800    66.640 -1412.944
1469.7000     0.000  -841.925   182.853    12.972    36.740    73.049     1.106     5.041    19.049     0.045   984.500    67.561 -1412.841
1469.8000     0.000  -845.612   208.199    28.384    38.076    73.902     1.241     5.681    19.521     0.045   970.571    62.662 -1412.685
1469.9000     0.000  -848.456   222.173    53.204    39.469    74.833     1.278     5.847    20.136     0.045   972.095    54.084 -1412.487
1470.0000     0.000  -845.851   238.785    68.910    40.970    76.124     1.316     6.026    20.611     0.045   975.556    45.271 -1412.542
1470.1000     0.000  -847.952   242.028    57.270    41.858    77.154     1.368     6.198    20.840     0.045   973.500    41.270 -1412.681
1470.2000     0.000  -856.859   230.040    43.569    42.781    77.951     1.397     6.330    21.075     0.045   971.714    45.790 -1413.069
1470.3000     0.000  -855.841   205.925    34.535    43.523    79.073     1.447     6.457    21.208     0.045   976.533    49.050 -1413.483
1470.4000     0.000  -851.529   194.728    36.061    43.516    79.270     1.450     6.555    20.992     0.045   983.571    48.290 -1413.787
1470.5000     0.000  -843.546   176.385    52.665    43.719    75.290     1.507     6.737    20.924     0.045   991.476    45.206 -1414.008
1470.6000     0.000  -842.921   124.701    56.507    45.057    71.495     1.438     6.430    21.232     0.045   986.286    34.678 -1414.250
1470.7000     0.000  -843.824    55.314    35.476    46.041    68.101     1.498     6.726    21.339     0.046   977.278    24.101 -1414.529
1470.8000     0.000  -841.433     1.439    11.664    41.648    63.031     1.706     7.766    19.188     0.046   969.667    23.349 -1414.679
1470.9000     0.000  -843.913   -58.540     4.167    37.100    59.101     1.678     7.664    17.472     0.048   970.000    28.927 -1414.641
1471.0000     0.000  -840.199  -130.412     2.862    32.704    55.357     0.731     3.747    15.930     0.049   970.722    38.574 -1414.441
1471.1000     0.000  -843.686  -140.549     3.381    25.409    51.755     0.700     3.204    12.760     0.047   971.667    53.150 -1414.344
1471.2000     0.000  -837.058   -11.254     4.193    19.621    47.864     0.833     3.840    10.256     0.048   974.778    70.368 -1414.464
1471.3000     0.000  -837.274   189.911     4.826    19.914    43.200     0.558     2.761    10.734     0.048   986.571    88.276 -1414.625
1471.4000     0.000  -831.387   376.497     6.638    21.145    39.667     0.758     3.430    11.608     0.045   994.476   104.735 -1414.781
1471.5000     0.000  -829.018   585.486    10.533    21.723    40.558     0.839     4.059    12.079     0.043  1005.333   118.097 -1414.975
1471.6000     0.000  -830.215   638.069    16.469    23.595    41.390     0.920     4.417    13.409     0.042  1000.095   125.536 -1415.292
1471.7000     0.000  -841.832   558.980    20.145    24.522    41.711     0.956     4.519    13.879     0.041   983.556   117.807 -1415.798
1471.8000     0.000  -838.398   477.384    18.556    24.647    43.176     0.963     4.568    14.078     0.040   979.619   105.635 -1416.256
1471.9000     0.000  -833.120   376.186    15.018    24.470    43.767     0.928     4.358    14.161     0.041   973.800   108.399 -1416.534
1472.0000     0.000  -836.469   265.743    14.925    24.138    43.869     0.960     4.311    14.142     0.039   970.000   112.119 -1416.706
1472.1000     0.000  -843.903   200.975    16.320    23.752    43.686     0.992     4.320    14.193     0.038   970.571    96.887 -1416.783
1472.2000     0.000  -846.357   189.145    19.383    23.654    43.206     1.008     4.291    14.406     0.038   972.833    80.289 -1416.901
1472.3000     0.000  -841.732   186.265    25.107    23.765    42.276     1.041     4.376    14.691     0.039   977.952    84.116 -1417.010
1472.4000     0.000  -836.476   189.283    28.827    23.692    41.454     1.087     4.462    14.904     0.041   993.133    81.329 -1416.884
1472.5000     0.000  -831.530   191.639    22.798    23.590    40.977     1.132     4.628    15.077     0.043  1006.143    62.878 -1416.736
1472.6000     0.000  -833.454   172.961    15.398    23.339    40.978     1.155     4.750    15.163     0.045  1000.762    56.594 -1416.755
1472.7000     0.000  -832.015   160.310    12.039    23.153    41.251     1.147     4.787    15.158     0.046   982.619    59.426 -1416.819
1472.8000     0.000  -830.029   155.713    12.374    23.125    41.530     1.127     4.754    15.204     0.048   989.667    68.567 -1416.927
1472.9000     0.000  -838.182   152.518    17.382    23.277    41.783     1.127     4.808    15.229     0.049   986.111    82.816 -1417.029
1473.0000     0.000  -845.930   152.767    29.748    23.757    41.816     1.165     4.998    15.359     0.050   970.429    86.094 -1417.035
1473.1000     0.000  -845.160   154.630    49.685    24.408    41.756     1.212     5.217    15.649     0.050   972.000    76.514 -1417.256
1473.2000     0.000  -844.583   155.049    55.750    25.109    41.754     1.252     5.456    15.978     0.051   976.222    65.238 -1417.557
1473.3000     0.000  -839.019   154.681    36.009    25.669    41.923     1.307     5.661    15.897     0.051   988.778    64.317 -1417.745
1473.4000     0.000  -838.070   152.569    18.376    25.852    42.085     1.359     5.892    15.839     0.051  1003.905    64.808 -1418.113
1473.5000     0.000  -830.597   150.687    11.931    25.877    42.064     1.348     5.819    15.902     0.051  1008.238    66.092 -1418.433
1473.6000     0.000  -830.115   148.694    12.628    26.011    41.903     1.283     5.607    15.824     0.052  1006.111    76.614 -1418.720
1473.7000     0.000  -826.954   150.194    19.399    26.180    41.658     1.311     5.752    15.948     0.052  1001.762    79.628 -1419.028
1473.8000     0.000  -831.658   155.560    23.775    26.375    41.314     1.365     5.960    16.212     0.054   997.611    68.412 -1419.325
1473.9000     0.000  -838.295   161.842    17.138    26.688    41.070     1.405     6.184    16.585     0.054   984.810    55.593 -1419.498
1474.0000     0.000  -835.012   165.058    12.637    27.072    40.896     1.380     6.123    17.009     0.055   970.444    46.288 -1419.653
1474.1000     0.000  -836.574   166.371    14.042    27.552    40.946     1.355     6.064    17.322     0.055   971.619    50.141 -1419.626
1474.2000     0.000  -833.565   169.397    20.250    27.969    40.937     1.388     6.190    17.576     0.056   975.095    62.729 -1419.643
1474.3000     0.000  -831.911   169.978    23.934    28.297    40.765     1.435     6.415    17.856     0.058   985.722    65.591 -1419.607
1474.4000     0.000  -830.541   168.587    17.655    28.748    39.543     1.467     6.554    18.222     0.059   998.042    64.706 -1419.645
1474.5000     0.000  -826.768   163.843    14.369    29.199    38.995     1.451     6.471    18.557     0.060   999.733    68.044 -1419.493
1474.6000     0.000  -828.897   162.074    13.326    29.510    38.625     1.460     6.514    18.761     0.062   988.048    73.377 -1419.378
1474.7000     0.000  -832.823   162.312    10.824    28.473    38.117     1.484     6.653    17.968     0.064   989.389    77.237 -1419.349
1474.8000     0.000  -841.516   157.617     6.974    27.681    37.357     1.500     6.733    17.681     0.059   988.778    80.072 -1419.321
1474.9000     0.000  -845.311   147.898     5.800    27.047    36.558     1.151     4.974    17.479     0.057   980.333    79.305 -1419.236
