~Version Information
VERS.                     2.0 : CWLS Log ASCII Standart
WRAP.                     NO  : One line per depth step
~Well Information
STRT.M                      1422.8000  : Start Depth
STOP.M                      1601.3000  : Stop Depth
STEP.M                         0.1000  : Step
NULL.                         -999.25  : Null Value
COMP.                                  : Company
WELL.                                  : Well
FLD .                                  : Field
LOC .                                  : Location
PROV.                                  : Province
SRVC.                                  : Service Company
DATE.      06/12/2011                  : Log Date
UWI .                                  : Unique Well ID
~Curve Information
DEPT.M                                 :
mapo_ek.                                  :
speed_ek.                                   :
IK_ek.¬‘¬/¬                            :
BK_ek.Ž¬¬                              :
A4M05N_ek.O¬¬                  :
A8M1N_ek.Ž¬¬                  :
A04M01N_ek.Ž¬¬                  :
A1M01N_ek.Ž¬¬                  :
A2M05N_ek.Ž¬¬                  :
REZ_ek.Ž¬¬                   :
tense_ek.                                 :
_GK_ek.¨¬¯/c                               :
PS_ek.                                 :
~ASCII Log Data
# ...
1556.2000     0.000  -489.611   104.686    19.386    52.067   114.984     1.379     6.794    25.212     0.041  1049.667    11.219 -1401.132
1556.3000     0.000  -509.245   100.000    18.222    50.980   114.236     1.344     6.615    24.708     0.041  1049.733    10.426 -1401.619
1556.4000     0.000  -517.247    99.381    18.537    49.800   113.481     1.314     6.477    24.177     0.041  1049.667     8.050 -1401.869
1556.5000     0.000  -517.027   102.488    20.435    48.991   112.607     1.290     6.331    23.819     0.041  1049.667     5.185 -1401.825
1556.6000     0.000  -514.068   107.471    29.001    48.600   111.655     1.270     6.256    23.700     0.040  1049.667     6.414 -1402.184
1556.7000     0.000  -519.291   112.688    42.611    48.562   111.004     1.276     6.304    23.699     0.040  1049.667     7.929 -1402.222
1556.8000     0.000  -522.720   116.136    78.694    48.803   110.793     1.307     6.454    23.766     0.040  1049.667     6.337 -1402.100
1556.9000     0.000  -520.083   117.205    56.034    49.033   110.863     1.331     6.566    23.819     0.040  1049.375     5.528 -1401.880
1557.0000     0.000  -517.781   115.150    41.461    49.161   111.113     1.342     6.591    23.823     0.040  1049.333     6.224 -1401.354
1557.1000     0.000  -516.417   110.924    34.845    49.109   111.452     1.319     6.471    23.792     0.040  1049.524     5.129 -1400.823
1557.2000     0.000  -516.114   106.965    34.353    49.187   111.858     1.314     6.424    23.778     0.040  1049.667     3.807 -1400.488
1557.3000     0.000  -513.889   104.903    48.686    49.246   112.158     1.316     6.439    23.786     0.040  1049.667     3.421 -1399.614
1557.4000     0.000  -507.507   108.333    76.517    49.629   112.422     1.351     6.604    23.922     0.039  1049.667     5.841 -1398.653
1557.5000     0.000  -504.414   116.077   103.188    50.212   112.700     1.367     6.679    24.182     0.039  1049.667     9.284 -1397.792
1557.6000     0.000  -506.184   120.257   131.251    50.961   113.003     1.392     6.801    24.471     0.039  1049.476     9.257 -1396.831
1557.7000     0.000  -505.347   121.034   150.249    51.593   113.129     1.413     6.896    24.727     0.038  1049.333     8.738 -1395.865
1557.8000     0.000  -503.718   117.551   103.107    52.270   113.043     1.445     7.056    25.013     0.038  1049.333     9.596 -1394.721
1557.9000     0.000  -502.234   112.119    47.810    52.723   112.663     1.475     7.207    25.177     0.037  1049.333    11.333 -1393.504
1558.0000     0.000  -504.654   109.284    25.137    52.759   112.217     1.498     7.285    25.189     0.037  1049.000     8.865 -1392.709
1558.1000     0.000  -503.191   108.542    19.223    52.401   111.684     1.476     7.198    25.035     0.037  1049.000     5.906 -1392.255
1558.2000     0.000  -501.897   108.580    18.894    51.746   111.591     1.433     6.986    24.741     0.037  1049.167     6.938 -1391.787
1558.3000     0.000  -496.452   109.503    19.725    50.934   109.738     1.403     6.845    24.405     0.037  1049.333     7.710 -1391.813
1558.4000     0.000  -495.953   106.669    24.912    50.318   108.682     1.381     6.732    24.127     0.039  1049.208     7.889 -1392.049
1558.5000     0.000  -497.620   106.407    39.819    50.393   107.502     1.376     6.737    24.242     0.043  1049.048     8.430 -1392.625
1558.6000     0.000  -508.407   109.429    55.628    49.864   106.260     1.397     6.850    23.746     0.047  1049.250    10.093 -1393.488
1558.7000     0.000  -514.072   109.934    30.912    49.359   105.329     1.463     7.246    23.685     0.048  1049.333    12.164 -1394.258
1558.8000     0.000  -518.638    98.712    20.642    49.188   104.412     1.306     6.321    23.645     0.048  1049.333    13.420 -1394.783
1558.9000     0.000  -521.557    84.887    28.330    48.782   103.296     1.362     6.576    23.470     0.050  1049.417    17.136 -1395.351
1559.0000     1.000  -529.829    84.982    33.530    47.828   101.919     1.387     6.769    23.033     0.051  1049.667    18.410 -1395.415
1559.1000     0.000  -526.795   113.650    29.391    47.699   100.523     1.370     6.654    23.152     0.052  1049.556    15.106 -1395.357
1559.2000     0.000  -524.328   126.976    26.428    47.387    98.694     1.355     6.571    23.000     0.052  1049.250    13.815 -1395.372
1559.3000     0.000  -525.753   139.726    23.509    46.692    98.303     1.346     6.543    22.679     0.052  1049.056    12.824 -1394.937
1559.4000     0.000  -535.746   133.094    24.826    46.159    97.438     1.324     6.426    22.438     0.052  1049.000     9.022 -1394.609
1559.5000     0.000  -535.644   121.034    30.999    45.761    96.450     1.318     6.392    22.246     0.053  1049.167     5.147 -1394.270
1559.6000     0.000  -540.544   122.056    35.578    45.526    95.965     1.324     6.401    22.092     0.053  1049.333     5.327 -1393.956
1559.7000     0.000  -556.367   123.652    37.714    45.308    95.578     1.323     6.388    22.034     0.054  1049.333     6.430 -1394.015
1559.8000     0.000  -561.535   121.962    42.129    45.357    95.239     1.329     6.429    22.091     0.054  1049.381     6.930 -1394.240
1559.9000     0.000  -562.839   118.695    54.244    45.687    95.022     1.340     6.422    22.265     0.055  1049.889     7.626 -1394.304
1560.0000     0.000  -559.256   116.696    61.359    46.059    94.827     1.366     6.519    22.405     0.055  1051.333     7.713 -1394.889
1560.1000     0.000  -562.691   116.733    48.072    46.386    94.588     1.404     6.694    22.533     0.056  1055.476     7.072 -1395.503
1560.2000     0.000  -558.177   118.664    38.527    46.635    94.395     1.407     6.706    22.654     0.057  1065.867     6.335 -1396.521
1560.3000     0.000  -550.366   120.922    33.530    46.703    94.176     1.410     6.707    22.676     0.059  1057.286     6.088 -1397.738
1560.4000     0.000  -549.019   122.681    30.518    46.509    93.952     1.406     6.693    22.589     0.060  1046.905     6.784 -1398.908
1560.5000     0.000  -548.596   124.882    29.297    46.320    93.594     1.404     6.690    22.512     0.062  1042.867     8.128 -1400.167
1560.6000     0.000  -547.509   128.283    29.199    46.209    92.952     1.402     6.688    22.462     0.063  1046.455     8.034 -1401.569
1560.7000     0.000  -551.199   131.554    30.036    46.151    91.964     1.399     6.685    22.448     0.064  1049.533     5.950 -1402.740
1560.8000     0.000  -561.663   134.334    29.906    46.184    90.236     1.404     6.725    22.476     0.064  1049.963     3.665 -1404.062
1560.9000     0.000  -554.353   136.501    25.576    46.190    87.929     1.410     6.767    22.453     0.064  1050.000     2.531 -1405.206
1561.0000     0.000  -560.000   137.923    19.068    45.718    85.312     1.414     6.777    22.257     0.059  1050.296     3.496 -1406.258
1561.1000     0.000  -561.102   139.161    12.626    44.437    82.051     1.406     6.734    21.561     0.055  1050.111     5.635 -1407.424
1561.2000     0.000  -553.212   140.328     8.622    42.423    78.507     1.351     6.436    20.536     0.051  1050.000     6.611 -1408.478
1561.3000     0.000  -554.282   141.480     7.202    39.646    74.948     1.214     5.760    19.228     0.049  1050.000     6.212 -1409.628
1561.4000     0.000  -555.811   143.504     6.980    36.309    70.915     1.093     5.202    17.544     0.048  1050.000     5.188 -1410.888
1561.5000     0.000  -557.174   147.064     7.319    32.723    66.905     0.971     4.627    15.837     0.047  1049.963     4.401 -1411.915
1561.6000     0.000  -556.517   150.868     7.974    29.494    62.917     0.868     4.161    14.470     0.047  1049.970     8.087 -1412.906
1561.7000     0.000  -551.729   154.416     9.435    26.915    59.200     0.768     3.686    13.231     0.048  1050.000    10.798 -1413.882
1561.8000     0.000  -559.187   156.457    12.475    24.959    56.276     0.703     3.416    12.301     0.047  1050.000     8.423 -1414.699
1561.9000     0.000  -567.896   155.022    17.566    23.487    54.081     0.649     3.163    11.613     0.047  1050.000     8.464 -1415.544
