~Version Information
VERS.                     2.0 : CWLS Log ASCII Standart
WRAP.                     NO  : One line per depth step
~Well Information
STRT.M                      1422.8000  : Start Depth
STOP.M                      1601.3000  : Stop Depth
STEP.M                         0.1000  : Step
NULL.                         -999.25  : Null Value
COMP.                                  : Company
WELL.                                  : Well
FLD .                                  : Field
LOC .                                  : Location
PROV.                                  : Province
SRVC.                                  : Service Company
DATE.      06/12/2011                  : Log Date
UWI .                                  : Unique Well ID
~Curve Information
DEPT.M                                 :
mapo_ek.                                  :
speed_ek.                                   :
IK_ek.¬‘¬/¬                            :
BK_ek.Ž¬¬                              :
A4M05N_ek.O¬¬                  :
A8M1N_ek.Ž¬¬                  :
A04M01N_ek.Ž¬¬                  :
A1M01N_ek.Ž¬¬                  :
A2M05N_ek.Ž¬¬                  :
REZ_ek.Ž¬¬                   :
tense_ek.                                 :
_GK_ek.¨¬¯/c                               :
PS_ek.                                 :
~ASCII Log Data
# ...
1434.4000     0.000  -813.879  -999.250  -999.250    44.877  -999.250  -999.250  -999.250  -999.250     0.064  -999.250  -999.250 -1411.241
1434.5000     0.000  -813.467  -999.250  -999.250    45.686  -999.250  -999.250  -999.250  -999.250     0.064  -999.250  -999.250 -1411.194
1434.6000     0.000  -816.193  -999.250  -999.250    46.402  -999.250  -999.250  -999.250  -999.250     0.065  -999.250  -999.250 -1411.171
1434.7000     0.000  -823.564  -999.250  -999.250    47.084  -999.250  -999.250  -999.250  -999.250     0.065  -999.250  -999.250 -1411.207
1434.8000     0.000  -821.329  -999.250  -999.250    47.826  -999.250  -999.250  -999.250  -999.250     0.064  -999.250  -999.250 -1411.204
1434.9000     0.000  -821.962  -999.250  -999.250    48.648  -999.250  -999.250  -999.250  -999.250     0.064  -999.250  -999.250 -1411.191
1435.0000     0.000  -820.785  -999.250  -999.250    49.609  -999.250  -999.250  -999.250  -999.250     0.064  -999.250  -999.250 -1411.126
1435.1000     0.000  -828.964  -999.250  -999.250    50.580  -999.250  -999.250  -999.250  -999.250     0.064  -999.250  -999.250 -1411.484
1435.2000     0.000  -830.576  -999.250  -999.250    50.596  -999.250  -999.250  -999.250  -999.250     0.063  -999.250  -999.250 -1411.804
1435.3000     0.000  -830.852  -999.250  -999.250    50.358  -999.250  -999.250  -999.250  -999.250     0.064  -999.250  -999.250 -1411.881
1435.4000     0.000  -827.715  -999.250  -999.250    50.041  -999.250  -999.250  -999.250  -999.250     0.065  -999.250  -999.250 -1411.936
1435.5000     0.000  -821.364  -999.250  -999.250    49.428  -999.250  -999.250  -999.250  -999.250     0.065  -999.250  -999.250 -1412.151
1435.6000     0.000  -822.191  -999.250  -999.250    48.720  -999.250  -999.250  -999.250  -999.250     0.064  -999.250  -999.250 -1412.417
1435.7000     0.000  -828.814  -999.250  -999.250    49.019  -999.250  -999.250  -999.250  -999.250     0.064  -999.250  -999.250 -1412.811
1435.8000     0.000  -826.353  -999.250  -999.250    49.493  -999.250     1.337  -999.250  -999.250     0.064  -999.250  -999.250 -1412.844
1435.9000     0.000  -834.075  -999.250  -999.250    50.073  -999.250     1.361  -999.250  -999.250     0.063  -999.250  -999.250 -1412.799
1436.0000     0.000  -829.725  -999.250  -999.250    50.746  -999.250     1.371  -999.250  -999.250     0.064  -999.250  -999.250 -1413.169
1436.1000     0.000  -831.652  -999.250  -999.250    51.610  -999.250     1.406  -999.250  -999.250     0.064  -999.250  -999.250 -1413.658
1436.2000     0.000  -833.700  -999.250  -999.250    52.485  -999.250     1.448  -999.250  -999.250     0.063  -999.250  -999.250 -1413.794
1436.3000     0.000  -831.505  -999.250  -999.250    52.694  -999.250     1.498  -999.250  -999.250     0.063  -999.250  -999.250 -1413.698
1436.4000     0.000  -828.447  -999.250  -999.250    52.704  -999.250     1.531     7.348  -999.250     0.063  -999.250  -999.250 -1413.375
1436.5000     0.000  -830.249  -999.250  -999.250    52.701  -999.250     1.438     6.952  -999.250     0.064  -999.250  -999.250 -1413.093
1436.6000     0.000  -820.332  -999.250  -999.250    51.912  -999.250     1.432     6.926  -999.250     0.062  -999.250  -999.250 -1412.857
1436.7000     0.000  -822.460  -999.250  -999.250    49.715  -999.250     1.482     7.105  -999.250     0.062  -999.250  -999.250 -1412.391
1436.8000     0.000  -815.752  -999.250  -999.250    47.766  -999.250     1.381     6.701  -999.250     0.062  -999.250  -999.250 -1411.656
1436.9000     0.000  -823.364  -999.250  -999.250    45.938  -999.250     1.202     5.899  -999.250     0.063  -999.250  -999.250 -1411.190
1437.0000     0.000  -826.938  -999.250  -999.250    43.707  -999.250     1.160     5.681  -999.250     0.062  -999.250  -999.250 -1410.785
1437.1000     0.000  -824.509  -999.250  -999.250    42.244  -999.250     1.161     5.675  -999.250     0.061  -999.250  -999.250 -1410.524
1437.2000     0.000  -828.574  -999.250  -999.250    42.081  -999.250     1.142     5.595  -999.250     0.061  -999.250  -999.250 -1410.239
1437.3000     0.000  -823.084  -999.250  -999.250    42.134    88.377     1.166     5.700  -999.250     0.061  -999.250  -999.250 -1409.933
1437.4000     0.000  -825.979  -999.250  -999.250    42.213    88.780     1.198     5.806  -999.250     0.061  -999.250  -999.250 -1409.707
1437.5000     0.000  -819.093  -999.250  -999.250    42.545    89.541     1.184     5.706  -999.250     0.060  -999.250  -999.250 -1409.645
1437.6000     0.000  -819.337  -999.250  -999.250    42.883    90.290     1.207     5.779    20.355     0.060  -999.250  -999.250 -1409.442
1437.7000     0.000  -828.141  -999.250  -999.250    43.234    91.106     1.237     5.865    20.485     0.059  -999.250  -999.250 -1409.300
1437.8000     0.000  -825.399  -999.250  -999.250    43.857    91.927     1.271     5.958    20.791     0.058  -999.250  -999.250 -1408.849
1437.9000     0.000  -826.625  -999.250  -999.250    44.520    92.032     1.308     6.070    21.103     0.059  -999.250  -999.250 -1408.324
1438.0000     0.000  -830.481  -999.250  -999.250    44.918    92.163     1.356     6.243    21.368     0.058  -999.250  -999.250 -1407.885
1438.1000     0.000  -828.397  -999.250  -999.250    45.684    91.926     1.390     6.382    21.688     0.059  -999.250  -999.250 -1407.369
1438.2000     0.000  -834.655  -999.250  -999.250    45.487    91.271     1.387     6.375    21.603     0.060  -999.250  -999.250 -1406.875
1438.3000     0.000  -825.736  -999.250  -999.250    45.129    90.197     1.450     6.673    21.432     0.061  -999.250  -999.250 -1406.382
1438.4000     0.000  -827.912  -999.250  -999.250    44.321    88.939     1.329     6.223    21.073     0.061  -999.250  -999.250 -1405.842
1438.5000     0.000  -825.865  -999.250  -999.250    43.207    87.580     1.341     6.249    20.528     0.061  -999.250  -999.250 -1405.730
1438.6000     0.000  -825.959  -999.250  -999.250    41.418    86.282     1.279     6.011    19.653     0.061  -999.250  -999.250 -1405.763
1438.7000     0.000  -827.268  -999.250  -999.250    40.239    85.176     1.219     5.782    19.107     0.061  -999.250  -999.250 -1405.620
1438.8000     0.000  -824.743  -999.250  -999.250    39.145    83.870     1.165     5.561    18.604     0.061  -999.250  -999.250 -1405.396
1438.9000     0.000  -826.540  -999.250  -999.250    38.569    83.340     1.128     5.434    18.357     0.062  -999.250  -999.250 -1405.202
1439.0000     0.000  -844.669  -999.250  -999.250    38.562    82.015     1.137     5.474    18.330     0.063  -999.250  -999.250 -1405.126
1439.1000     0.000  -840.210  -999.250  -999.250    38.999    80.278     1.160     5.586    18.509     0.064  -999.250  -999.250 -1405.113
1439.2000     0.000  -842.247  -999.250  -999.250    39.484    78.019     1.190     5.707    18.834     0.064  -999.250  -999.250 -1404.853
1439.3000     0.000  -828.369  -999.250  -999.250    38.538    75.890     1.221     5.839    18.781     0.065  -999.250  -999.250 -1404.395
1439.4000     0.000  -825.122  -999.250  -999.250    36.190    73.857     1.264     5.865    18.237     0.067  -999.250  -999.250 -1403.942
1439.5000     0.000  -819.969  -999.250  -999.250    33.090    71.730     1.140     5.249    17.084     0.063  -999.250  -999.250 -1403.627
1439.6000     0.000  -818.481  -999.250  -999.250    29.814    69.723     1.015     4.579    15.667     0.061  -999.250  -999.250 -1403.194
1439.7000     0.000  -819.576  -999.250  -999.250    27.409    67.350     0.793     3.685    14.168     0.064  -999.250  -999.250 -1402.645
1439.8000     0.000  -825.466  -999.250  -999.250    25.852    64.839     0.724     3.447    13.174     0.066  -999.250  -999.250 -1402.062
1439.9000     0.000  -822.105  -999.250  -999.250    25.704    62.598     0.730     3.492    12.699     0.067  -999.250  -999.250 -1401.458
1440.0000     0.000  -824.351  -999.250  -999.250    26.170    60.983     0.755     3.592    12.802     0.067  -999.250  -999.250 -1400.943
1440.1000     0.000  -825.229  -999.250  -999.250    26.687    60.286     0.777     3.685    13.070     0.067  -999.250  -999.250 -1400.677
