~Version Information
VERS.                     2.0 : CWLS Log ASCII Standart
WRAP.                     NO  : One line per depth step
~Well Information
STRT.M                       485.0000  : Start Depth
STOP.M                      1606.7000  : Stop Depth
STEP.M                         0.1000  : Step
NULL.                         -999.25  : Null Value
COMP.                                  : Company
WELL.                                  : Well
FLD .                                  : Field
LOC .                                  : Location
PROV.                                  : Province
SRVC.                                  : Service Company
DATE.      06/12/2011                  : Log Date
UWI .                                  : Unique Well ID
~Curve Information
DEPT.M                                 :
mapo_ds.                                  :
speed_ds.                                   :
R1_ds.¬¬                                  :
R2_ds.¬¬                                  :
R3_ds.¬¬                                  :
R4_ds.¬¬                                  :
R5_ds.¬¬                                  :
R6_ds.¬¬                                  :
R7_ds.¬¬                                  :
R8_ds.¬¬                                  :
PR1_ds.¬¬                                  :
PR2_ds.¬¬                                  :
PR3_ds.¬¬                                  :
PR4_ds.¬¬                                  :
DS_ds.¬¬                                 :
tense_ds.                                 :
~ASCII Log Data
# ...
782.6000     0.000 -1209.600   133.435   119.062   121.207   115.533   122.373   126.073   121.485   133.862   255.809   245.134   242.692   249.395   248.258   581.300
782.7000     0.000 -1177.600   133.117   119.317   121.199   115.581   122.452   125.992   121.315   133.484   255.570   245.310   242.514   249.065   248.115   581.000
782.8000     0.000 -1209.600   133.287   118.898   121.219   115.614   122.191   126.139   121.651   133.665   255.478   245.037   242.871   249.278   248.166   581.333
782.9000     0.000 -1198.933   133.306   119.744   121.794   116.172   122.683   125.834   121.510   133.849   255.988   245.578   243.304   250.022   248.723   581.111
783.0000     0.000 -1207.680   133.260   119.949   122.137   116.507   122.410   125.789   121.521   133.750   255.670   245.738   243.658   250.257   248.831   580.700
783.1000     0.000 -1219.200   133.502   120.177   122.174   116.572   122.486   125.585   121.192   133.915   255.989   245.762   243.366   250.487   248.901   580.867
783.2000     0.000 -1211.733   133.889   120.181   122.517   117.254   122.671   126.104   122.297   134.697   256.559   246.286   244.813   251.951   249.902   580.704
783.3000     0.000 -1215.360   133.491   119.756   122.020   116.549   122.109   125.470   121.226   133.684   255.601   245.227   243.247   250.234   248.577   580.667
783.4000     0.000 -1209.600   133.319   120.129   122.128   116.609   122.537   125.659   121.114   133.494   255.856   245.788   243.242   250.103   248.747   580.778
783.5000     0.000 -1203.840   133.677   120.653   122.112   116.743   122.632   125.631   121.468   133.920   256.309   246.285   243.579   250.663   249.209   580.900
783.6000     0.000 -1190.400   133.700   119.361   121.678   116.011   121.995   125.520   121.675   134.227   255.694   244.881   243.353   250.237   248.541   581.333
783.7000     0.000 -1209.600   133.941   119.683   121.563   116.015   121.708   125.376   121.674   134.197   255.649   245.059   243.236   250.212   248.539   581.333
783.8000     0.000 -1228.800   133.984   119.554   121.478   116.017   121.751   125.614   121.642   134.225   255.735   245.168   243.120   250.242   248.566   581.444
783.9000     0.000 -1209.600   134.039   119.471   121.483   116.015   121.882   125.661   121.826   134.588   255.921   245.132   243.309   250.603   248.741   580.833
784.0000     0.000 -1184.000   134.047   120.202   121.495   115.924   122.062   125.721   122.035   134.708   256.108   245.922   243.529   250.631   249.048   580.333
784.1000     0.000 -1209.600   134.196   119.469   121.463   115.868   121.764   125.931   122.196   134.936   255.960   245.400   243.659   250.804   248.956   580.200
784.2000     0.000 -1196.800   134.262   119.430   121.492   115.905   121.603   125.835   122.321   135.298   255.865   245.265   243.812   251.203   249.036   580.000
784.3000     0.000 -1186.560   134.459   119.362   121.624   116.044   121.482   125.609   122.396   135.251   255.941   244.971   244.020   251.296   249.057   580.000
784.4000     0.000 -1209.600   134.146   119.378   121.729   116.060   121.648   125.545   121.590   134.591   255.794   244.923   243.319   250.652   248.672   580.333
784.5000     0.000 -1177.600   134.552   119.955   121.873   116.075   121.846   125.975   122.216   135.275   256.397   245.930   244.088   251.349   249.441   580.518
784.6000     0.000 -1169.280   134.602   119.720   121.830   116.248   121.928   126.532   123.135   135.849   256.530   246.253   244.966   252.097   249.961   580.667
784.7000     0.000 -1209.600   133.300   119.670   121.811   116.102   121.340   125.665   121.807   133.585   254.640   245.335   243.617   249.687   248.320   580.567
784.8000     0.000 -1203.200   133.351   119.744   121.768   116.111   121.467   125.584   121.640   133.635   254.818   245.328   243.408   249.746   248.325   580.815
784.9000     0.000 -1209.600   133.054   119.596   121.311   116.205   121.438   125.726   121.527   133.322   254.493   245.322   242.838   249.527   248.045   581.267
785.0000     0.000 -1203.840   133.173   119.638   121.312   116.242   121.683   125.672   120.712   132.895   254.856   245.310   242.024   249.137   247.832   581.600
785.1000     0.000 -1190.400   133.342   119.667   121.310   116.159   121.588   126.231   121.399   133.212   254.930   245.899   242.710   249.370   248.227   581.667
785.2000     0.000 -1209.600   133.603   119.699   121.289   115.830   121.331   126.093   121.902   133.386   254.935   245.792   243.191   249.216   248.283   581.667
785.3000     0.000 -1207.467   133.736   119.767   121.287   115.931   121.357   125.750   122.035   133.762   255.092   245.517   243.323   249.693   248.406   581.333
785.4000     0.000 -1212.567   134.493   120.188   121.304   115.970   121.318   125.706   122.251   134.610   255.810   245.894   243.555   250.580   248.960   581.333
785.5000     0.000 -1210.182   134.751   120.733   121.394   115.766   121.401   125.729   122.921   135.593   256.152   246.462   244.314   251.359   249.572   581.370
785.6000     0.000 -1195.200   135.980   121.054   121.285   115.164   120.583   125.314   123.760   136.885   256.563   246.368   245.045   252.049   250.006   581.667
785.7000     0.000 -1216.000   136.224   121.628   121.352   115.372   120.564   124.954   123.108   136.522   256.789   246.582   244.461   251.894   249.931   581.667
785.8000     0.000 -1209.600   136.218   121.716   121.427   116.029   121.019   124.884   123.253   136.804   257.237   246.600   244.680   252.833   250.337   581.333
785.9000     0.000 -1216.000   136.767   122.459   122.547   117.297   123.123   125.640   122.727   136.515   259.890   248.100   245.274   253.812   251.769   580.667
786.0000     0.000 -1209.600   136.395   122.495   122.775   117.356   125.718   129.221   123.324   136.465   262.113   251.716   246.099   253.820   253.437   580.867
786.1000     0.000 -1209.600   137.181   122.876   122.762   117.297   125.616   129.528   123.811   137.249   262.797   252.404   246.573   254.546   254.080   580.815
786.2000     0.000 -1209.600   137.830   122.929   122.651   116.965   125.441   129.205   124.143   138.131   263.270   252.134   246.793   255.096   254.323   580.867
786.3000     0.000 -1209.600   136.542   122.073   122.308   116.866   124.390   128.079   123.163   136.839   260.933   250.151   245.471   253.705   252.565   581.300
786.4000     0.000 -1203.200   136.395   122.236   122.233   117.004   124.263   127.078   123.431   136.218   260.659   249.314   245.664   253.221   252.214   581.000
786.5000     0.000 -1207.680   137.460   122.095   122.239   117.088   125.243   129.400   124.965   137.268   262.702   251.495   247.204   254.356   253.939   581.567
786.6000     0.000 -1173.333   134.853   121.321   122.085   117.010   125.571   129.425   123.222   136.545   260.423   250.746   245.307   253.555   252.508   581.222
786.7000     0.000 -1209.600   134.783   120.658   122.231   117.116   124.826   127.693   123.060   136.540   259.610   248.351   245.292   253.656   251.727   581.100
786.8000     0.000 -1203.200   134.820   120.856   122.461   117.751   124.349   126.556   123.253   136.543   259.169   247.412   245.714   254.295   251.647   581.259
786.9000     0.000 -1198.080   134.951   120.756   122.484   117.844   124.740   127.119   123.872   136.994   259.691   247.875   246.356   254.838   252.190   580.967
787.0000     0.000 -1209.600   135.436   120.730   122.377   117.549   124.869   128.324   124.949   137.652   260.305   249.054   247.326   255.201   252.972   580.400
787.1000     0.000 -1177.600   136.311   121.231   122.796   118.292   124.771   127.486   125.499   137.910   261.082   248.717   248.296   256.202   253.574   580.185
787.2000     0.000 -1209.600   136.458   121.192   122.861   118.700   125.055   127.333   125.776   138.051   261.513   248.525   248.637   256.750   253.856   580.000
787.3000     0.000 -1203.200   136.215   121.322   123.621   119.911   126.269   128.171   126.009   137.359   262.484   249.493   249.630   257.270   254.719   580.111
