~Version Information
VERS.                     2.0 : CWLS Log ASCII Standart
WRAP.                     NO  : One line per depth step
~Well Information
STRT.M                      1422.8000  : Start Depth
STOP.M                      1601.3000  : Stop Depth
STEP.M                         0.1000  : Step
NULL.                         -999.25  : Null Value
COMP.                                  : Company
WELL.                                  : Well
FLD .                                  : Field
LOC .                                  : Location
PROV.                                  : Province
SRVC.                                  : Service Company
DATE.      06/12/2011                  : Log Date
UWI .                                  : Unique Well ID
~Curve Information
DEPT.M                                 :
mapo_ek.                                  :
speed_ek.                                   :
IK_ek.¬‘¬/¬                            :
BK_ek.Ž¬¬                              :
A4M05N_ek.O¬¬                  :
A8M1N_ek.Ž¬¬                  :
A04M01N_ek.Ž¬¬                  :
A1M01N_ek.Ž¬¬                  :
A2M05N_ek.Ž¬¬                  :
REZ_ek.Ž¬¬                   :
tense_ek.                                 :
_GK_ek.¨¬¯/c                               :
PS_ek.                                 :
~ASCII Log Data
# ...
1521.4000     0.000  -829.479  1306.386     0.617     0.212     0.438     0.337     0.502     0.476     0.049  1009.389    13.978 -1418.604
1521.5000     0.000  -827.540  1298.891     0.596     0.198     0.449     0.333     0.496     0.489     0.049  1009.476    12.768 -1418.947
1521.6000     0.000  -824.812  1291.020     0.582     0.205     0.485     0.324     0.489     0.483     0.050  1009.333    13.305 -1419.299
1521.7000     0.000  -818.824  1281.685     0.577     0.198     0.512     0.319     0.476     0.479     0.050  1009.333    14.121 -1419.722
1521.8000     0.000  -826.951  1263.447     0.577     0.205     0.555     0.321     0.489     0.489     0.051  1009.476    12.993 -1420.117
1521.9000     0.000  -826.956  1241.427     0.570     0.212     0.628     0.317     0.483     0.501     0.052  1009.667    13.678 -1420.303
1522.0000     0.000  -823.521  1209.442     0.567     0.238     0.648     0.305     0.463     0.520     0.052  1009.381    19.825 -1420.521
1522.1000     0.000  -825.601  1155.787     0.567     0.264     0.661     0.303     0.463     0.542     0.053  1009.333    30.633 -1420.769
1522.2000     0.000  -823.898  1084.898     0.576     0.330     0.661     0.291     0.449     0.601     0.053  1009.333    39.831 -1420.957
1522.3000     0.000  -820.895  1003.943     0.670     0.357     0.661     0.285     0.463     0.595     0.056  1009.333    37.242 -1421.069
1522.4000     0.000  -811.191   920.177     0.928     0.350     0.686     0.304     0.542     0.575     0.052  1009.333    28.264 -1420.974
1522.5000     0.000  -810.778   814.191     1.197     0.350     0.727     0.206     0.357     0.549     0.050  1009.333    31.515 -1420.757
1522.6000     0.000  -815.962   648.340     1.335     0.297     0.773     0.134     0.205     0.489     0.050  1009.556    46.550 -1420.803
1522.7000     0.000  -816.900   498.496     1.475     0.218     0.806     0.130     0.211     0.413     0.050  1009.524    59.494 -1421.075
1522.8000     0.000  -816.700   463.850     1.674     0.238     0.853     0.140     0.215     0.449     0.050  1009.667    67.774 -1421.185
1522.9000     0.000  -814.152   524.911     2.222     0.344     0.867     0.190     0.281     0.562     0.052  1009.429    68.655 -1421.332
1523.0000     0.000  -814.834   668.025     3.744     0.443     0.892     0.346     0.578     0.641     0.061  1009.333    66.043 -1421.496
1523.1000     0.000  -823.571   805.263     4.971     0.603     0.912     0.367     0.714     0.787     0.055  1009.667    66.358 -1421.766
1523.2000     0.000  -828.073   806.868     5.786     0.701     0.942     0.296     0.601     0.901     0.055  1009.667    59.479 -1422.143
1523.3000     0.000  -827.371   683.348     7.792     0.694     1.005     0.374     0.919     0.892     0.065  1009.333    52.581 -1422.305
1523.4000     0.000  -813.750   562.262     6.520     0.641     1.051     0.408     1.077     0.846     0.058  1009.333    48.246 -1422.215
1523.5000     0.000  -814.599   399.867     4.642     0.641     1.058     0.323     0.866     0.876     0.052  1009.333    43.077 -1422.195
1523.6000     0.000  -819.326   236.991     4.375     0.615     1.084     0.276     0.714     0.892     0.052  1009.333    48.697 -1422.276
1523.7000     0.000  -827.232   198.363     6.546     0.588     1.091     0.367     1.031     0.912     0.059  1009.333    54.432 -1422.357
1523.8000     0.000  -825.285   219.814    14.211     0.661     1.069     0.519     1.330     1.024     0.066  1009.333    50.183 -1422.225
1523.9000     0.000  -825.869   271.421    23.798     0.776     1.058     0.562     1.381     1.249     0.062  1009.333    39.867 -1421.872
1524.0000     0.000  -823.339   328.312    24.711     0.826     1.084     0.608     1.454     1.363     0.066  1009.381    27.883 -1421.419
1524.1000     0.000  -833.712   342.446    15.479     0.839     1.130     0.675     1.890     1.471     0.062  1009.333    24.021 -1420.913
1524.2000     0.000  -832.757   285.809    10.451     0.866     1.143     0.547     1.712     1.636     0.054  1009.533    26.756 -1420.444
1524.3000     0.000  -829.076   168.335    12.916     0.879     1.150     0.636     1.930     1.811     0.055  1009.667    26.026 -1419.771
1524.4000     0.000  -815.616   135.310    15.995     0.879     1.157     0.746     2.412     2.022     0.052  1009.667    26.180 -1419.018
1524.5000     0.000  -814.350   176.681    18.496     0.945     1.150     0.755     2.551     2.426     0.051  1009.583    24.594 -1418.496
1524.6000     0.000  -815.653   188.268    22.167     1.000     1.157     0.821     2.756     2.934     0.051  1009.333    18.008 -1418.054
1524.7000     0.000  -823.674   215.766    22.734     1.025     1.181     0.863     2.928     3.622     0.051  1009.333    16.480 -1417.686
1524.8000     0.000  -816.109   228.477    18.530     1.064     1.190     0.901     3.090     4.019     0.051  1009.381    19.636 -1417.260
1524.9000     0.000  -820.390   188.451    14.841     1.130     1.190     0.935     3.325     4.230     0.051  1009.333    19.251 -1416.799
1525.0000     0.000  -818.523   170.885    14.799     1.163     1.223     0.950     3.457     4.387     0.051  1009.333    23.742 -1416.364
1525.1000     0.000  -829.872   159.761    15.428     1.216     1.243     0.993     3.715     4.600     0.051  1009.444    28.694 -1416.072
1525.2000     0.000  -821.436   152.168    15.459     1.282     1.282     1.021     3.887     4.898     0.051  1009.667    29.179 -1415.638
1525.3000     0.000  -819.482   147.254    20.845     1.362     1.315     1.058     4.085     5.618     0.050  1009.667    30.388 -1415.361
1525.4000     0.000  -815.829   145.133    24.207     1.454     1.342     1.071     4.148     6.504     0.050  1009.619    27.805 -1415.048
1525.5000     0.000  -820.846   142.080    33.319     1.540     1.375     1.120     4.349     7.250     0.049  1009.667    24.157 -1414.930
1525.6000     0.000  -823.168   142.876    48.320     1.692     1.401     1.190     4.739     8.222     0.048  1009.667    21.164 -1414.766
1525.7000     0.000  -814.887   161.709    45.055     1.844     1.438     1.247     4.978     9.227     0.047  1009.667    17.095 -1414.694
1525.8000     0.000  -818.389   169.779    30.977     2.042     1.428     1.282     5.222     9.874     0.047  1009.667    12.608 -1414.494
1525.9000     0.000  -823.272   170.354    24.773     2.286     1.388     1.311     5.414    10.403     0.046  1009.524    10.845 -1414.444
1526.0000     0.000  -827.449   160.885    25.351     2.603     1.329     1.354     5.663    11.261     0.046  1009.667    12.112 -1414.352
1526.1000     0.000  -825.691   128.872    23.184     2.825     1.256     1.422     5.975    11.732     0.046  1009.667    16.411 -1414.467
1526.2000     0.000  -817.826    88.850     9.649     2.960     1.183     1.541     6.662    11.507     0.046  1009.476    23.207 -1414.613
1526.3000     0.000  -820.288    27.168     4.665     2.993     1.140     1.170     4.845    10.615     0.047  1009.333    30.937 -1414.856
1526.4000     0.000  -820.641   -55.197     3.834     2.861     1.104     0.813     3.561     9.221     0.048  1009.333    46.104 -1415.218
1526.5000     0.000  -820.508  -118.363     3.420     2.531     1.071     0.579     2.598     7.330     0.048  1009.611    62.073 -1415.692
1526.6000     0.000  -825.703  -123.894     3.284     2.630     0.992     0.468     1.996     6.990     0.048  1009.667    70.341 -1416.025
1526.7000     0.000  -825.846   -62.743     4.115     3.403     0.945     0.510     2.115     7.495     0.048  1009.667    73.505 -1416.252
1526.8000     0.000  -829.058   139.174     7.583     4.296     0.912     0.882     3.906     8.658     0.046  1009.667    71.735 -1416.310
1526.9000     0.000  -832.019   391.584    12.218     5.088     0.919     0.999     4.520    10.147     0.045  1009.933    62.033 -1416.256
1527.0000     0.000  -826.410   559.672    10.690     5.868     0.945     1.005     4.619    11.574     0.045  1010.000    43.907 -1416.186
1527.1000     0.000  -829.344   620.177     8.989     6.311     0.985     0.956     4.454    11.978     0.045  1010.556    27.008 -1415.930
