~Version Information
VERS.                     2.0 : CWLS Log ASCII Standart
WRAP.                     NO  : One line per depth step
~Well Information
STRT.M                      1451.2000  : Start Depth
STOP.M                      1602.5000  : Stop Depth
STEP.M                         0.1000  : Step
NULL.                         -999.25  : Null Value
COMP.                                  : Company
WELL.                                  : Well
FLD .                                  : Field
LOC .                                  : Location
PROV.                                  : Province
SRVC.                                  : Service Company
DATE.      06/12/2011                  : Log Date
UWI .                                  : Unique Well ID
~Curve Information
DEPT.M                                 :
mapo_mek.                                  :
speed_mek.                                   :
MGZ_mek.Ž¬                                 :
MPZ_mek.Ž¬                                 :
BMK_mek.O¬                                 :
U_mek.‚                                    :
J_mek.A                                    :
tense_mek.                                 :
~ASCII Log Data
# ...
1486.8000     0.000  -797.219     1.233     1.015     7.991     0.303     0.001   907.308
1486.9000     0.000  -803.800     0.912     0.791     0.794     0.202     0.004   907.167
1487.0000     0.000  -796.794     0.350     0.173     0.500     0.193     0.006   907.000
1487.1000     0.000  -808.727     0.039     0.147     0.443     0.175     0.006   907.103
1487.2000     0.000  -805.786     0.040     0.146     0.439     0.171     0.006   907.333
1487.3000     0.000  -791.510     0.044     0.174     0.464     0.165     0.005   907.333
1487.4000     0.000  -804.124     0.066     0.199     0.508     0.167     0.005   907.180
1487.5000     0.000  -804.275     0.040     0.153     0.445     0.187     0.006   907.167
1487.6000     0.000  -807.832     0.035     0.146     0.388     0.188     0.007   907.333
1487.7000     0.000  -814.098     0.037     0.179     0.552     0.185     0.005   907.333
1487.8000     0.000  -809.111     0.154     0.290     2.048     0.239     0.002   907.256
1487.9000     0.000  -810.805     0.568     0.541     1.662     0.334     0.003   907.000
1488.0000     0.000  -790.917     0.145     0.360     2.631     0.361     0.002   907.000
1488.1000     0.000  -814.354     0.300     0.455     1.761     0.257     0.002   907.154
1488.2000     0.000  -795.082     0.268     0.240     0.522     0.243     0.007   907.333
1488.3000     0.000  -802.687     0.036     0.199     1.122     0.231     0.003   907.244
1488.4000     0.000  -813.842     0.116     0.326     5.378     0.287     0.001   907.333
1488.5000     0.000  -816.802     0.908     0.732     2.462     0.314     0.002   907.214
1488.6000     0.000  -814.609     0.412     0.623     4.129     0.267     0.001   907.333
1488.7000     0.000  -813.650     0.368     0.327     1.791     0.256     0.002   907.333
1488.8000     0.000  -809.814     0.084     0.372     0.958     0.229     0.004   907.333
1488.9000     0.000  -813.203     0.568     0.459     0.843     0.234     0.004   907.256
1489.0000     0.000  -798.310     0.875     0.947     2.981     0.245     0.001   907.333
1489.1000     0.000  -787.245     0.941     0.987     2.293     0.303     0.002   907.333
1489.2000     0.000  -787.176     0.905     0.872     1.606     0.334     0.003   907.333
1489.3000     0.000  -790.314     0.834     0.794     1.373     0.332     0.004   907.333
1489.4000     0.000  -800.360     0.767     0.712     1.325     0.326     0.004   907.178
1489.5000     0.000  -797.347     0.668     0.676     1.161     0.325     0.004   907.205
1489.6000     0.000  -805.224     0.684     0.697     1.227     0.332     0.004   907.333
1489.7000     0.000  -806.362     0.685     0.679     1.232     0.343     0.004   907.077
1489.8000     0.000  -798.689     0.704     0.699     1.494     0.346     0.003   907.154
1489.9000     0.000  -802.731     0.787     0.756     1.553     0.349     0.003   907.333
1490.0000     0.000  -796.835     0.778     0.797     1.451     0.346     0.004   907.333
1490.1000     0.000  -800.119     0.669     0.697     1.223     0.340     0.004   907.214
1490.2000     0.000  -796.707     0.677     0.703     1.183     0.338     0.004   907.051
1490.3000     0.000  -800.297     0.673     0.653     1.177     0.340     0.004   907.095
1490.4000     0.000  -802.334     0.521     0.607     1.103     0.341     0.005   907.128
1490.5000     0.000  -800.927     0.559     0.597     1.103     0.342     0.005   907.154
1490.6000     0.000  -800.297     0.635     0.652     1.129     0.343     0.005   907.119
1490.7000     0.000  -811.696     0.627     0.643     1.179     0.341     0.004   907.000
1490.8000     0.000  -806.745     0.677     0.675     1.120     0.339     0.005   907.000
1490.9000     0.000  -813.714     0.531     0.625     1.118     0.336     0.004   907.143
1491.0000     0.000  -804.124     0.601     0.625     1.124     0.339     0.004   907.256
1491.1000     0.000  -793.574     0.700     0.646     1.130     0.344     0.005   907.000
1491.2000     0.000  -798.689     0.636     0.735     1.253     0.345     0.004   907.026
1491.3000     0.000  -810.865     0.819     0.704     1.349     0.353     0.004   907.262
1491.4000     0.000  -807.832     0.808     0.808     1.688     0.358     0.003   907.333
1491.5000     0.000  -804.188     0.983     0.817     1.984     0.369     0.003   907.436
1491.6000     0.000  -786.998     0.774     0.861     3.194     0.362     0.002   908.048
1491.7000     0.000  -798.561     1.041     0.920     2.971     0.326     0.002   909.897
1491.8000     0.000  -798.575     1.105     0.902     4.416     0.315     0.001   914.976
1491.9000     0.000  -818.829     0.706     0.569     4.561     0.276     0.001   910.256
1492.0000     0.000  -802.781     0.188     0.422     1.725     0.244     0.002   907.000
1492.1000     0.000  -814.158     0.325     0.497     1.349     0.245     0.003   907.000
1492.2000     0.000  -815.377     0.339     0.410     1.570     0.249     0.002   907.000
1492.3000     0.000  -807.513     0.290     0.436     3.041     0.258     0.001   907.231
1492.4000     0.000  -803.868     0.440     0.485     3.605     0.277     0.001   907.026
1492.5000     0.000  -812.180     0.460     0.636     2.569     0.278     0.002   907.000
1492.6000     0.000  -824.935     0.424     0.529     3.722     0.239     0.001   907.048
1492.7000     0.000  -816.911     0.429     0.667     1.862     0.229     0.002   907.333
1492.8000     0.000  -801.128     0.522     0.468     1.741     0.226     0.002   907.333
1492.9000     0.000  -813.922     0.265     0.379     1.135     0.209     0.003   907.333
1493.0000     0.000  -816.208     0.073     0.214     0.720     0.195     0.004   907.436
1493.1000     0.000  -805.594     0.058     0.185     0.606     0.184     0.005   908.282
1493.2000     0.000  -814.158     0.064     0.162     0.766     0.192     0.004   910.600
1493.3000     0.000  -811.157     0.041     0.143     0.631     0.182     0.004   917.974
1493.4000     0.000  -803.484     0.040     0.133     0.414     0.186     0.007   924.897
1493.5000     0.000  -805.275     0.035     0.122     0.573     0.182     0.005   908.410
1493.6000     0.000  -827.607     0.043     0.153     0.593     0.178     0.004   907.333
1493.7000     0.000  -824.200     0.074     0.144     0.470     0.165     0.005   907.077
1493.8000     0.000  -813.368     0.037     0.113     0.285     0.157     0.008   907.167
1493.9000     0.000  -819.948     0.034     0.106     0.292     0.158     0.008   907.333
1494.0000     0.000  -817.870     0.033     0.099     0.307     0.155     0.008   907.333
1494.1000     0.000  -815.696     0.031     0.098     0.238     0.143     0.009   907.333
1494.2000     0.000  -795.132     0.107     0.152     0.531     0.173     0.005   907.333
1494.3000     0.000  -806.649     0.120     0.309     3.745     0.269     0.001   907.071
1494.4000     0.000  -818.062     1.401     1.243     2.539     0.343     0.002   907.180
1494.5000     0.000  -808.855     0.894     0.576     2.261     0.233     0.002   907.282
1494.6000     0.000  -812.308     0.308     0.277     0.544     0.200     0.005   907.000
1494.7000     0.000  -816.911     0.065     0.185     0.479     0.184     0.006   907.000
1494.8000     0.000  -815.952     0.034     0.175     0.479     0.188     0.006   907.205
1494.9000     0.000  -818.126     0.050     0.177     0.719     0.203     0.004   907.333
1495.0000     0.000  -809.780     0.038     0.174     1.073     0.228     0.003   907.333
1495.1000     0.000  -806.106     0.049     0.235     0.920     0.203     0.003   907.256
1495.2000     0.000  -805.749     0.048     0.206     0.589     0.200     0.005   907.111
1495.3000     0.000  -802.731     0.042     0.199     0.492     0.180     0.005   907.071
1495.4000     0.000  -805.403     0.044     0.194     0.722     0.203     0.004   907.333
1495.5000     0.000  -818.446     0.041     0.176     0.648     0.199     0.005   907.180
1495.6000     0.000  -818.446     0.039     0.182     0.650     0.204     0.005   907.000
