~Version Information
VERS.                     2.0 : CWLS Log ASCII Standart
WRAP.                     NO  : One line per depth step
~Well Information
STRT.M                       485.0000  : Start Depth
STOP.M                      1606.7000  : Stop Depth
STEP.M                         0.1000  : Step
NULL.                         -999.25  : Null Value
COMP.                                  : Company
WELL.                                  : Well
FLD .                                  : Field
LOC .                                  : Location
PROV.                                  : Province
SRVC.                                  : Service Company
DATE.      06/12/2011                  : Log Date
UWI .                                  : Unique Well ID
~Curve Information
DEPT.M                                 :
mapo_ds.                                  :
speed_ds.                                   :
R1_ds.¬¬                                  :
R2_ds.¬¬                                  :
R3_ds.¬¬                                  :
R4_ds.¬¬                                  :
R5_ds.¬¬                                  :
R6_ds.¬¬                                  :
R7_ds.¬¬                                  :
R8_ds.¬¬                                  :
PR1_ds.¬¬                                  :
PR2_ds.¬¬                                  :
PR3_ds.¬¬                                  :
PR4_ds.¬¬                                  :
DS_ds.¬¬                                 :
tense_ds.                                 :
~ASCII Log Data
# ...
1229.0000     1.000  -798.720   142.493   133.617   128.615   115.665   115.564   113.112   107.195   128.128   258.057   246.729   235.809   243.793   246.097   852.022
1229.1000     0.000  -802.286   142.508   134.932   129.588   115.904   115.726   113.148   107.175   128.546   258.234   248.080   236.763   244.450   246.882   846.714
1229.2000     0.000  -794.880   143.467   135.103   129.752   115.951   115.793   113.183   107.299   129.581   259.261   248.285   237.050   245.532   247.532   830.978
1229.3000     0.000  -802.286   144.171   135.103   129.894   116.000   115.807   113.096   108.069   130.646   259.978   248.199   237.963   246.646   248.197   817.857
1229.4000     0.000  -802.286   144.564   135.102   129.976   116.499   115.790   113.316   107.497   130.513   260.355   248.418   237.474   247.012   248.315   818.500
1229.5000     0.000  -802.560   144.144   135.219   129.976   116.775   115.802   113.455   108.124   130.780   259.946   248.674   238.100   247.555   248.569   825.578
1229.6000     0.000  -810.514   144.213   135.304   129.956   116.849   115.740   113.746   108.420   131.412   259.952   249.050   238.377   248.261   248.910   845.167
1229.7000     0.000  -802.286   143.371   134.220   128.993   115.729   115.713   114.052   109.417   131.854   259.083   248.271   238.410   247.583   248.337   854.857
1229.8000     0.000  -806.400   142.028   133.917   129.167   115.694   116.116   113.400   107.679   128.957   258.143   247.318   236.846   244.652   246.740   854.467
1229.9000     0.000  -794.057   142.256   133.872   129.146   115.580   116.152   113.492   106.964   128.826   258.408   247.364   236.110   244.407   246.572   853.262
1230.0000     0.000  -802.286   143.032   133.795   128.776   115.524   116.122   113.577   108.089   130.993   259.154   247.371   236.865   246.517   247.477   849.714
1230.1000     0.000  -793.600   143.285   133.253   128.398   115.122   116.085   113.498   108.797   131.424   259.369   246.751   237.195   246.545   247.465   837.511
1230.2000     0.000  -788.571   142.602   132.897   128.241   115.255   116.024   113.611   107.927   129.547   258.626   246.508   236.168   244.802   246.526   819.500
1230.3000     0.000  -801.280   142.479   132.944   128.665   115.355   116.142   113.264   107.817   129.478   258.622   246.208   236.482   244.832   246.536   825.178
1230.4000     0.000  -816.000   142.827   133.447   128.442   115.580   116.209   113.354   107.999   129.240   259.036   246.801   236.441   244.820   246.775   844.833
1230.5000     0.000  -809.143   145.082   133.441   128.638   115.805   116.223   113.402   108.649   130.017   261.304   246.843   237.287   245.823   247.814   855.000
1230.6000     0.000  -806.400   144.082   133.286   128.796   115.814   116.253   113.243   108.908   131.946   260.336   246.529   237.703   247.760   248.082   854.933
1230.7000     0.000  -806.400   143.600   133.290   128.794   115.827   116.271   113.291   109.353   132.255   259.871   246.581   238.146   248.082   248.170   854.667
1230.8000     0.000  -810.514   144.243   133.259   128.838   115.797   116.283   113.401   108.538   130.623   260.525   246.660   237.376   246.420   247.745   854.667
1230.9000     0.000  -799.543   143.832   133.542   129.345   115.785   116.079   113.688   109.320   131.849   259.912   247.230   238.665   247.635   248.360   854.548
1231.0000     0.000  -792.320   143.386   133.525   129.685   115.785   116.122   113.773   109.635   130.600   259.508   247.297   239.320   246.385   248.128   853.267
1231.1000     0.000  -796.800   143.558   133.519   129.709   115.867   116.316   113.686   109.119   129.875   259.874   247.205   238.828   245.742   247.912   849.333
1231.2000     0.000  -788.480   143.580   133.523   129.691   115.861   116.274   113.628   109.276   131.126   259.854   247.151   238.966   246.988   248.240   836.489
1231.3000     0.000  -799.543   143.198   133.535   129.217   115.793   115.970   113.634   109.131   131.004   259.167   247.169   238.348   246.797   247.870   822.310
1231.4000     0.000  -802.560   143.777   133.765   129.653   115.743   115.899   113.638   109.351   131.559   259.676   247.403   239.005   247.301   248.346   835.556
1231.5000     0.000  -802.286   144.237   134.053   129.814   115.793   115.886   113.562   110.199   132.855   260.123   247.615   240.013   248.647   249.100   854.143
1231.6000     0.000  -806.400   144.252   134.006   129.356   115.432   115.722   114.118   110.189   132.671   259.974   248.124   239.545   248.103   248.936   854.133
1231.7000     0.000  -794.057   143.965   133.393   129.245   114.971   115.536   113.884   110.023   132.394   259.501   247.278   239.267   247.365   248.353   852.738
1231.8000     0.000  -810.514   144.434   133.873   129.603   114.960   115.089   113.741   110.689   132.704   259.523   247.614   240.292   247.663   248.773   849.167
1231.9000     0.000  -806.400   145.739   133.707   129.736   114.983   114.797   113.503   112.209   134.476   260.536   247.210   241.946   249.459   249.788   851.643
1232.0000     0.000  -806.400   146.838   133.801   129.548   115.092   114.814   113.613   111.661   135.018   261.652   247.414   241.209   250.110   250.096   855.000
1232.1000     0.000  -791.314   146.730   134.358   130.130   115.369   114.889   114.095   111.567   134.445   261.619   248.453   241.698   249.814   250.396   855.000
1232.2000     0.000  -782.080   146.391   134.750   130.495   115.882   114.864   114.512   112.361   134.904   261.255   249.261   242.855   250.786   251.039   854.911
1232.3000     0.000  -810.514   146.656   134.921   130.648   116.186   114.937   114.705   112.529   135.339   261.593   249.625   243.178   251.525   251.480   855.214
1232.4000     0.000  -795.429   146.945   134.389   130.518   116.311   114.972   114.828   112.940   135.788   261.917   249.218   243.458   252.099   251.673   855.095
1232.5000     0.000  -806.400   147.131   133.724   130.300   116.325   115.370   114.681   112.858   135.700   262.502   248.405   243.158   252.025   251.523   854.844
1232.6000     0.000  -809.143   147.480   133.341   129.251   116.352   115.462   114.579   112.601   136.168   262.942   247.920   241.852   252.520   251.309   855.000
1232.7000     0.000  -802.560   146.216   132.418   128.555   116.500   115.449   114.291   113.344   136.007   261.665   246.709   241.900   252.507   250.695   855.000
1232.8000     0.000  -806.400   144.808   132.458   128.386   116.442   115.439   114.435   111.995   134.798   260.246   246.893   240.381   251.240   249.690   855.000
1232.9000     0.000  -798.171   144.312   132.502   128.707   116.978   115.685   114.601   111.371   133.728   259.997   247.102   240.078   250.706   249.471   854.714
1233.0000     0.000  -802.560   144.219   132.507   129.119   117.109   115.668   114.789   111.304   133.553   259.886   247.296   240.423   250.663   249.567   854.667
1233.1000     0.000  -800.914   143.607   132.532   129.372   117.698   115.687   114.905   111.260   133.448   259.294   247.436   240.632   251.146   249.627   854.667
1233.2000     0.000  -795.429   143.517   132.658   130.199   117.688   115.971   115.339   111.821   133.382   259.487   247.997   242.020   251.070   250.144   854.786
1233.3000     0.000  -803.840   144.048   132.867   130.677   117.100   116.217   115.282   111.914   133.544   260.265   248.149   242.590   250.644   250.412   855.000
1233.4000     0.000  -810.514   143.671   132.465   131.012   116.891   115.985   115.053   112.429   133.421   259.656   247.518   243.441   250.312   250.232   855.000
1233.5000     0.000  -813.257   142.915   132.021   129.237   116.092   115.772   114.740   112.352   133.386   258.686   246.761   241.589   249.479   249.129   855.000
1233.6000     0.000  -802.560   142.615   132.094   128.975   115.602   115.621   114.422   111.200   132.685   258.236   246.515   240.175   248.287   248.303   855.000
1233.7000     0.000  -796.800   142.741   131.920   128.595   115.490   115.286   114.276   110.991   132.322   258.027   246.196   239.586   247.813   247.905   855.000
