~Version Information
VERS.                     2.0 : CWLS Log ASCII Standart
WRAP.                     NO  : One line per depth step
~Well Information
STRT.M                       485.0000  : Start Depth
STOP.M                      1606.7000  : Stop Depth
STEP.M                         0.1000  : Step
NULL.                         -999.25  : Null Value
COMP.                                  : Company
WELL.                                  : Well
FLD .                                  : Field
LOC .                                  : Location
PROV.                                  : Province
SRVC.                                  : Service Company
DATE.      06/12/2011                  : Log Date
UWI .                                  : Unique Well ID
~Curve Information
DEPT.M                                 :
mapo_ds.                                  :
speed_ds.                                   :
R1_ds.¬¬                                  :
R2_ds.¬¬                                  :
R3_ds.¬¬                                  :
R4_ds.¬¬                                  :
R5_ds.¬¬                                  :
R6_ds.¬¬                                  :
R7_ds.¬¬                                  :
R8_ds.¬¬                                  :
PR1_ds.¬¬                                  :
PR2_ds.¬¬                                  :
PR3_ds.¬¬                                  :
PR4_ds.¬¬                                  :
DS_ds.¬¬                                 :
tense_ds.                                 :
~ASCII Log Data
# ...
1454.6000     0.000  -842.057   140.986   127.902   124.609   116.121   116.776   120.020   116.398   134.465   257.763   247.922   241.008   250.586   249.320   973.333
1454.7000     0.000  -829.714   141.052   127.840   124.113   116.172   116.575   118.239   116.008   134.607   257.627   246.079   240.121   250.779   248.652   973.333
1454.8000     0.000  -844.800   141.720   127.959   123.925   116.179   116.685   117.839   115.583   135.098   258.405   245.798   239.508   251.276   248.747   973.262
1454.9000     0.000  -843.323   142.393   127.914   123.906   116.180   116.878   118.763   116.030   135.111   259.270   246.677   239.936   251.291   249.294   973.385
1455.0000     0.000  -840.686   141.642   127.156   123.868   116.199   116.853   118.917   116.421   135.596   258.494   246.072   240.290   251.795   249.163   973.595
1455.1000     0.000  -839.314   140.924   127.369   123.963   116.013   116.805   120.810   116.499   134.930   257.729   248.179   240.462   250.943   249.328   973.357
1455.2000     0.000  -835.938   140.705   127.539   123.870   116.050   116.886   119.517   115.961   134.540   257.591   247.056   239.831   250.589   248.767   973.333
1455.3000     0.000  -837.943   140.727   127.298   123.860   116.062   117.053   118.548   116.603   134.879   257.780   245.846   240.463   250.942   248.758   973.333
1455.4000     0.000  -831.086   141.115   127.384   123.867   116.007   117.043   118.536   116.284   135.254   258.158   245.920   240.152   251.261   248.873   973.238
1455.5000     0.000  -837.943   140.844   127.250   123.873   115.978   117.032   119.313   116.127   134.564   257.876   246.563   240.000   250.541   248.745   973.000
1455.6000     0.000  -831.508   141.143   127.303   124.017   115.976   116.959   119.189   116.291   134.403   258.101   246.492   240.307   250.379   248.820   973.000
1455.7000     0.000  -822.857   140.339   127.299   123.912   115.997   116.800   118.537   116.187   133.930   257.138   245.836   240.099   249.927   248.250   973.000
1455.8000     0.000  -831.086   140.525   127.779   123.849   115.999   116.908   118.219   115.880   134.396   257.433   245.998   239.730   250.395   248.389   973.000
1455.9000     0.000  -822.857   140.496   127.330   123.607   116.008   117.050   118.550   116.138   134.355   257.546   245.880   239.745   250.362   248.383   973.000
1456.0000     0.000  -831.086   140.710   127.244   123.770   115.998   116.992   118.529   115.832   134.070   257.701   245.773   239.603   250.069   248.287   973.000
1456.1000     0.000  -837.943   141.025   127.507   123.872   116.014   116.997   118.722   116.517   134.549   258.021   246.229   240.390   250.563   248.801   973.167
1456.2000     0.000  -837.943   141.359   127.314   123.920   115.828   117.197   119.277   117.325   135.212   258.556   246.591   241.245   251.040   249.358   973.333
1456.3000     0.000  -844.800   141.327   127.044   123.879   115.560   117.161   119.273   117.178   135.400   258.488   246.318   241.057   250.961   249.206   973.381
1456.4000     0.000  -838.892   141.094   127.002   123.743   115.549   117.230   119.487   116.567   134.633   258.324   246.489   240.310   250.182   248.826   973.359
1456.5000     0.000  -840.686   140.583   126.941   123.749   115.532   117.219   119.120   116.826   134.431   257.803   246.061   240.576   249.963   248.601   973.333
1456.6000     1.000  -839.314   141.173   127.154   123.744   115.599   117.167   119.198   117.173   135.209   258.340   246.352   240.917   250.808   249.105   973.333
1456.7000     1.000  -835.938   140.497   126.856   123.725   115.854   117.081   119.055   117.096   135.251   257.578   245.911   240.821   251.106   248.854   973.333
1456.8000     0.000  -842.057   140.018   126.835   123.727   115.942   117.274   119.185   116.891   135.047   257.292   246.021   240.618   250.989   248.730   973.190
1456.9000     0.000  -831.086   140.327   127.188   124.102   115.968   117.705   119.518   116.665   135.378   258.032   246.706   240.767   251.347   249.213   973.000
1457.0000     0.000  -837.943   140.412   127.763   124.297   116.088   117.462   119.326   116.626   134.784   257.874   247.089   240.923   250.872   249.190   973.000
1457.1000     0.000  -840.369   139.964   128.736   124.382   116.568   116.982   118.258   115.459   133.275   256.946   246.994   239.841   249.843   248.406   973.000
1457.2000     0.000  -846.171   140.056   127.623   124.544   116.945   117.215   118.143   114.453   132.656   257.271   245.765   238.998   249.601   247.909   972.833
1457.3000     0.000  -851.657   139.433   127.496   124.570   116.481   117.324   118.610   114.952   132.812   256.757   246.106   239.522   249.293   247.919   972.905
1457.4000     0.000  -843.323   139.141   126.925   124.700   116.383   117.315   119.418   115.885   132.953   256.456   246.343   240.585   249.336   248.180   973.000
1457.5000     0.000  -840.686   139.000   127.097   124.818   116.142   117.231   118.403   114.957   132.883   256.231   245.501   239.776   249.025   247.633   973.190
1457.6000     0.000  -839.314   139.190   127.365   124.957   115.869   117.079   117.595   113.797   131.857   256.269   244.960   238.754   247.726   246.927   973.262
1457.7000     0.000  -831.508   139.290   127.306   124.739   115.744   117.050   118.015   114.092   131.779   256.340   245.322   238.831   247.524   247.004   973.333
1457.8000     0.000  -822.857   139.183   126.380   123.279   114.918   116.610   117.958   114.687   132.303   255.794   244.338   237.967   247.221   246.330   973.548
1457.9000     0.000  -814.629   139.273   125.641   122.422   114.454   116.490   118.405   115.551   133.354   255.764   244.045   237.973   247.807   246.397   973.595
1458.0000     0.000  -826.971   139.216   125.956   122.899   114.617   116.562   118.391   115.862   133.326   255.778   244.348   238.761   247.942   246.707   973.333
1458.1000     0.000  -843.429   139.487   126.483   123.407   115.120   116.956   118.363   115.511   133.649   256.443   244.846   238.918   248.768   247.244   973.333
1458.2000     0.000  -837.943   140.045   128.092   125.357   117.937   117.344   118.100   114.927   133.459   257.389   246.192   240.285   251.396   248.815   973.048
1458.3000     0.000  -837.943   141.243   129.206   126.249   116.151   117.275   118.216   115.622   135.176   258.518   247.422   241.870   251.327   249.784   973.000
1458.4000     0.000  -831.508   141.509   129.613   125.374   116.351   117.325   118.870   116.119   134.961   258.834   248.482   241.493   251.312   250.030   973.000
1458.5000     0.000  -847.543   142.578   130.219   125.458   116.121   117.540   119.019   116.979   135.346   260.118   249.237   242.437   251.467   250.815   973.167
1458.6000     0.000  -836.571   141.199   128.444   124.780   116.225   117.446   118.780   116.248   134.695   258.644   247.224   241.028   250.920   249.454   973.333
1458.7000     0.000  -839.314   141.395   128.226   124.884   116.243   117.432   118.585   116.152   134.404   258.826   246.811   241.035   250.647   249.330   973.333
1458.8000     0.000  -831.508   141.869   128.322   125.151   116.499   117.603   118.920   116.227   134.555   259.473   247.242   241.378   251.054   249.786   973.333
1458.9000     0.000  -839.314   142.377   128.866   125.363   116.660   117.650   118.971   116.178   134.652   260.027   247.837   241.541   251.312   250.179   973.333
1459.0000     0.000  -837.943   142.465   128.627   125.285   116.778   117.551   118.813   116.611   134.831   260.016   247.440   241.897   251.609   250.240   973.333
1459.1000     0.000  -833.829   143.123   128.851   125.212   116.779   117.611   118.780   117.619   135.247   260.733   247.631   242.830   252.026   250.805   973.333
1459.2000     0.000  -836.571   141.714   127.024   124.519   116.431   118.069   119.072   116.572   134.931   259.784   246.096   241.091   251.362   249.583   973.024
1459.3000     0.000  -852.185   143.125   127.202   122.744   114.068   118.089   121.147   123.185   137.666   261.214   248.349   245.930   251.733   251.806   973.154
