~Version Information
VERS.                     2.0 : CWLS Log ASCII Standart
WRAP.                     NO  : One line per depth step
~Well Information
STRT.M                       485.0000  : Start Depth
STOP.M                      1606.7000  : Stop Depth
STEP.M                         0.1000  : Step
NULL.                         -999.25  : Null Value
COMP.                                  : Company
WELL.                                  : Well
FLD .                                  : Field
LOC .                                  : Location
PROV.                                  : Province
SRVC.                                  : Service Company
DATE.      06/12/2011                  : Log Date
UWI .                                  : Unique Well ID
~Curve Information
DEPT.M                                 :
mapo_ds.                                  :
speed_ds.                                   :
R1_ds.¬¬                                  :
R2_ds.¬¬                                  :
R3_ds.¬¬                                  :
R4_ds.¬¬                                  :
R5_ds.¬¬                                  :
R6_ds.¬¬                                  :
R7_ds.¬¬                                  :
R8_ds.¬¬                                  :
PR1_ds.¬¬                                  :
PR2_ds.¬¬                                  :
PR3_ds.¬¬                                  :
PR4_ds.¬¬                                  :
DS_ds.¬¬                                 :
tense_ds.                                 :
~ASCII Log Data
# ...
561.8000     0.000 -1250.133   149.730   145.107   137.975   122.199   120.358   113.053   106.221   129.957   270.088   258.160   244.196   252.156   256.150   458.333
561.9000     0.000 -1254.400   150.806   145.921   137.895   122.232   120.304   113.239   106.842   130.733   271.111   259.161   244.736   252.965   256.993   458.667
562.0000     0.000 -1243.733   151.511   146.491   137.723   122.237   120.170   113.409   107.545   131.320   271.680   259.899   245.268   253.557   257.601   458.704
562.1000     0.000 -1259.520   150.356   143.850   136.858   122.103   120.126   113.433   107.900   131.273   270.483   257.283   244.757   253.377   256.475   459.167
562.2000     0.000 -1254.400   151.875   146.629   136.962   122.106   120.111   113.656   108.857   131.484   271.986   260.286   245.819   253.590   257.920   459.926
562.3000     0.000 -1254.400   152.362   146.325   137.183   122.105   120.035   113.789   109.605   132.182   272.397   260.114   246.788   254.287   258.396   460.407
562.4000     0.000 -1241.600   143.833   137.921   135.322   122.125   120.100   113.888   109.603   129.738   263.932   251.809   244.925   251.863   253.132   461.222
562.5000     0.000 -1241.600   143.138   136.412   135.133   121.919   120.118   114.202   109.901   129.567   263.256   250.614   245.034   251.486   252.598   463.111
562.6000     0.000 -1259.520   142.397   136.041   135.094   121.868   120.089   114.533   110.081   129.515   262.486   250.574   245.175   251.383   252.404   467.500
562.7000     0.000 -1230.933   141.393   135.960   135.034   121.868   120.075   114.721   110.321   128.991   261.468   250.681   245.355   250.859   252.091   469.333
562.8000     0.000 -1235.200   140.488   135.927   134.856   121.863   120.085   114.891   109.995   128.468   260.573   250.818   244.851   250.331   251.643   469.667
562.9000     0.000 -1260.800   139.916   135.920   134.739   121.877   120.082   114.928   109.386   127.514   259.997   250.848   244.126   249.392   251.091   469.667
563.0000     0.000 -1255.680   139.784   135.861   134.736   121.876   120.092   115.044   109.010   126.799   259.877   250.905   243.746   248.675   250.801   469.333
563.1000     0.000 -1260.800   139.775   135.836   134.704   121.858   120.169   114.960   108.389   126.246   259.944   250.796   243.093   248.104   250.484   469.444
563.2000     0.000 -1241.600   139.654   135.857   134.679   121.874   120.195   114.822   107.745   125.571   259.849   250.679   242.424   247.445   250.099   469.333
563.3000     0.000 -1248.000   139.723   135.844   134.689   121.885   120.230   114.965   107.605   125.407   259.952   250.809   242.294   247.291   250.087   469.185
563.4000     0.000 -1262.933   139.682   135.873   134.660   121.915   120.244   115.069   107.950   125.528   259.925   250.942   242.611   247.443   250.230   469.222
563.5000     0.000 -1258.667   139.850   135.922   134.682   121.949   120.239   114.999   107.981   125.606   260.089   250.922   242.663   247.555   250.307   469.333
563.6000     0.000 -1255.680   139.968   135.971   134.705   121.932   120.320   114.970   107.994   125.376   260.288   250.942   242.699   247.308   250.309   469.100
563.7000     0.000 -1254.400   140.091   136.055   134.723   121.920   120.404   114.569   107.237   125.602   260.495   250.624   241.960   247.522   250.150   468.370
563.8000     0.000 -1260.800   140.281   136.100   134.759   122.108   120.326   114.386   107.263   125.972   260.607   250.487   242.022   248.080   250.299   467.593
563.9000     0.000 -1260.800   140.447   136.065   134.812   122.251   120.332   114.020   107.179   126.629   260.779   250.085   241.991   248.881   250.434   464.926
564.0000     0.000 -1260.800   140.546   136.112   134.838   122.251   120.335   113.758   106.988   126.831   260.880   249.869   241.825   249.082   250.414   466.667
564.1000     0.000 -1262.933   140.697   136.016   134.925   122.268   120.328   113.689   107.040   126.922   261.025   249.706   241.965   249.191   250.472   465.926
564.2000     0.000 -1259.520   140.519   136.022   135.040   122.268   120.257   113.613   107.096   127.165   260.777   249.636   242.136   249.433   250.495   464.633
564.3000     0.000 -1260.800   140.423   136.132   135.178   122.251   120.194   113.487   106.756   126.993   260.617   249.619   241.934   249.244   250.354   462.556
564.4000     0.000 -1241.600   140.414   136.256   135.308   122.232   120.124   113.450   106.528   127.095   260.538   249.706   241.836   249.327   250.352   459.667
564.5000     0.000 -1235.200   140.670   136.410   135.509   122.369   120.094   113.397   106.436   127.022   260.764   249.807   241.945   249.391   250.477   459.815
564.6000     0.000 -1254.400   141.089   137.052   135.731   122.148   120.074   113.362   106.738   126.978   261.163   250.414   242.468   249.126   250.793   461.444
564.7000     0.000 -1242.240   140.957   136.926   135.685   121.954   120.047   113.192   106.563   126.773   261.004   250.118   242.248   248.727   250.524   465.267
564.8000     0.000 -1218.133   140.914   136.942   135.399   121.902   120.084   113.285   106.686   126.703   260.998   250.228   242.085   248.605   250.479   467.667
564.9000     0.000 -1241.600   140.106   136.297   135.289   121.649   120.184   113.239   106.552   126.703   260.291   249.536   241.841   248.352   250.005   468.481
565.0000     0.000 -1259.520   140.058   136.399   135.666   122.162   120.419   113.536   106.681   126.731   260.477   249.935   242.347   248.892   250.413   468.700
565.1000     0.000 -1250.133   140.655   137.878   138.059   124.936   122.513   115.400   107.799   127.191   263.168   253.278   245.858   252.127   253.608   469.000
565.2000     0.000 -1241.600   146.078   138.653   136.774   124.008   122.282   115.282   108.788   129.868   268.360   253.934   245.562   253.876   255.433   469.519
565.3000     0.000 -1258.667   141.863   136.302   134.644   121.274   118.740   112.670   105.778   126.833   260.604   248.972   240.422   248.107   249.526   469.926
565.4000     0.000 -1256.533   140.326   136.350   134.585   120.574   118.671   112.780   105.602   125.420   258.997   249.131   240.187   245.994   248.577   469.926
565.5000     0.000 -1241.600   140.354   136.368   135.175   121.281   118.661   112.875   105.706   125.704   259.015   249.243   240.881   246.986   249.031   469.778
565.6000     0.000 -1238.400   140.128   135.945   134.145   120.605   118.649   112.872   105.431   125.428   258.777   248.817   239.577   246.032   248.301   469.600
565.7000     0.000 -1241.600   140.290   135.945   134.016   120.354   118.697   112.892   105.351   125.474   258.986   248.837   239.366   245.828   248.254   469.333
565.8000     0.000 -1260.800   140.304   136.072   134.045   120.370   118.710   112.880   105.457   125.789   259.014   248.952   239.502   246.159   248.407   469.185
565.9000     0.000 -1265.280   140.652   136.332   134.332   120.364   118.696   112.800   105.654   125.740   259.348   249.132   239.985   246.104   248.642   468.100
566.0000     0.000 -1254.400   140.965   136.691   134.460   120.358   118.710   112.853   105.372   125.699   259.675   249.544   239.832   246.057   248.777   468.444
566.1000     0.000 -1237.333   141.202   136.757   134.331   120.363   118.728   112.833   105.403   125.987   259.931   249.590   239.734   246.349   248.901   469.037
566.2000     0.000 -1248.000   141.383   136.821   134.476   120.403   118.868   112.892   105.762   126.032   260.251   249.712   240.238   246.435   249.159   469.185
566.3000     0.000 -1256.533   141.325   136.892   134.507   120.566   118.942   112.941   105.850   126.345   260.267   249.833   240.358   246.912   249.342   469.111
566.4000     0.000 -1259.520   141.477   136.671   134.505   120.561   119.043   112.865   106.255   126.790   260.520   249.536   240.760   247.351   249.542   468.800
566.5000     0.000 -1254.400   141.189   137.024   134.584   120.953   118.959   112.889   106.189   126.434   260.148   249.914   240.773   247.386   249.555   468.852
