~Version Information
VERS.                     2.0 : CWLS Log ASCII Standart
WRAP.                     NO  : One line per depth step
~Well Information
STRT.M                      1422.8000  : Start Depth
STOP.M                      1601.3000  : Stop Depth
STEP.M                         0.1000  : Step
NULL.                         -999.25  : Null Value
COMP.                                  : Company
WELL.                                  : Well
FLD .                                  : Field
LOC .                                  : Location
PROV.                                  : Province
SRVC.                                  : Service Company
DATE.      06/12/2011                  : Log Date
UWI .                                  : Unique Well ID
~Curve Information
DEPT.M                                 :
mapo_ek.                                  :
speed_ek.                                   :
IK_ek.¬‘¬/¬                            :
BK_ek.Ž¬¬                              :
A4M05N_ek.O¬¬                  :
A8M1N_ek.Ž¬¬                  :
A04M01N_ek.Ž¬¬                  :
A1M01N_ek.Ž¬¬                  :
A2M05N_ek.Ž¬¬                  :
REZ_ek.Ž¬¬                   :
tense_ek.                                 :
_GK_ek.¨¬¯/c                               :
PS_ek.                                 :
~ASCII Log Data
# ...
1596.8000  -999.250  -999.250    74.212   185.224    47.516   100.357     0.915     4.891    18.785     0.051  1075.818     4.716 -1448.190
1596.9000  -999.250  -999.250    77.843   185.607    47.508   100.351     0.917     4.874    18.770     0.051  1088.857     5.873 -1448.612
1597.0000  -999.250  -999.250    80.640   185.754    47.509   100.334     0.914     4.881    18.768     0.051  1087.889     8.263 -1448.886
1597.1000  -999.250  -999.250    82.750   185.761    47.519   100.335     0.915     4.871    18.766     0.051  1082.815     8.428 -1449.121
1597.2000  -999.250  -999.250    83.720   185.761    47.511   100.335     0.913     4.893    18.778     0.051  1088.875     6.484 -1449.329
1597.3000  -999.250  -999.250    83.744   185.771    47.522   100.335     0.916     4.880    18.776     0.051  1089.333     5.416 -1449.393
1597.4000  -999.250  -999.250    85.556   185.789    47.527   100.324     0.911     4.880    18.766     0.051  1089.048     5.419 -1449.302
1597.5000  -999.250  -999.250    88.918   185.778    47.519   100.318     0.909     4.891    18.766     0.051  1088.741     5.954 -1449.016
1597.6000  -999.250  -999.250    91.287   185.775    47.519   100.340     0.915     4.888    18.757     0.051  1086.815     8.446 -1448.716
1597.7000  -999.250  -999.250    93.535   185.772    47.517   100.334     0.915     4.891    18.771     0.051  1083.042    10.209 -1448.518
1597.8000  -999.250  -999.250    92.605   185.790    47.516   100.329     0.915     4.875    18.756     0.051  1088.741     9.190 -1448.391
1597.9000  -999.250  -999.250    84.774   185.795    47.500   100.346     0.914     4.874    18.767     0.051  1087.571     6.497 -1448.312
1598.0000  -999.250  -999.250    69.682   185.787    47.514   100.357     0.918     4.874    18.775     0.051  1080.000     4.344 -1448.366
1598.1000  -999.250  -999.250    48.418   185.768    47.517   100.338     0.915     4.875    18.764     0.051  1060.000     5.609 -1448.405
1598.2000  -999.250  -999.250    44.408   185.769    47.512   100.329     0.915     4.892    18.767     0.051  1068.074     8.227 -1448.527
1598.3000  -999.250  -999.250    42.303   185.775    47.512   100.340     0.916     4.891    18.770     0.051  1088.167     6.741 -1448.729
1598.4000  -999.250  -999.250    41.280   185.749    47.503   100.345     0.916     4.891    18.781     0.051  1085.889     4.261 -1448.948
1598.5000  -999.250  -999.250    40.757   185.754    47.503   100.338     0.916     4.869    18.774     0.051  1074.958     5.002 -1449.021
1598.6000  -999.250  -999.250    40.626   185.738    47.498   100.329     0.918     4.897    18.771     0.051  1044.222     5.190 -1449.006
1598.7000  -999.250  -999.250    40.708   185.752    47.573   100.329     0.913     4.886    18.776     0.051  1012.630     3.486 -1448.937
1598.8000  -999.250  -999.250    40.596   185.734    47.572   100.329     0.916     4.880    18.777     0.051  1010.000     2.130 -1449.137
1598.9000  -999.250  -999.250    40.559   185.707    47.594   100.324     0.912     4.896    18.778     0.051  1009.741     4.150 -1449.364
1599.0000  -999.250  -999.250    40.618   185.747    47.496   100.329     0.911     4.885    18.761     0.051  1009.667     5.085 -1449.575
1599.1000  -999.250  -999.250    40.574   185.738    47.509   100.324     0.916     4.879    18.768     0.051  1010.000     3.373 -1449.638
1599.2000  -999.250  -999.250    40.596   185.785    47.512   100.329     0.912     4.885    18.769     0.051  1010.000     2.558 -1449.711
1599.3000  -999.250  -999.250    40.574   185.774    47.500   100.334     0.916     4.880    18.761     0.051  1009.852     2.734 -1449.775
1599.4000  -999.250  -999.250    40.618   185.799    47.506   100.329     0.911     4.874    18.775     0.051  1009.476     3.587 -1449.780
1599.5000  -999.250  -999.250    40.574   185.805    47.506   100.329     0.915     4.874    18.774     0.051  1007.633     3.873 -1450.854
1599.6000  -999.250  -999.250    40.574   185.801    47.512   100.329     0.911     4.885    18.774     0.051  1000.476     3.946 -1451.388
1599.7000  -999.250  -999.250    40.618   185.745    47.507   100.334     0.915     4.901    18.765     0.051   987.815     3.859 -1450.712
1599.8000  -999.250  -999.250    40.568   185.778    47.517   100.334     0.916     4.886    18.779     0.051   980.667     3.551 -1449.351
1599.9000  -999.250  -999.250    40.486   185.773    47.509   100.334     0.921     4.896    18.770     0.051   976.714     4.007 -1448.813
1600.0000  -999.250  -999.250    40.568   185.781    47.512   100.334     0.917     4.863    18.774     0.051   970.444     5.642 -1448.469
1600.1000  -999.250  -999.250    40.618   185.752    47.500   100.367     0.918     4.902    18.778     0.051   970.600     7.718 -1464.111
1600.2000  -999.250  -999.250    40.545   185.786    47.503   100.428     0.915     4.870    18.778     0.051   970.741     9.210 -1456.667
1600.3000  -999.250  -999.250    40.508   185.732    47.517   100.406     0.913     4.878    18.771     0.051   970.667     8.627 -1440.857
1600.4000  -999.250  -999.250    40.505   185.753    47.517   100.418     0.914     4.875    18.784     0.051   970.583     7.781 -1431.500
1600.5000  -999.250  -999.250    40.545   185.769    47.506   100.422     0.914     4.895    18.807     0.051   970.667     7.621 -1442.714
1600.6000  -999.250  -999.250    40.471   185.763    47.512   100.422     0.914     4.896    18.799     0.051   970.667     7.223 -1445.300
1600.7000  -999.250  -999.250    40.511   185.792    47.512   100.406     0.915     4.896    18.777     0.051   970.633     6.827 -1444.429
1600.8000  -999.250  -999.250    40.508   185.776    47.503   100.329     0.916     4.883    18.763     0.051   970.476     6.370 -1453.111
1600.9000  -999.250  -999.250    40.486   185.794    47.506   100.351     0.915     4.880    18.782     0.051   970.400     5.669 -1443.500
1601.0000  -999.250  -999.250    40.460   185.797    47.512   100.345     0.915     4.890    18.764     0.051   970.625     6.789 -1438.556
1601.1000  -999.250  -999.250    40.501   185.789    47.507   100.362     0.911     4.885    18.780     0.051   970.333    10.056 -1453.000
1601.2000  -999.250  -999.250    40.530   185.759    47.506   100.357     0.915     4.872    18.769     0.051   970.083    11.217 -1455.750
1601.3000  -999.250  -999.250    40.479   185.815    47.509   100.362     0.913     4.890    18.769     0.051   968.667     4.122 -1462.889
