~Version Information
VERS.                     2.0 : CWLS Log ASCII Standart
WRAP.                     NO  : One line per depth step
~Well Information
STRT.M                      1451.2000  : Start Depth
STOP.M                      1602.5000  : Stop Depth
STEP.M                         0.1000  : Step
NULL.                         -999.25  : Null Value
COMP.                                  : Company
WELL.                                  : Well
FLD .                                  : Field
LOC .                                  : Location
PROV.                                  : Province
SRVC.                                  : Service Company
DATE.      06/12/2011                  : Log Date
UWI .                                  : Unique Well ID
~Curve Information
DEPT.M                                 :
mapo_mek.                                  :
speed_mek.                                   :
MGZ_mek.Ž¬                                 :
MPZ_mek.Ž¬                                 :
BMK_mek.O¬                                 :
U_mek.‚                                    :
J_mek.A                                    :
tense_mek.                                 :
~ASCII Log Data
# ...
1469.0000     1.000  -813.952     0.048     0.201     0.681     0.192     0.004   907.333
1469.1000     0.000  -821.514     0.072     0.166     0.496     0.181     0.005   907.333
1469.2000     0.000  -825.542     0.050     0.181     0.706     0.195     0.004   907.385
1469.3000     0.000  -820.747     0.086     0.172     1.952     0.221     0.002   907.513
1469.4000     0.000  -834.621     0.077     0.281     3.826     0.278     0.001   907.513
1469.5000     0.000  -825.095     0.536     0.747    30.431     0.300     0.000   907.436
1469.6000     0.000  -831.680     1.865     1.558    41.861     0.357     0.000   907.333
1469.7000     0.000  -846.961     2.386     1.876    25.808     0.362     0.000   907.436
1469.8000     0.000  -828.606     2.097     1.415     8.439     0.363     0.001   907.417
1469.9000     0.000  -840.549     1.258     1.062    11.183     0.315     0.000   907.476
1470.0000     0.000  -831.654     0.813     0.760     1.595     0.279     0.003   907.528
1470.1000     0.000  -831.050     0.308     0.312     1.454     0.268     0.003   907.333
1470.2000     0.000  -829.091     0.275     0.456     8.383     0.272     0.000   907.333
1470.3000     0.000  -826.310     1.073     0.790     4.686     0.286     0.001   907.333
1470.4000     0.000  -839.225     0.412     0.570     2.146     0.242     0.002   907.333
1470.5000     0.000  -833.918     0.598     0.456     1.985     0.277     0.002   907.410
1470.6000     0.000  -847.409     0.447     0.658    44.714     0.323     0.000   907.333
1470.7000     0.000  -842.166     2.135     1.651    85.864     0.407     0.000   907.436
1470.8000     0.000  -832.511     2.090     1.831    62.188     0.410     0.000   907.385
1470.9000     0.000  -834.749     2.018     1.672    63.310     0.410     0.000   907.590
1471.0000     0.000  -822.090     2.510     1.763    22.593     0.410     0.000   907.410
1471.1000     0.000  -822.665     1.458     1.232    38.001     0.390     0.000   907.333
1471.2000     0.000  -813.842     1.767     0.883    13.047     0.371     0.000   907.333
1471.3000     0.000  -819.596     0.399     0.569    27.283     0.314     0.000   907.333
1471.4000     0.000  -828.420     0.980     0.742     4.742     0.291     0.001   907.333
1471.5000     0.000  -829.379     0.838     0.664     7.011     0.262     0.001   907.410
1471.6000     0.000  -822.857     0.729     0.698     8.385     0.270     0.000   907.487
1471.7000     0.000  -830.529     0.827     1.087     0.645     0.184     0.004   907.667
1471.8000     0.000  -833.187     0.657     0.327     0.211     0.165     0.012   907.667
1471.9000     0.000  -843.572     0.039     0.147     0.300     0.151     0.008   907.667
1472.0000     0.000  -820.987     0.046     0.126     0.465     0.157     0.005   907.667
1472.1000     0.000  -826.502     0.064     0.162     0.329     0.181     0.008   907.667
1472.2000     0.000  -829.954     0.034     0.158     0.528     0.195     0.006   907.513
1472.3000     0.000  -830.529     0.220     0.194     5.017     0.251     0.001   907.590
1472.4000     0.000  -830.913     0.124     0.448    14.691     0.313     0.000   907.667
1472.5000     0.000  -835.325     1.143     1.028    15.046     0.351     0.000   907.667
1472.6000     0.000  -841.782     1.794     1.345    20.189     0.358     0.000   907.615
1472.7000     0.000  -839.608     1.459     1.169     4.822     0.312     0.001   907.385
1472.8000     0.000  -829.187     1.015     0.653     2.240     0.316     0.002   907.513
1472.9000     0.000  -826.502     0.789     0.708    10.392     0.339     0.000   907.667
1473.0000     0.000  -828.420     1.410     1.220    12.375     0.371     0.000   907.667
1473.1000     0.000  -833.023     1.611     1.432    18.867     0.374     0.000   907.564
1473.2000     0.000  -830.529     1.498     1.542    25.921     0.382     0.000   907.333
1473.3000     0.000  -822.857     2.086     1.600    27.928     0.385     0.000   907.639
1473.4000     0.000  -830.529     2.090     1.562    11.844     0.383     0.000   907.949
1473.5000     0.000  -830.160     1.615     1.409     8.382     0.379     0.001   908.238
1473.6000     0.000  -830.913     2.139     1.371     7.617     0.382     0.001   909.308
1473.7000     0.000  -826.310     1.452     1.264     9.130     0.385     0.001   913.154
1473.8000     0.000  -810.198     1.190     1.299    27.798     0.392     0.000   919.564
1473.9000     0.000  -799.904     1.835     1.638    74.898     0.395     0.000   923.718
1474.0000     0.000  -796.972     2.396     1.994    79.600     0.394     0.000   923.810
1474.1000     0.000  -797.027     3.149     1.796    64.946     0.394     0.000   921.462
1474.2000     0.000  -817.455     2.248     1.837    34.496     0.387     0.000   914.000
1474.3000     0.000  -831.169     2.172     1.527     9.097     0.384     0.001   908.861
1474.4000     0.000  -840.567     1.662     1.113     7.287     0.378     0.001   911.333
1474.5000     0.000  -819.660     0.837     1.075    17.472     0.378     0.000   917.538
1474.6000     0.000  -816.505     1.171     1.322    37.114     0.389     0.000   898.429
1474.7000     0.000  -814.609     2.013     1.629    25.132     0.390     0.000   880.154
1474.8000     0.000  -833.365     2.076     1.227     8.475     0.384     0.001   891.429
1474.9000     0.000  -827.844     1.105     1.095     8.230     0.380     0.001   932.889
1475.0000     0.000  -832.192     0.966     1.181    20.439     0.386     0.000   968.974
1475.1000     0.000  -771.900     1.497     1.322    39.002     0.391     0.000   975.154
1475.2000     0.000  -750.189     1.862     1.575    22.425     0.388     0.000   936.119
1475.3000     0.000  -785.692     1.685     1.346     9.809     0.389     0.001   924.667
1475.4000     0.000  -795.072     1.479     1.288    12.223     0.385     0.000   924.738
1475.5000     0.000  -791.784     1.452     1.267    11.521     0.374     0.000   924.667
1475.6000     0.000  -794.874     1.119     1.130     6.241     0.307     0.001   924.778
1475.7000     0.000  -799.968     1.255     0.637     1.173     0.301     0.004   925.000
1475.8000     0.000  -787.053     0.078     0.270     1.612     0.284     0.003   925.000
1475.9000     0.000  -801.603     0.376     0.549    12.975     0.335     0.000   925.000
1476.0000     0.000  -797.981     1.281     1.130    10.081     0.378     0.001   925.000
1476.1000     0.000  -788.907     1.435     1.175     6.397     0.375     0.001   925.077
1476.2000     0.000  -784.564     1.314     1.213     5.905     0.374     0.001   925.000
1476.3000     0.000  -787.236     1.382     1.277     6.753     0.381     0.001   925.000
1476.4000     0.000  -783.984     1.648     1.295     6.780     0.380     0.001   925.000
1476.5000     0.000  -785.395     1.295     1.159     7.931     0.380     0.001   924.929
1476.6000     0.000  -796.616     1.211     1.190     5.848     0.293     0.001   925.000
1476.7000     0.000  -796.835     1.424     0.579     0.678     0.257     0.006   924.974
1476.8000     0.000  -798.753     0.113     0.305     0.958     0.248     0.004   924.786
1476.9000     0.000  -788.971     0.101     0.234     3.705     0.257     0.001   925.000
1477.0000     0.000  -789.551     0.280     0.573     6.233     0.358     0.001   925.024
1477.1000     0.000  -788.971     0.972     1.074     7.721     0.398     0.001   925.128
1477.2000     0.000  -786.064     0.700     0.742     0.955     0.228     0.004   924.978
1477.3000     0.000  -775.992     0.163     0.179     0.315     0.174     0.008   924.641
1477.4000     0.000  -785.336     0.038     0.152     0.318     0.165     0.008   923.381
1477.5000     0.000  -815.555     0.035     0.146     0.328     0.163     0.007   918.833
1477.6000     0.000  -822.665     0.034     0.145     0.425     0.171     0.006   909.205
1477.7000     0.000  -821.131     0.035     0.171     1.076     0.201     0.003   907.333
1477.8000     0.000  -821.131     0.100     0.337     3.603     0.284     0.001   907.333
