~Version Information
VERS.                     2.0 : CWLS Log ASCII Standart
WRAP.                     NO  : One line per depth step
~Well Information
STRT.M                      1422.8000  : Start Depth
STOP.M                      1601.3000  : Stop Depth
STEP.M                         0.1000  : Step
NULL.                         -999.25  : Null Value
COMP.                                  : Company
WELL.                                  : Well
FLD .                                  : Field
LOC .                                  : Location
PROV.                                  : Province
SRVC.                                  : Service Company
DATE.      06/12/2011                  : Log Date
UWI .                                  : Unique Well ID
~Curve Information
DEPT.M                                 :
mapo_ek.                                  :
speed_ek.                                   :
IK_ek.¬‘¬/¬                            :
BK_ek.Ž¬¬                              :
A4M05N_ek.O¬¬                  :
A8M1N_ek.Ž¬¬                  :
A04M01N_ek.Ž¬¬                  :
A1M01N_ek.Ž¬¬                  :
A2M05N_ek.Ž¬¬                  :
REZ_ek.Ž¬¬                   :
tense_ek.                                 :
_GK_ek.¨¬¯/c                               :
PS_ek.                                 :
~ASCII Log Data
# ...
1498.2000     0.000  -820.043   181.319    18.722    18.079    28.149     1.126     5.008    13.100     0.038  1009.000    46.962 -1422.606
1498.3000     0.000  -820.977   179.743    17.677    18.516    28.550     1.171     5.280    13.630     0.039  1009.000    46.480 -1421.602
1498.4000     0.000  -821.103   179.495    16.467    18.719    29.163     1.125     5.075    14.038     0.039  1009.000    46.978 -1420.674
1498.5000     0.000  -815.551   175.454    19.091    18.801    29.446     1.142     5.195    14.289     0.038  1009.000    61.000 -1419.901
1498.6000     0.000  -813.260   166.844    19.361    18.778    29.434     1.183     5.392    14.444     0.038  1009.278    78.996 -1419.285
1498.7000     0.000  -817.660   164.970    18.164    18.828    29.626     1.137     5.181    14.727     0.039  1009.333    78.665 -1418.604
1498.8000     0.000  -829.710   159.043    18.973    18.842    29.547     1.167     5.313    14.858     0.039  1009.333    64.958 -1417.879
1498.9000     1.000  -831.055   153.301    18.717    18.582    29.395     1.160     5.313    14.853     0.039  1009.095    51.821 -1417.152
1499.0000     0.000  -829.211   148.206    17.320    18.733    29.185     1.117     5.055    15.148     0.039  1009.133    39.293 -1416.651
1499.1000     0.000  -828.176   139.140    18.538    18.649    29.018     1.089     4.936    15.237     0.039  1009.048    31.607 -1416.373
1499.2000     0.000  -825.029   139.037    21.680    18.253    29.026     1.178     5.405    15.084     0.039  1009.000    30.814 -1416.074
1499.3000     0.000  -811.692   147.807    22.432    17.927    29.119     1.130     5.145    15.112     0.039  1009.000    31.673 -1415.654
1499.4000     0.000  -813.227   154.316    21.175    17.760    29.169     1.041     4.777    15.342     0.039  1009.000    30.348 -1415.289
1499.5000     0.000  -811.440   158.086    20.629    17.537    29.228     1.040     4.777    15.350     0.039  1009.167    26.647 -1415.083
1499.6000     0.000  -828.074   162.071    20.509    18.126    29.377     1.092     5.067    15.674     0.039  1009.143    20.925 -1415.100
1499.7000     0.000  -825.485   164.482    21.120    19.056    29.218     1.118     5.167    16.239     0.039  1009.333    16.057 -1415.181
1499.8000     0.000  -818.222   168.850    23.105    19.802    29.006     1.188     5.542    16.583     0.039  1009.333    18.643 -1415.133
1499.9000     0.000  -816.578   174.404    22.806    20.639    28.986     1.188     5.577    16.885     0.039  1009.333    27.041 -1415.137
1500.0000     0.000  -823.313   175.598    21.772    21.296    29.244     1.126     5.299    17.183     0.039  1009.333    29.043 -1415.345
1500.1000     0.000  -828.761   167.095    24.426    21.487    29.375     1.143     5.458    17.050     0.039  1009.333    27.304 -1415.636
1500.2000     0.000  -822.349   159.867    26.503    21.601    29.275     1.151     5.412    16.773     0.039  1009.417    26.179 -1415.998
1500.3000     0.000  -822.361   158.440    24.281    22.249    28.980     1.087     5.102    16.865     0.040  1009.381    21.743 -1416.419
1500.4000     0.000  -822.146   157.238    23.575    22.593    28.528     1.060     5.014    16.910     0.039  1009.333    16.265 -1416.792
1500.5000     0.000  -817.903   162.832    26.638    22.778    28.288     1.113     5.268    16.809     0.039  1009.333    12.352 -1417.163
1500.6000     0.000  -816.255   173.307    30.303    23.181    28.133     1.123     5.366    16.885     0.039  1009.333    13.989 -1417.565
1500.7000     0.000  -823.239   178.350    32.600    23.438    28.048     1.077     5.095    16.917     0.039  1009.333    16.419 -1418.060
1500.8000     0.000  -826.155   179.106    35.405    23.651    28.187     1.056     4.994    16.784     0.040  1009.333    16.683 -1418.525
1500.9000     0.000  -836.356   176.947    37.385    24.206    28.425     1.027     4.854    16.859     0.040  1009.333    16.238 -1419.030
1501.0000     0.000  -831.765   167.685    40.572    25.165    28.429     1.028     4.869    17.188     0.039  1009.333    13.851 -1419.365
1501.1000     0.000  -836.959   160.841    44.527    26.475    28.396     1.123     5.351    17.715     0.039  1009.600    11.410 -1419.716
1501.2000     0.000  -829.725   171.223    44.695    28.106    28.638     1.164     5.563    18.555     0.039  1009.667     9.580 -1420.070
1501.3000     0.000  -827.021   181.062    41.103    29.729    29.146     1.208     5.739    19.398     0.039  1009.571    12.424 -1420.368
1501.4000     0.000  -825.675   185.872    33.874    31.243    29.573     1.245     5.980    20.033     0.039  1009.524    16.751 -1420.222
1501.5000     0.000  -822.056   186.581    27.059    32.811    29.838     1.246     6.013    20.757     0.039  1009.278    15.972 -1420.071
1501.6000     0.000  -823.449   175.387    22.912    34.550    29.919     1.266     6.172    21.651     0.039  1009.333    15.465 -1419.803
1501.7000     0.000  -823.761   166.386    22.726    35.698    29.940     1.316     6.416    22.172     0.038  1009.333    17.954 -1419.587
1501.8000     0.000  -819.931   168.216    26.885    36.616    30.079     1.408     6.940    22.521     0.038  1009.333    20.011 -1419.440
1501.9000     0.000  -823.455   174.513    30.666    37.454    30.597     1.376     6.813    22.800     0.038  1009.238    21.340 -1419.153
1502.0000     0.000  -818.415   179.413    31.565    38.004    31.642     1.334     6.565    22.908     0.038  1009.278    21.512 -1418.811
1502.1000     0.000  -823.697   176.174    31.159    37.943    32.599     1.318     6.457    22.679     0.038  1009.333    18.508 -1418.824
1502.2000     0.000  -820.649   166.460    29.789    38.093    33.482     1.307     6.364    22.532     0.038  1009.429    16.192 -1418.849
1502.3000     0.000  -818.659   155.841    28.631    38.565    34.024     1.323     6.396    22.581     0.038  1009.333    14.057 -1418.903
1502.4000     0.000  -823.583   149.204    27.642    39.177    34.187     1.343     6.477    22.683     0.039  1009.333    10.338 -1418.942
1502.5000     0.000  -820.689   150.044    26.446    39.861    34.418     1.346     6.516    22.782     0.039  1009.467     8.465 -1418.850
1502.6000     0.000  -817.202   152.489    24.499    40.536    34.806     1.340     6.450    22.863     0.039  1009.583     9.442 -1418.875
1502.7000     0.000  -814.807   154.381    22.046    40.997    35.426     1.340     6.449    22.901     0.039  1009.667    13.094 -1418.915
1502.8000     0.000  -828.127   154.735    19.681    41.528    35.988     1.344     6.483    22.921     0.039  1009.476    13.043 -1418.890
1502.9000     0.000  -828.534   154.936    17.583    42.394    36.415     1.344     6.483    23.092     0.039  1009.400    11.324 -1418.708
1503.0000     0.000  -828.281   156.972    16.547    43.552    37.413     1.353     6.572    23.392     0.039  1009.556    12.185 -1418.388
1503.1000     0.000  -829.286   160.752    16.032    44.722    38.460     1.385     6.728    23.765     0.038  1009.333    11.812 -1418.086
1503.2000     1.000  -827.830   165.763    15.141    46.138    39.403     1.430     6.952    24.004     0.038  1009.333    10.386 -1417.686
1503.3000     1.000  -827.449   171.587    13.643    48.320    40.011     1.418     6.984    24.823     0.039  1009.333     9.103 -1417.393
1503.4000     0.000  -823.155   175.042    13.332    49.591    40.482     1.438     7.030    25.356     0.038  1009.381    10.905 -1417.103
1503.5000     0.000  -818.335   176.814    13.183    50.380    40.716     1.582     7.824    25.671     0.038  1009.667    18.023 -1416.588
1503.6000     0.000  -824.317   180.354    11.698    50.354    40.680     1.501     7.354    25.417     0.038  1009.667    24.671 -1416.090
1503.7000     0.000  -824.233   182.241    10.127    49.858    40.564     1.447     7.057    25.034     0.039  1009.667    25.300 -1415.624
1503.8000     0.000  -829.016   181.444     8.799    48.502    41.367     1.339     6.501    24.165     0.039  1009.667    25.633 -1415.043
1503.9000     0.000  -832.049   180.842     8.446    47.772    42.345     1.319     6.369    23.594     0.038  1009.667    25.252 -1414.563
