~Version Information
VERS.                     2.0 : CWLS Log ASCII Standart
WRAP.                     NO  : One line per depth step
~Well Information
STRT.M                      1422.8000  : Start Depth
STOP.M                      1601.3000  : Stop Depth
STEP.M                         0.1000  : Step
NULL.                         -999.25  : Null Value
COMP.                                  : Company
WELL.                                  : Well
FLD .                                  : Field
LOC .                                  : Location
PROV.                                  : Province
SRVC.                                  : Service Company
DATE.      06/12/2011                  : Log Date
UWI .                                  : Unique Well ID
~Curve Information
DEPT.M                                 :
mapo_ek.                                  :
speed_ek.                                   :
IK_ek.¬‘¬/¬                            :
BK_ek.Ž¬¬                              :
A4M05N_ek.O¬¬                  :
A8M1N_ek.Ž¬¬                  :
A04M01N_ek.Ž¬¬                  :
A1M01N_ek.Ž¬¬                  :
A2M05N_ek.Ž¬¬                  :
REZ_ek.Ž¬¬                   :
tense_ek.                                 :
_GK_ek.¨¬¯/c                               :
PS_ek.                                 :
~ASCII Log Data
# ...
1446.0000     0.000  -841.498    82.431   438.374    66.430   111.986     1.559     8.045    31.378     0.065   969.444    20.613 -1398.722
1446.1000     0.000  -838.034    80.931   367.523    67.376   113.148     1.560     8.065    31.515     0.065   969.476    16.703 -1398.986
1446.2000     0.000  -848.950    77.738   357.062    68.312   114.393     1.576     8.151    31.650     0.065   969.667    12.856 -1399.223
1446.3000     0.000  -837.943    74.967   329.963    69.445   115.626     1.590     8.234    31.867     0.065   969.667    14.995 -1399.510
1446.4000     0.000  -843.790    74.568   274.414    70.711   116.932     1.604     8.322    32.140     0.065   969.667    15.603 -1399.691
1446.5000     0.000  -835.518    76.718   297.110    71.805   118.410     1.624     8.449    32.443     0.065   969.667    10.407 -1399.933
1446.6000     0.000  -831.384    81.206   387.754    72.944   119.934     1.643     8.549    32.750     0.065   969.667     8.522 -1399.993
1446.7000     0.000  -837.564    85.765   403.198    74.237   121.590     1.654     8.622    33.068     0.065   969.667    10.836 -1400.047
1446.8000     0.000  -835.082    88.520   397.129    75.552   123.202     1.667     8.714    33.400     0.064   969.476    11.077 -1400.220
1446.9000     0.000  -845.549    90.200   362.210    76.810   124.997     1.689     8.814    33.731     0.064   969.333    10.747 -1400.183
1447.0000     0.000  -842.443    92.594   285.041    77.928   126.952     1.710     8.940    34.076     0.065   969.333    10.835 -1400.045
1447.1000     0.000  -849.379    96.012   210.300    79.005   128.913     1.727     9.029    34.402     0.065   969.389    10.330 -1399.988
1447.2000     0.000  -842.754   100.798   171.190    80.113   130.732     1.740     9.085    34.745     0.065   969.333     9.398 -1399.912
1447.3000     0.000  -835.374   105.098   164.313    81.175   132.952     1.752     9.158    35.123     0.064   969.444    12.146 -1400.085
1447.4000     0.000  -828.268   107.483   177.385    82.131   135.511     1.759     9.205    35.441     0.064   969.667    17.287 -1400.422
1447.5000     0.000  -824.030   108.053   176.868    83.025   137.599     1.777     9.291    35.719     0.065   969.667    19.276 -1400.758
1447.6000     1.000  -830.699   109.002   141.963    83.953   139.476     1.786     9.344    36.017     0.065   969.333    17.595 -1401.304
1447.7000     1.000  -831.984   111.468   124.333    84.774   141.518     1.794     9.384    36.280     0.065   969.524    12.799 -1402.038
1447.8000     1.000  -835.271   114.818    97.652    85.310   143.479     1.805     9.449    36.431     0.065   969.667    13.393 -1402.834
1447.9000     1.000  -836.090   117.871    71.961    85.591   145.726     1.806     9.470    36.494     0.065   969.333    16.514 -1403.597
1448.0000     1.000  -840.668   118.440    64.866    85.855   147.424     1.807     9.457    36.541     0.065   969.467    15.523 -1404.233
1448.1000     1.000  -845.119   117.339    67.620    85.937   149.357     1.785     9.376    36.554     0.064   969.583    13.483 -1404.500
1448.2000     1.000  -844.717   117.553    86.125    86.410   152.266     1.787     9.369    36.673     0.065   969.667     9.846 -1404.693
1448.3000     1.000  -841.038   119.734   136.956    86.413   154.288     1.783     9.369    36.622     0.065   969.524     8.316 -1404.732
1448.4000     1.000  -834.641   122.616   157.475    86.599   149.377     1.817     9.537    36.620     0.065   969.333    10.516 -1404.562
1448.5000     0.000  -837.225   112.594   128.383    87.089   141.990     1.782     9.311    36.746     0.063   969.444    11.947 -1404.230
1448.6000     0.000  -835.464    65.226    79.111    87.088   136.567     1.774     9.327    36.382     0.063   969.333    11.875 -1403.922
1448.7000     0.000  -839.798    12.949    40.339    79.556   133.835     1.813     9.488    32.624     0.064   969.400    11.163 -1403.629
1448.8000     0.000  -837.813   -23.459    16.225    67.594   131.027     1.781     9.052    28.090     0.056   969.500    10.426 -1403.657
1448.9000     0.000  -846.069   -92.905     8.513    57.483   126.985     1.028     5.255    24.453     0.051   969.667    12.238 -1403.655
1449.0000     1.000  -840.482  -143.573     8.162    51.590   124.114     0.554     3.015    21.947     0.051   969.381    16.440 -1403.594
1449.1000     0.000  -844.307  -132.137    11.890    46.312   121.005     0.765     3.885    19.954     0.055   969.667    21.367 -1403.658
1449.2000     0.000  -843.200    38.032    20.095    46.393   117.462     1.204     6.023    20.915     0.065   969.667    25.716 -1403.878
1449.3000     0.000  -849.458   256.461    27.787    53.323   114.148     1.256     6.520    23.981     0.060   969.667    27.981 -1404.015
1449.4000     0.000  -848.159   443.098    33.317    58.532   119.430     1.154     6.163    25.888     0.060   969.667    27.618 -1404.106
1449.5000     0.000  -843.850   525.533    38.633    58.875   127.452     1.243     6.625    26.002     0.063   969.667    22.993 -1403.924
1449.6000     0.000  -837.071   435.863    41.988    58.438   133.163     1.226     6.534    25.906     0.063   969.667    17.599 -1403.674
1449.7000     0.000  -842.658   292.188    47.375    58.894   134.997     1.222     6.434    26.050     0.062   969.333    16.524 -1403.531
1449.8000     0.000  -838.130   200.000    61.415    58.205   136.276     1.215     6.361    25.804     0.064   969.524    18.003 -1403.182
1449.9000     0.000  -837.876   172.405    83.406    57.675   138.357     1.232     6.375    25.623     0.063   969.667    18.196 -1402.608
1450.0000     0.000  -834.136   152.928   101.437    57.390   139.294     1.227     6.267    25.547     0.063   969.444    15.425 -1402.026
1450.1000     0.000  -840.486   129.363   136.678    57.369   140.392     1.231     6.221    25.553     0.063   969.333    13.024 -1401.512
1450.2000     0.000  -845.959   115.610   205.363    57.431   141.707     1.263     6.294    25.593     0.063   969.389    11.801 -1401.133
1450.3000     0.000  -840.253   106.203   233.852    57.696   143.168     1.284     6.386    25.719     0.063   969.333    12.690 -1400.856
1450.4000     0.000  -838.430    99.911   200.721    58.015   144.574     1.309     6.473    25.848     0.064   969.333    14.068 -1400.552
1450.5000     0.000  -824.287    96.144   155.891    58.158   146.080     1.330     6.585    25.929     0.065   969.524    12.669 -1400.381
1450.6000     0.000  -828.684    94.412   126.785    58.195   147.558     1.341     6.633    25.977     0.065   969.571    13.192 -1400.277
1450.7000     0.000  -833.725    92.964   120.522    58.127   148.662     1.352     6.685    25.984     0.066   969.500    15.872 -1400.410
1450.8000     0.000  -836.910    90.820   110.530    57.898   149.493     1.362     6.738    25.929     0.064   969.333    17.043 -1400.627
1450.9000     0.000  -843.134    88.485    87.587    57.643   149.950     1.370     6.818    25.870     0.064   969.333    17.995 -1400.877
1451.0000     0.000  -842.411    86.265    76.669    57.463   150.083     1.377     6.844    25.826     0.063   969.333    14.629 -1401.162
1451.1000     0.000  -848.626    88.914    65.174    57.132   150.301     1.390     6.923    25.731     0.064   969.333     9.901 -1401.428
1451.2000     0.000  -844.673    95.072    50.835    56.585   150.398     1.400     6.982    25.406     0.063   969.381     9.715 -1401.752
1451.3000     0.000  -845.262   103.324    42.415    55.783   150.424     1.394     6.950    25.025     0.066   969.524    10.299 -1402.205
1451.4000     0.000  -846.954   110.421    39.766    55.253   150.368     1.366     6.836    24.813     0.063   969.667    11.168 -1402.547
1451.5000     0.000  -842.585   113.564    52.063    54.637   150.722     1.333     6.732    24.789     0.064   969.429    12.254 -1402.603
1451.6000     0.000  -842.445   113.652    81.109    54.290   150.971     1.375     6.923    24.824     0.066   969.667    13.889 -1402.689
1451.7000     0.000  -845.173   114.197    83.034    53.866   151.057     1.373     6.936    24.882     0.065   969.667    12.598 -1402.846
