~Version Information
VERS.                     2.0 : CWLS Log ASCII Standart
WRAP.                     NO  : One line per depth step
~Well Information
STRT.M                      1422.8000  : Start Depth
STOP.M                      1601.3000  : Stop Depth
STEP.M                         0.1000  : Step
NULL.                         -999.25  : Null Value
COMP.                                  : Company
WELL.                                  : Well
FLD .                                  : Field
LOC .                                  : Location
PROV.                                  : Province
SRVC.                                  : Service Company
DATE.      06/12/2011                  : Log Date
UWI .                                  : Unique Well ID
~Curve Information
DEPT.M                                 :
mapo_ek.                                  :
speed_ek.                                   :
IK_ek.¬‘¬/¬                            :
BK_ek.Ž¬¬                              :
A4M05N_ek.O¬¬                  :
A8M1N_ek.Ž¬¬                  :
A04M01N_ek.Ž¬¬                  :
A1M01N_ek.Ž¬¬                  :
A2M05N_ek.Ž¬¬                  :
REZ_ek.Ž¬¬                   :
tense_ek.                                 :
_GK_ek.¨¬¯/c                               :
PS_ek.                                 :
~ASCII Log Data
# ...
1475.0000     0.000  -841.517   135.164     7.692    26.359    35.842     1.282     5.594    17.198     0.065   980.667    82.180 -1419.167
1475.1000     0.000  -843.986   156.264    10.281    25.599    34.982     1.336     5.985    16.831     0.067   981.833    88.344 -1419.040
1475.2000     0.000  -846.056   206.247    10.002    26.150    34.055     1.346     6.033    17.385     0.066   979.333    87.322 -1419.051
1475.3000     0.000  -841.846   233.230     9.066    25.859    33.208     1.332     5.965    17.564     0.063   995.417    85.118 -1419.052
1475.4000     0.000  -835.413   255.568     8.998    25.496    32.812     1.307     5.867    17.524     0.062  1000.444    85.468 -1418.824
1475.5000     0.000  -827.320   254.412     9.411    25.303    32.248     1.307     5.846    17.445     0.062   995.619    90.883 -1418.474
1475.6000     0.000  -829.268   222.995     9.961    25.235    31.625     1.308     5.792    17.537     0.060   989.905    86.283 -1417.935
1475.7000     0.000  -833.953   216.467    11.083    24.533    31.025     1.326     5.826    16.857     0.058   971.867    77.089 -1417.346
1475.8000     0.000  -833.285   217.663     8.826    24.287    30.514     1.407     6.169    16.524     0.055   974.429    83.227 -1416.623
1475.9000     0.000  -843.473   209.248     6.561    24.383    30.169     1.111     4.766    16.346     0.053   974.000    93.363 -1415.701
1476.0000     0.000  -845.061   183.075     7.116    24.539    29.599     1.218     5.089    16.234     0.055   971.048    98.530 -1414.682
1476.1000     0.000  -836.172   175.360     9.320    24.470    27.987     1.288     5.515    15.923     0.055   972.889   107.197 -1413.695
1476.2000     0.000  -832.934   206.909    10.945    25.409    26.329     1.328     5.634    16.485     0.054   979.048   111.762 -1412.786
1476.3000     0.000  -828.817   222.109    10.713    26.390    24.553     1.360     5.754    16.802     0.054   996.381   101.002 -1412.145
1476.4000     0.000  -831.514   235.135     8.911    24.679    24.052     1.413     6.009    15.467     0.052  1009.000    84.243 -1411.464
1476.5000     0.000  -825.776   212.799     5.223    22.488    23.388     1.304     5.792    13.929     0.050  1008.571    75.727 -1410.878
1476.6000     0.000  -821.379   119.801     3.959    20.228    22.476     0.674     2.965    12.429     0.050  1006.722    83.930 -1410.452
1476.7000     0.000  -825.195    35.044     4.107    18.594    21.406     0.680     2.855    11.347     0.050  1001.095    94.525 -1410.109
1476.8000     0.000  -831.539    58.982     4.541    17.201    20.228     0.810     3.323    10.638     0.050  1003.000    94.358 -1409.986
1476.9000     0.000  -830.887   183.163     5.050    18.650    19.189     1.094     4.489    11.486     0.049   996.111    85.599 -1409.934
1477.0000     0.000  -831.516   333.038     5.040    20.163    18.226     1.172     4.826    12.285     0.049   977.524    91.705 -1409.653
1477.1000     0.000  -832.054   484.612     4.741    21.361    18.676     1.116     4.707    12.814     0.048   974.889   105.103 -1409.371
1477.2000     0.000  -843.986   542.616     4.737    21.352    19.327     1.009     4.320    12.644     0.047   983.667   103.398 -1409.006
1477.3000     0.000  -847.262   497.118     5.073    20.721    19.649     1.000     4.342    12.267     0.046  1004.778    98.321 -1408.669
1477.4000     0.000  -845.426   432.461     4.738    20.078    19.429     1.021     4.369    11.831     0.045  1008.143    90.982 -1408.417
1477.5000     0.000  -843.307   380.399     4.234    19.644    19.016     0.998     4.197    11.541     0.044  1006.167    78.405 -1407.919
1477.6000     0.000  -835.332   360.993     4.012    19.179    18.553     0.981     4.038    11.273     0.043  1000.389    70.120 -1407.313
1477.7000     0.000  -836.301   362.689     4.410    18.779    18.092     0.955     3.793    11.095     0.041   987.095    70.301 -1407.042
1477.8000     0.000  -831.863   369.457     5.393    18.560    17.564     0.969     3.726    10.981     0.040   988.056    79.886 -1407.072
1477.9000     0.000  -836.747   372.973     5.748    18.214    17.012     1.029     3.798    10.783     0.039   989.571    91.436 -1407.362
1478.0000     0.000  -840.610   375.975     4.371    17.687    16.518     1.051     3.905    10.512     0.039   970.722    90.618 -1407.686
1478.1000     0.000  -837.351   373.782     3.493    17.002    16.071     0.999     3.674    10.096     0.039   971.048    86.354 -1407.924
1478.2000     0.000  -839.976   369.363     3.254    16.005    15.694     0.919     3.336     9.413     0.039   973.000    77.438 -1408.471
1478.3000     0.000  -832.776   365.574     3.240    14.671    15.318     0.880     3.144     8.719     0.039   981.619    53.749 -1409.253
1478.4000     0.000  -842.248   363.475     3.268    13.694    14.842     0.846     2.991     8.193     0.039   999.429    36.040 -1410.078
1478.5000     0.000  -832.302   363.226     3.304    12.972    14.347     0.812     2.872     7.817     0.039  1001.333    32.531 -1410.699
1478.6000     0.000  -826.557   363.950     3.326    12.357    13.994     0.796     2.760     7.480     0.040   987.810    31.674 -1411.273
1478.7000     0.000  -830.519   363.546     3.521    11.901    13.779     0.774     2.705     7.249     0.041   973.111    32.241 -1411.773
1478.8000     0.000  -832.605   360.850     3.931    11.641    13.712     0.774     2.681     7.083     0.043   977.905    32.633 -1412.505
1478.9000     0.000  -841.534   357.979     4.396    11.444    13.826     0.775     2.708     6.858     0.044   980.667    32.903 -1413.161
1479.0000     0.000  -837.480   354.072     4.595    11.363    14.019     0.793     2.747     6.678     0.046   988.467    38.986 -1413.672
1479.1000     0.000  -843.983   348.980     4.766    11.317    14.192     0.793     2.715     6.579     0.047   995.458    52.904 -1413.831
1479.2000     0.000  -842.789   342.262     5.057    11.377    14.371     0.801     2.767     6.638     0.048   991.933    63.942 -1413.993
1479.3000     0.000  -841.254   334.942     5.554    11.516    14.567     0.815     2.763     6.765     0.049   999.667    63.723 -1414.050
1479.4000     0.000  -834.700   329.014     7.412    11.714    14.733     0.854     2.919     6.878     0.051  1009.333    55.745 -1414.123
1479.5000     0.000  -836.942   322.109    10.005    11.894    14.594     0.916     3.098     7.032     0.051  1009.333    48.442 -1413.964
1479.6000     0.000  -841.708   305.585    10.178    12.032    14.097     0.947     3.190     7.148     0.052  1009.222    52.179 -1413.580
1479.7000     0.000  -840.904   275.686     8.180    12.004    14.022     0.985     3.318     7.188     0.053  1008.667    57.414 -1413.172
1479.8000     0.000  -842.870   253.544     6.385    11.893    14.061     1.005     3.350     7.122     0.054  1006.810    56.020 -1412.819
1479.9000     0.000  -836.954   232.094     5.957    10.966    14.074     1.002     3.356     6.626     0.054  1001.778    56.265 -1412.545
1480.0000     0.000  -840.587   204.737     5.804    10.414    14.110     0.962     3.363     6.422     0.052   995.333    61.093 -1412.149
1480.1000     0.000  -836.009   179.358     5.604    10.227    14.203     0.665     2.237     6.448     0.051   992.444    68.490 -1411.737
1480.2000     0.000  -834.513   160.354     5.977    10.028    14.296     0.837     2.888     6.479     0.053   992.278    72.608 -1411.283
1480.3000     0.000  -826.600   203.545     6.196     9.940    14.429     1.028     3.614     6.482     0.055  1008.762    68.841 -1411.022
1480.4000     0.000  -824.932   303.012     5.987    10.636    14.565     1.037     3.654     7.075     0.055  1009.222    58.158 -1410.713
1480.5000     0.000  -818.777   370.802     5.754    10.936    14.727     1.031     3.700     7.355     0.055  1008.857    44.588 -1410.615
1480.6000     0.000  -817.465   413.526     5.763    10.861    15.413     0.999     3.739     7.413     0.055  1008.000    33.566 -1410.355
1480.7000     0.000  -823.083   412.273     5.871    10.789    15.722     0.992     3.789     7.501     0.055  1005.190    29.026 -1410.309
