~Version Information
VERS.                     2.0 : CWLS Log ASCII Standart
WRAP.                     NO  : One line per depth step
~Well Information
STRT.M                       485.0000  : Start Depth
STOP.M                      1606.7000  : Stop Depth
STEP.M                         0.1000  : Step
NULL.                         -999.25  : Null Value
COMP.                                  : Company
WELL.                                  : Well
FLD .                                  : Field
LOC .                                  : Location
PROV.                                  : Province
SRVC.                                  : Service Company
DATE.      06/12/2011                  : Log Date
UWI .                                  : Unique Well ID
~Curve Information
DEPT.M                                 :
mapo_ds.                                  :
speed_ds.                                   :
R1_ds.¬¬                                  :
R2_ds.¬¬                                  :
R3_ds.¬¬                                  :
R4_ds.¬¬                                  :
R5_ds.¬¬                                  :
R6_ds.¬¬                                  :
R7_ds.¬¬                                  :
R8_ds.¬¬                                  :
PR1_ds.¬¬                                  :
PR2_ds.¬¬                                  :
PR3_ds.¬¬                                  :
PR4_ds.¬¬                                  :
DS_ds.¬¬                                 :
tense_ds.                                 :
~ASCII Log Data
# ...
1080.2000     0.000 -1141.527   130.460   115.856   119.221   115.346   125.602   130.029   122.242   133.974   256.062   245.885   241.462   249.320   248.182   778.758
1080.3000     0.000 -1134.720   129.112   114.998   119.022   113.605   123.685   128.228   121.609   131.176   252.797   243.226   240.631   244.781   245.359   779.000
1080.4000     0.000 -1094.400   128.901   114.892   119.185   113.589   123.675   128.143   121.203   130.703   252.577   243.035   240.388   244.292   245.073   779.100
1080.5000     0.000 -1115.345   128.916   114.861   119.257   113.616   123.713   128.294   121.105   130.637   252.629   243.155   240.362   244.253   245.100   779.788
1080.6000     0.000 -1152.000   129.278   114.766   119.281   113.224   123.778   129.011   121.684   131.325   253.056   243.776   240.965   244.549   245.586   779.867
1080.7000     0.000 -1152.000   129.334   114.717   119.276   113.095   123.793   128.989   122.025   131.211   253.126   243.706   241.301   244.306   245.610   779.667
1080.8000     0.000 -1152.000   129.308   114.713   119.266   113.073   123.822   129.178   122.391   131.710   253.131   243.891   241.657   244.783   245.865   779.700
1080.9000     0.000 -1152.000   129.136   114.574   119.260   113.004   123.543   129.001   122.596   131.665   252.680   243.575   241.857   244.669   245.695   780.000
1081.0000     0.000 -1128.960   129.159   114.585   119.267   113.029   123.485   128.927   122.635   131.643   252.644   243.512   241.901   244.673   245.682   780.000
1081.1000     0.000 -1094.400   129.438   114.995   119.258   113.499   123.733   129.055   122.548   131.726   253.171   244.050   241.806   245.225   246.063   780.000
1081.2000     0.000 -1120.582   130.175   115.584   119.263   114.095   124.165   129.809   123.675   132.823   254.340   245.393   242.938   246.918   247.397   779.758
1081.3000     0.000 -1152.000   130.285   115.990   119.255   114.472   124.255   129.990   123.951   132.916   254.541   245.980   243.206   247.388   247.779   779.400
1081.4000     0.000 -1152.000   130.294   115.919   119.263   114.195   124.174   129.692   123.631   132.947   254.468   245.611   242.894   247.142   247.529   779.333
1081.5000     0.000 -1152.000   130.507   115.848   119.269   114.199   124.206   129.908   123.536   132.886   254.713   245.755   242.805   247.085   247.590   779.233
1081.6000     0.000 -1152.000   130.169   115.790   119.262   114.203   124.139   129.868   123.714   132.741   254.307   245.658   242.977   246.944   247.472   779.500
1081.7000     0.000 -1152.000   130.355   115.784   119.271   114.215   124.129   129.780   123.473   132.509   254.485   245.563   242.745   246.724   247.379   779.700
1081.8000     0.000 -1152.000   130.742   115.877   119.272   114.451   124.406   130.703   124.701   133.627   255.149   246.580   243.973   248.078   248.445   779.867
1081.9000     0.000 -1152.000   131.266   116.254   119.272   114.452   124.897   131.410   125.684   134.431   256.162   247.664   244.956   248.883   249.416   780.000
1082.0000     0.000 -1150.080   130.228   115.797   119.284   114.212   124.204   130.305   124.388   132.921   254.432   246.102   243.672   247.133   247.835   780.000
1082.1000     0.000 -1096.320   129.914   115.817   119.262   114.200   124.320   130.279   123.938   132.689   254.234   246.096   243.201   246.888   247.605   780.000
1082.2000     0.000 -1096.320   129.823   115.765   119.247   114.229   124.059   129.533   123.337   132.474   253.882   245.298   242.583   246.704   247.117   780.000
1082.3000     0.000 -1150.255   129.985   115.862   119.258   114.343   124.127   129.021   122.345   131.674   254.111   244.883   241.604   246.017   246.654   779.727
1082.4000     0.000 -1152.000   130.021   116.027   119.278   114.365   124.118   129.205   122.497   131.745   254.139   245.231   241.774   246.110   246.814   779.400
1082.5000     0.000 -1105.920   130.027   116.054   119.288   114.389   124.124   129.243   122.478   131.757   254.151   245.297   241.766   246.146   246.840   778.800
1082.6000     0.000 -1094.400   130.012   116.054   119.285   114.402   124.166   128.940   122.052   131.570   254.178   244.994   241.337   245.972   246.620   778.833
1082.7000     0.000 -1141.527   130.015   116.056   119.282   114.394   124.352   129.197   122.072   131.559   254.367   245.253   241.354   245.953   246.732   779.000
1082.8000     0.000 -1152.000   129.872   116.016   119.281   114.384   124.292   129.478   122.753   131.809   254.163   245.494   242.035   246.193   246.971   779.200
1082.9000     0.000 -1152.000   129.820   115.994   119.289   114.388   124.254   129.074   122.275   131.524   254.074   245.068   241.563   245.912   246.654   779.333
1083.0000     0.000 -1105.920   129.821   115.990   119.287   114.381   124.304   128.902   121.950   131.323   254.125   244.892   241.237   245.704   246.489   779.333
1083.1000     0.000 -1094.400   130.150   115.981   119.300   114.383   124.610   129.397   122.457   131.733   254.760   245.378   241.758   246.117   247.003   779.333
1083.2000     0.000 -1139.782   130.177   115.872   119.298   114.185   124.510   129.209   122.419   131.788   254.688   245.081   241.717   245.973   246.865   779.121
1083.3000     0.000 -1096.320   130.000   115.752   119.292   114.141   124.424   129.422   122.490   131.853   254.424   245.175   241.781   245.994   246.843   779.333
1083.4000     0.000 -1096.320   129.686   115.481   119.281   113.969   124.187   129.401   122.596   131.778   253.873   244.882   241.877   245.748   246.595   779.333
1083.5000     0.000 -1150.255   129.684   115.219   119.278   113.863   124.132   129.106   122.524   131.642   253.816   244.325   241.802   245.505   246.362   779.091
1083.6000     0.000 -1152.000   129.799   115.120   119.264   113.591   123.948   129.391   122.667   131.944   253.747   244.511   241.931   245.535   246.431   778.833
1083.7000     0.000 -1134.720   129.943   115.117   119.257   113.430   123.770   129.373   122.798   132.184   253.713   244.490   242.055   245.614   246.468   778.833
1083.8000     0.000 -1100.160   130.114   115.111   119.239   113.380   123.648   129.437   123.596   132.899   253.762   244.548   242.835   246.279   246.856   779.000
1083.9000     0.000 -1111.680   130.114   115.412   119.249   113.734   123.812   128.950   122.954   133.061   253.925   244.362   242.203   246.795   246.821   778.767
1084.0000     0.000 -1146.764   130.134   115.904   119.367   114.146   123.861   129.298   123.124   132.600   253.995   245.202   242.491   246.746   247.109   777.879
1084.1000     0.000 -1123.200   130.240   116.139   119.610   114.870   124.215   129.399   122.845   132.163   254.455   245.537   242.455   247.032   247.370   775.533
1084.2000     0.000 -1094.400   130.241   115.997   119.439   114.832   124.300   129.568   123.251   132.469   254.541   245.565   242.690   247.301   247.524   770.300
1084.3000     0.000 -1125.818   130.223   115.744   118.973   114.252   124.428   129.827   123.872   132.938   254.651   245.572   242.845   247.190   247.564   765.030
1084.4000     0.000 -1152.000   130.287   115.595   118.663   114.226   124.426   130.268   123.923   132.858   254.713   245.863   242.585   247.084   247.561   778.667
1084.5000     0.000 -1152.000   130.337   115.706   118.566   114.564   124.511   130.616   124.469   133.405   254.848   246.321   243.034   247.968   248.043   779.667
1084.6000     0.000 -1140.480   130.483   115.994   119.043   115.119   124.990   130.970   124.775   132.940   255.473   246.964   243.818   248.058   248.579   779.667
1084.7000     0.000 -1111.680   130.755   116.142   119.582   114.746   125.127   131.064   125.005   133.840   255.882   247.206   244.587   248.586   249.065   780.000
1084.8000     0.000 -1105.920   130.620   117.023   120.265   115.586   125.207   130.626   124.150   132.981   255.827   247.649   244.416   248.567   249.115   779.667
1084.9000     0.000 -1136.291   130.676   116.971   120.261   115.857   125.316   130.762   124.080   132.802   255.992   247.734   244.341   248.659   249.181   779.667
