~Version Information
VERS.                     2.0 : CWLS Log ASCII Standart
WRAP.                     NO  : One line per depth step
~Well Information
STRT.M                      1422.8000  : Start Depth
STOP.M                      1601.3000  : Stop Depth
STEP.M                         0.1000  : Step
NULL.                         -999.25  : Null Value
COMP.                                  : Company
WELL.                                  : Well
FLD .                                  : Field
LOC .                                  : Location
PROV.                                  : Province
SRVC.                                  : Service Company
DATE.      06/12/2011                  : Log Date
UWI .                                  : Unique Well ID
~Curve Information
DEPT.M                                 :
mapo_ek.                                  :
speed_ek.                                   :
IK_ek.¬‘¬/¬                            :
BK_ek.Ž¬¬                              :
A4M05N_ek.O¬¬                  :
A8M1N_ek.Ž¬¬                  :
A04M01N_ek.Ž¬¬                  :
A1M01N_ek.Ž¬¬                  :
A2M05N_ek.Ž¬¬                  :
REZ_ek.Ž¬¬                   :
tense_ek.                                 :
_GK_ek.¨¬¯/c                               :
PS_ek.                                 :
~ASCII Log Data
# ...
1544.6000     0.000  -567.334    99.602   111.365    43.846    91.526     1.361     6.710    23.580     0.043  1049.333    11.124 -1399.747
1544.7000     0.000  -563.470    98.629   104.364    44.823    92.193     1.372     6.770    23.885     0.043  1049.556     7.581 -1400.060
1544.8000     0.000  -552.954    97.345   110.841    45.781    92.701     1.393     6.868    24.136     0.043  1049.571     5.681 -1400.135
1544.9000     0.000  -559.464    96.730    99.133    46.580    93.111     1.416     6.987    24.379     0.043  1049.571     7.830 -1400.535
1545.0000     0.000  -562.847    97.236    74.005    47.316    93.349     1.432     7.066    24.597     0.043  1049.619    10.413 -1400.734
1545.1000     0.000  -560.018    97.792    56.514    47.791    93.535     1.435     7.085    24.723     0.043  1049.333     8.868 -1401.141
1545.2000     0.000  -555.273    99.027    46.033    48.003    93.606     1.440     7.100    24.657     0.043  1049.667     7.224 -1401.553
1545.3000     0.000  -552.013    99.557    39.119    48.003    93.445     1.425     7.034    24.584     0.043  1049.381     7.528 -1402.095
1545.4000     0.000  -548.443   100.088    35.968    47.897    93.106     1.412     6.966    24.521     0.043  1049.389     9.601 -1402.713
1545.5000     0.000  -551.207    99.911    35.660    47.745    92.590     1.395     6.895    24.445     0.043  1049.333     8.682 -1403.380
1545.6000     0.000  -555.958    98.098    37.386    47.653    91.949     1.387     6.869    24.404     0.043  1049.333     6.391 -1403.938
1545.7000     0.000  -546.884    95.929    39.917    47.692    91.303     1.380     6.844    24.406     0.043  1049.333     6.167 -1404.696
1545.8000     0.000  -549.701    95.531    42.099    47.791    90.761     1.374     6.836    24.422     0.043  1049.333     8.480 -1405.155
1545.9000     0.000  -556.950    95.460    45.229    47.851    90.424     1.373     6.836    24.424     0.043  1049.667     9.635 -1405.584
1546.0000     0.000  -556.401    94.918    46.874    47.983    90.128     1.372     6.828    24.454     0.043  1049.667     8.000 -1405.924
1546.1000     0.000  -559.676    94.958    47.796    48.161    89.887     1.368     6.802    24.520     0.043  1049.667     9.210 -1406.226
1546.2000     0.000  -554.135    94.779    51.812    48.287    89.651     1.373     6.815    24.567     0.043  1049.667     8.419 -1406.621
1546.3000     0.000  -555.378    94.960    51.693    48.395    89.356     1.380     6.829    24.597     0.043  1049.667     4.925 -1406.950
1546.4000     0.000  -547.581    95.883    45.834    48.524    89.030     1.382     6.823    24.602     0.043  1049.667     4.556 -1407.132
1546.5000     0.000  -545.883    97.523    40.294    48.607    88.495     1.372     6.768    24.576     0.043  1049.667     5.536 -1407.436
1546.6000     0.000  -545.085    98.229    38.406    48.587    88.120     1.363     6.736    24.510     0.043  1049.429     7.869 -1407.585
1546.7000     0.000  -537.403    97.877    38.406    48.537    87.841     1.355     6.702    24.470     0.043  1049.333    11.091 -1407.742
1546.8000     0.000  -533.018    97.614    43.134    48.623    87.616     1.347     6.669    24.450     0.042  1049.333    12.428 -1407.759
1546.9000     0.000  -533.823    97.921    48.956    48.590    87.493     1.348     6.689    24.379     0.043  1049.389    12.784 -1407.698
1547.0000     0.000  -533.396    97.746    50.709    48.570    87.525     1.358     6.710    24.318     0.043  1049.600    12.525 -1407.626
1547.1000     0.000  -532.774    96.196    53.951    48.737    87.637     1.330     6.642    24.311     0.042  1049.333    11.381 -1407.656
1547.2000     1.000  -532.888    93.978    64.142    48.920    87.835     1.321     6.603    24.379     0.043  1049.333     9.158 -1407.675
1547.3000     1.000  -522.313    92.566    72.419    49.251    88.098     1.342     6.703    24.455     0.042  1049.333     9.117 -1407.833
1547.4000     1.000  -518.545    92.566    74.456    49.772    88.379     1.367     6.814    24.633     0.042  1049.333    12.080 -1407.750
1547.5000     1.000  -514.701    95.133    73.744    50.512    88.774     1.380     6.888    24.865     0.042  1049.333    13.150 -1407.855
1547.6000     1.000  -514.617    99.204    73.123    51.179    89.310     1.384     6.900    25.059     0.042  1049.333    11.032 -1407.792
1547.7000     1.000  -519.119   101.591    70.216    51.720    89.950     1.400     6.967    25.183     0.042  1049.278     8.042 -1407.610
1547.8000     1.000  -515.043   101.902    67.539    52.171    90.584     1.408     7.013    25.325     0.042  1049.000     7.067 -1407.210
1547.9000     1.000  -519.309   101.459    67.542    52.565    91.202     1.417     7.049    25.474     0.042  1049.278     6.884 -1406.823
1548.0000     1.000  -520.583   100.996    63.653    52.880    91.892     1.426     7.112    25.579     0.042  1049.333     6.916 -1406.297
1548.1000     1.000  -518.340   100.398    58.491    53.219    92.717     1.425     7.099    25.692     0.042  1049.524     8.261 -1405.725
1548.2000     1.000  -515.726    99.911    63.575    53.582    93.581     1.416     7.079    25.834     0.042  1049.524     8.619 -1404.956
1548.3000     1.000  -515.388    98.805    75.130    54.031    94.388     1.431     7.157    25.989     0.042  1049.333     7.433 -1404.229
1548.4000     1.000  -512.792    99.248    81.036    54.586    94.763     1.449     7.243    26.215     0.042  1049.333     7.518 -1403.500
1548.5000     0.000  -512.194   101.150    81.870    55.134    94.684     1.465     7.329    26.476     0.042  1049.381    10.177 -1403.032
1548.6000     0.000  -514.889   103.316    76.743    55.576    94.915     1.480     7.395    26.689     0.042  1049.667    12.958 -1402.335
1548.7000     0.000  -516.386   103.316    68.074    56.058    96.190     1.486     7.428    26.910     0.042  1049.583    15.248 -1401.674
1548.8000     0.000  -520.293   101.270    66.060    56.543    97.854     1.486     7.428    27.106     0.042  1049.533    12.312 -1401.398
1548.9000     1.000  -532.474    98.275    66.957    56.869    99.419     1.504     7.527    27.247     0.041  1049.524     5.812 -1401.183
1549.0000     0.000  -530.762    95.977    58.023    56.999   101.182     1.519     7.593    27.338     0.041  1049.333     5.899 -1400.948
1549.1000     0.000  -526.399    94.341    48.789    57.154   102.648     1.515     7.580    27.454     0.041  1049.381     9.182 -1400.862
1549.2000     0.000  -530.284    91.906    54.998    57.285   103.876     1.495     7.501    27.516     0.041  1049.533    10.045 -1400.518
1549.3000     0.000  -526.396    89.248    72.211    57.379   104.886     1.503     7.573    27.661     0.041  1049.417    10.565 -1400.428
1549.4000     0.000  -524.225    88.407    70.783    57.757   105.434     1.515     7.593    27.780     0.041  1049.333    11.180 -1400.350
1549.5000     0.000  -524.253    90.265    47.783    57.797   105.811     1.546     7.785    27.844     0.041  1049.611    10.098 -1399.965
1549.6000     0.000  -525.532    94.801    28.951    57.618   106.160     1.540     7.759    27.758     0.041  1049.500     9.287 -1399.450
1549.7000     0.000  -526.052    99.602    22.712    56.847   106.708     1.499     7.573    27.468     0.041  1049.389     6.991 -1398.987
1549.8000     0.000  -530.386   102.301    20.391    55.530   107.276     1.466     7.428    27.063     0.040  1049.333     3.800 -1398.434
1549.9000     0.000  -525.475   104.027    22.593    54.354   107.758     1.401     7.085    26.682     0.041  1049.467     4.188 -1398.087
1550.0000     0.000  -516.206   104.996    35.401    53.788   107.389     1.381     7.019    26.431     0.041  1049.381     5.658 -1397.658
1550.1000     0.000  -518.289   107.743    57.655    53.717   107.349     1.387     7.039    26.319     0.041  1049.333     5.363 -1397.121
1550.2000     0.000  -512.640   112.655    87.737    53.879   107.844     1.400     7.111    26.398     0.041  1049.333     4.447 -1396.756
1550.3000     0.000  -510.569   114.712   111.017    53.569   108.610     1.420     7.210    26.259     0.041  1049.458     6.142 -1396.596
