~Version Information
VERS.                     2.0 : CWLS Log ASCII Standart
WRAP.                     NO  : One line per depth step
~Well Information
STRT.M                      1451.2000  : Start Depth
STOP.M                      1602.5000  : Stop Depth
STEP.M                         0.1000  : Step
NULL.                         -999.25  : Null Value
COMP.                                  : Company
WELL.                                  : Well
FLD .                                  : Field
LOC .                                  : Location
PROV.                                  : Province
SRVC.                                  : Service Company
DATE.      06/12/2011                  : Log Date
UWI .                                  : Unique Well ID
~Curve Information
DEPT.M                                 :
mapo_mek.                                  :
speed_mek.                                   :
MGZ_mek.Ž¬                                 :
MPZ_mek.Ž¬                                 :
BMK_mek.O¬                                 :
U_mek.‚                                    :
J_mek.A                                    :
tense_mek.                                 :
~ASCII Log Data
# ...
1460.1000     0.000  -839.353     2.500     1.640   104.618     0.420     0.000   907.026
1460.2000     0.000  -830.721     2.223     1.787    93.766     0.423     0.000   907.256
1460.3000     0.000  -821.706     2.476     1.881   101.010     0.420     0.000   907.333
1460.4000     0.000  -839.161     1.465     1.631    85.289     0.415     0.000   907.231
1460.5000     0.000  -829.187     2.629     1.820    43.172     0.408     0.000   907.026
1460.6000     0.000  -826.693     2.336     1.595    75.867     0.364     0.000   906.846
1460.7000     0.000  -838.202     1.696     1.227     1.983     0.336     0.003   907.026
1460.8000     0.000  -838.969     0.715     0.893     5.957     0.326     0.001   907.385
1460.9000     0.000  -837.680     0.621     0.804   123.404     0.366     0.000   908.028
1461.0000     0.000  -829.698     1.036     1.016    92.807     0.390     0.000   907.872
1461.1000     0.000  -797.347     0.933     0.976   112.342     0.387     0.000   888.897
1461.2000     0.000  -805.901     1.858     1.687    90.171     0.383     0.000   851.667
1461.3000     0.000  -776.104     2.136     1.622    98.769     0.381     0.000   813.417
1461.4000     0.000  -826.847     1.806     1.257    53.597     0.385     0.000   790.489
1461.5000     0.000  -848.000     1.190     1.102    51.666     0.389     0.000   841.944
1461.6000     0.000  -989.685     1.368     1.433    45.580     0.388     0.000   980.643
1461.7000     0.000  -931.158     2.143     1.487    47.009     0.383     0.000  1126.633
1461.8000     0.000  -789.081     1.732     1.785    35.138     0.382     0.000  1122.303
1461.9000     0.000  -790.314     2.017     1.692    53.484     0.380     0.000  1091.462
1462.0000     0.000  -802.854     2.100     1.751   104.099     0.378     0.000  1056.311
1462.1000     0.000  -794.086     1.794     1.599    88.588     0.384     0.000  1023.026
1462.2000     0.000  -807.540     1.837     1.475    64.413     0.377     0.000   994.619
1462.3000     0.000  -789.483     1.819     1.524    88.518     0.380     0.000   958.795
1462.4000     0.000  -795.876     1.213     1.220   123.048     0.375     0.000   921.077
1462.5000     0.000  -833.128     1.636     1.432   118.917     0.374     0.000   907.333
1462.6000     0.000  -847.600     1.675     1.422   126.643     0.372     0.000   907.333
1462.7000     0.000  -841.628     1.337     1.404   130.596     0.364     0.000   907.333
1462.8000     0.000  -845.810     1.556     1.439    87.689     0.364     0.000   907.462
1462.9000     0.000  -830.913     2.213     1.646    76.490     0.367     0.000   907.667
1463.0000     0.000  -834.749     1.447     1.609    70.869     0.368     0.000   907.667
1463.1000     0.000  -827.652     2.481     1.706    63.751     0.370     0.000   907.667
1463.2000     0.000  -829.762     2.580     1.918    76.696     0.316     0.000   907.667
1463.3000     0.000  -826.885     3.282     1.970     7.033     0.239     0.000   907.667
1463.4000     0.000  -832.064     2.643     2.115     3.729     0.229     0.001   907.667
1463.5000     0.000  -826.502     3.522     2.037     7.310     0.235     0.000   907.667
1463.6000     0.000  -830.721     3.372     1.624    60.427     0.252     0.000   907.436
1463.7000     0.000  -842.166     0.493     0.547     0.615     0.200     0.005   907.333
1463.8000     0.000  -833.316     1.629     1.317    20.866     0.370     0.000   907.389
1463.9000     0.000  -831.936     1.472     1.200     9.858     0.333     0.000   907.590
1464.0000     0.000  -829.744     0.109     0.194     0.290     0.157     0.008   907.500
1464.1000     0.000  -822.282     0.050     0.163     0.287     0.153     0.008   907.333
1464.2000     0.000  -822.282     0.048     0.161     0.295     0.155     0.008   907.385
1464.3000     0.000  -814.609     0.048     0.161     0.300     0.157     0.008   907.667
1464.4000     0.000  -836.923     0.048     0.161     0.305     0.160     0.008   907.667
1464.5000     0.000  -837.754     0.048     0.161     0.307     0.161     0.008   907.667
1464.6000     0.000  -825.351     0.048     0.161     0.306     0.161     0.008   907.538
1464.7000     0.000  -834.256     0.042     0.155     0.334     0.163     0.007   907.333
1464.8000     0.000  -836.156     0.034     0.142     0.548     0.170     0.005   907.333
1464.9000     0.000  -840.695     0.043     0.182     0.710     0.200     0.004   907.564
1465.0000     0.000  -833.215     0.906     0.864    10.486     0.268     0.000   907.564
1465.1000     0.000  -836.667     2.779     1.691    68.544     0.379     0.000   907.333
1465.2000     0.000  -834.494     2.015     1.824    51.075     0.380     0.000   907.333
1465.3000     0.000  -821.387     2.294     1.736   105.318     0.376     0.000   907.410
1465.4000     0.000  -843.381     1.455     1.464    34.822     0.375     0.000   907.513
1465.5000     0.000  -842.166     1.942     1.619    54.731     0.373     0.000   907.667
1465.6000     0.000  -834.749     2.040     1.721    71.060     0.379     0.000   907.667
1465.7000     0.000  -836.667     2.541     1.764    63.328     0.379     0.000   907.436
1465.8000     0.000  -834.749     2.068     1.954    90.085     0.379     0.000   907.487
1465.9000     0.000  -844.531     2.349     1.744    66.986     0.373     0.000   907.667
1466.0000     0.000  -829.091     2.082     1.455    11.432     0.318     0.000   907.667
1466.1000     0.000  -835.005     1.755     1.105     0.673     0.262     0.006   907.667
1466.2000     0.000  -832.256     0.251     0.358     1.121     0.257     0.003   907.487
1466.3000     0.000  -824.926     0.445     0.601    11.757     0.336     0.000   907.333
1466.4000     0.000  -825.847     1.843     1.400    16.369     0.388     0.000   907.333
1466.5000     0.000  -846.002     1.247     0.734    26.987     0.379     0.000   907.564
1466.6000     0.000  -836.393     0.803     0.847    25.641     0.369     0.000   907.667
1466.7000     0.000  -840.935     1.727     1.461    59.720     0.377     0.000   907.667
1466.8000     0.000  -833.598     1.669     1.613    79.057     0.362     0.000   907.538
1466.9000     0.000  -828.228     1.293     1.000    31.116     0.359     0.000   907.538
1467.0000     0.000  -836.859     1.244     1.130    77.482     0.354     0.000   907.462
1467.1000     0.000  -829.257     0.982     1.206    28.319     0.349     0.000   907.667
1467.2000     0.000  -840.312     1.108     1.026     7.533     0.349     0.001   907.667
1467.3000     0.000  -830.338     1.163     1.238    46.460     0.354     0.000   907.667
1467.4000     0.000  -842.677     2.243     1.404    38.742     0.376     0.000   907.667
1467.5000     0.000  -832.192     1.971     1.770    42.316     0.377     0.000   907.538
1467.6000     0.000  -834.941     2.706     1.813    53.726     0.373     0.000   907.590
1467.7000     0.000  -848.900     1.809     1.393    17.575     0.361     0.000   907.667
1467.8000     0.000  -844.851     1.361     0.756    13.778     0.363     0.000   907.564
1467.9000     0.000  -843.125     1.077     1.122    34.118     0.375     0.000   907.333
1468.0000     0.000  -837.680     2.026     1.700    73.636     0.384     0.000   907.333
1468.1000     0.000  -833.598     2.508     1.716    61.353     0.384     0.000   907.385
1468.2000     0.000  -829.269     2.444     1.726    93.106     0.385     0.000   907.667
1468.3000     0.000  -823.241     1.711     1.676    80.140     0.394     0.000   907.590
1468.4000     0.000  -826.885     2.756     1.743    95.719     0.401     0.000   907.513
1468.5000     0.000  -819.980     2.947     2.089    82.504     0.400     0.000   907.333
1468.6000     0.000  -836.092     3.081     1.905   101.069     0.395     0.000   907.333
1468.7000     0.000  -836.017     2.027     1.784    44.947     0.312     0.000   907.333
1468.8000     0.000  -835.069     1.325     0.907     2.694     0.232     0.001   907.333
1468.9000     0.000  -833.196     0.266     0.293     1.027     0.217     0.003   907.333
