~Version Information
VERS.                     2.0 : CWLS Log ASCII Standart
WRAP.                     NO  : One line per depth step
~Well Information
STRT.M                      1451.2000  : Start Depth
STOP.M                      1602.5000  : Stop Depth
STEP.M                         0.1000  : Step
NULL.                         -999.25  : Null Value
COMP.                                  : Company
WELL.                                  : Well
FLD .                                  : Field
LOC .                                  : Location
PROV.                                  : Province
SRVC.                                  : Service Company
DATE.      06/12/2011                  : Log Date
UWI .                                  : Unique Well ID
~Curve Information
DEPT.M                                 :
mapo_mek.                                  :
speed_mek.                                   :
MGZ_mek.Ž¬                                 :
MPZ_mek.Ž¬                                 :
BMK_mek.O¬                                 :
U_mek.‚                                    :
J_mek.A                                    :
tense_mek.                                 :
~ASCII Log Data
# ...
1575.8000     0.000  -810.805     2.218     1.976    48.947     0.367     0.000   986.333
1575.9000     0.000  -796.200     2.151     1.681    63.910     0.424     0.000   986.333
1576.0000     0.000  -796.794     2.027     1.685    76.516     0.427     0.000   986.333
1576.1000     0.000  -798.753     2.031     1.705    74.397     0.430     0.000   986.231
1576.2000     0.000  -793.319     1.729     1.638    89.751     0.431     0.000   986.154
1576.3000     0.000  -803.978     1.626     1.692    92.456     0.437     0.000   986.310
1576.4000     0.000  -793.383     2.391     1.790    79.124     0.425     0.000   986.000
1576.5000     0.000  -810.865     1.761     1.731    89.914     0.429     0.000   986.000
1576.6000     0.000  -808.472     2.533     1.807   108.154     0.433     0.000   986.000
1576.7000     0.000  -795.492     2.189     1.899   121.214     0.424     0.000   986.000
1576.8000     0.000  -809.915     1.483     1.463   121.885     0.418     0.000   986.333
1576.9000     0.000  -788.971     1.675     1.410    54.722     0.328     0.000   986.333
1577.0000     0.000  -802.019     2.240     1.831    40.428     0.313     0.000   986.119
1577.1000     0.000  -793.127     2.567     1.924    48.813     0.310     0.000   986.000
1577.2000     0.000  -792.999     1.637     1.766    49.584     0.313     0.000   986.000
1577.3000     0.000  -813.493     2.067     1.843    40.997     0.296     0.000   986.311
1577.4000     0.000  -805.594     1.695     1.713    47.044     0.347     0.000   986.333
1577.5000     0.000  -818.446     1.476     1.709    26.670     0.338     0.000   986.333
1577.6000     0.000  -815.760     2.303     1.625    36.366     0.334     0.000   986.333
1577.7000     0.000  -812.116     2.183     1.556    25.051     0.330     0.000   986.333
1577.8000     0.000  -824.994     2.193     1.897    14.722     0.302     0.000   986.333
1577.9000     0.000  -807.704     1.622     1.367    15.921     0.293     0.000   986.333
1578.0000     0.000  -808.472     1.479     1.087    13.861     0.359     0.000   986.154
1578.1000     0.000  -809.024     1.055     0.931    32.775     0.410     0.000   986.238
1578.2000     0.000  -802.270     0.987     1.059    29.031     0.440     0.000   986.282
1578.3000     0.000  -812.691     1.104     1.215    22.008     0.415     0.000   986.333
1578.4000     0.000  -806.293     0.848     1.039    67.891     0.383     0.000   986.333
1578.5000     0.000  -811.157     1.126     1.202    55.121     0.373     0.000   986.333
1578.6000     0.000  -808.472     2.453     1.953    72.008     0.407     0.000   986.333
1578.7000     0.000  -811.102     1.405     1.040    64.702     0.443     0.000   986.333
1578.8000     0.000  -803.804     0.828     1.107    22.012     0.439     0.000   986.333
1578.9000     0.000  -798.817     1.360     1.362    24.086     0.413     0.000   986.333
1579.0000     1.000  -801.365     1.130     1.309    34.232     0.430     0.000   986.333
1579.1000     0.000  -798.561     1.243     1.335    21.589     0.462     0.000   986.333
1579.2000     0.000  -795.492     1.466     1.156    60.268     0.451     0.000   986.333
1579.3000     0.000  -806.174     0.522     0.773    81.421     0.435     0.000   986.238
1579.4000     0.000  -805.658     0.668     0.927    61.340     0.404     0.000   986.333
1579.5000     0.000  -807.540     1.657     1.465    56.540     0.397     0.000   986.333
1579.6000     0.000  -808.727     1.642     1.377    76.408     0.426     0.000   986.333
1579.7000     0.000  -814.098     1.778     1.824    70.833     0.420     0.000   986.333
1579.8000     0.000  -810.390     2.215     1.619    64.130     0.412     0.000   986.333
1579.9000     0.000  -802.589     1.596     1.655    56.507     0.401     0.000   986.333
1580.0000     0.000  -799.644     1.959     1.786    65.467     0.441     0.000   986.333
1580.1000     0.000  -806.106     1.909     1.737    66.058     0.454     0.000   986.410
1580.2000     0.000  -815.249     1.946     1.496    62.431     0.438     0.000   986.333
1580.3000     0.000  -827.077     1.589     1.595    40.054     0.413     0.000   986.333
1580.4000     0.000  -816.016     1.370     1.245    51.093     0.410     0.000   986.333
1580.5000     0.000  -818.062     1.428     1.514    59.994     0.429     0.000   986.333
1580.6000     0.000  -817.989     1.578     1.553    68.087     0.438     0.000   986.452
1580.7000     0.000  -812.646     2.027     1.576    65.319     0.443     0.000   986.524
1580.8000     0.000  -807.385     2.016     1.676    47.553     0.425     0.000   986.513
1580.9000     0.000  -802.334     1.679     1.584    46.223     0.423     0.000   986.333
1581.0000     0.000  -799.904     1.326     1.560    44.447     0.427     0.000   986.462
1581.1000     0.000  -790.442     1.667     1.708    52.753     0.421     0.000   986.619
1581.2000     0.000  -803.384     2.377     1.609    54.945     0.408     0.000   986.405
1581.3000     0.000  -799.968     1.367     1.408    36.314     0.422     0.000   986.436
1581.4000     0.000  -809.175     1.312     1.124     8.865     0.428     0.001   986.333
1581.5000     0.000  -814.609     0.779     0.920     3.387     0.427     0.002   986.333
1581.6000     0.000  -818.062     1.151     1.031     4.506     0.432     0.001   986.359
1581.7000     0.000  -821.638     0.885     0.951    14.352     0.449     0.000   986.667
1581.8000     0.000  -816.655     1.300     1.352    34.612     0.454     0.000   986.667
1581.9000     0.000  -806.809     1.510     1.512    42.530     0.456     0.000   986.667
1582.0000     0.000  -815.952     1.338     1.531    39.812     0.453     0.000   986.538
1582.1000     0.000  -806.042     1.920     1.458    43.250     0.450     0.000   986.590
1582.2000     0.000  -811.157     1.686     1.676    45.447     0.448     0.000   986.590
1582.3000     0.000  -813.358     1.185     1.342    54.659     0.443     0.000   986.667
1582.4000     0.000  -809.622     1.417     1.408    69.540     0.439     0.000   986.667
1582.5000     0.000  -826.885     1.556     1.507    75.956     0.441     0.000   986.667
1582.6000     0.000  -835.133     1.864     1.779    72.132     0.444     0.000   986.667
1582.7000     0.000  -822.282     1.977     1.906    69.825     0.442     0.000   986.410
1582.8000     0.000  -829.032     2.346     1.848    61.763     0.440     0.000   986.667
1582.9000     0.000  -810.874     1.952     1.657    56.374     0.440     0.000   986.667
1583.0000     0.000  -828.735     1.519     1.639    62.618     0.432     0.000   986.333
1583.1000     0.000  -807.896     1.760     1.480    59.257     0.434     0.000   986.333
1583.2000     0.000  -809.750     2.060     1.779    55.965     0.436     0.000   986.641
1583.3000     0.000  -812.436     1.522     1.791    26.233     0.434     0.000   986.641
1583.4000     0.000  -806.362     2.235     1.725    26.905     0.434     0.000   986.487
1583.5000     0.000  -821.017     1.970     1.776    75.080     0.432     0.000   986.452
1583.6000     0.000  -814.609     1.876     1.606    84.755     0.429     0.000   986.462
1583.7000     0.000  -814.609     1.810     1.511   100.278     0.434     0.000   986.385
1583.8000     0.000  -808.408     2.107     1.818   110.370     0.435     0.000   986.333
1583.9000     0.000  -807.065     1.455     1.506    94.269     0.396     0.000   986.405
1584.0000     0.000  -809.814     1.689     1.260    98.939     0.390     0.000   986.410
1584.1000     0.000  -804.868     1.810     1.529   121.701     0.405     0.000   986.333
1584.2000     0.000  -805.530     1.180     1.440   112.047     0.434     0.000   986.462
1584.3000     0.000  -811.477     2.052     1.490    61.136     0.428     0.000   986.667
1584.4000     0.000  -815.760     1.309     1.169    56.174     0.427     0.000   986.667
1584.5000     0.000  -819.770     0.820     0.997    62.550     0.424     0.000   986.667
1584.6000     0.000  -807.704     0.839     1.004    38.783     0.422     0.000   986.667
