~Version Information
VERS.                     2.0 : CWLS Log ASCII Standart
WRAP.                     NO  : One line per depth step
~Well Information
STRT.M                       485.0000  : Start Depth
STOP.M                      1606.7000  : Stop Depth
STEP.M                         0.1000  : Step
NULL.                         -999.25  : Null Value
COMP.                                  : Company
WELL.                                  : Well
FLD .                                  : Field
LOC .                                  : Location
PROV.                                  : Province
SRVC.                                  : Service Company
DATE.      06/12/2011                  : Log Date
UWI .                                  : Unique Well ID
~Curve Information
DEPT.M                                 :
mapo_ds.                                  :
speed_ds.                                   :
R1_ds.¬¬                                  :
R2_ds.¬¬                                  :
R3_ds.¬¬                                  :
R4_ds.¬¬                                  :
R5_ds.¬¬                                  :
R6_ds.¬¬                                  :
R7_ds.¬¬                                  :
R8_ds.¬¬                                  :
PR1_ds.¬¬                                  :
PR2_ds.¬¬                                  :
PR3_ds.¬¬                                  :
PR4_ds.¬¬                                  :
DS_ds.¬¬                                 :
tense_ds.                                 :
~ASCII Log Data
# ...
859.4000     0.000 -1159.680   132.927   117.916   120.210   114.157   123.286   127.571   122.963   134.075   256.213   245.487   243.173   248.232   248.276   620.600
859.5000     0.000 -1207.680   133.011   117.813   120.166   114.112   123.479   127.870   122.816   133.968   256.490   245.682   242.982   248.080   248.308   620.633
859.6000     0.000 -1205.333   133.250   117.699   120.162   114.272   123.384   128.311   123.325   134.509   256.634   246.010   243.487   248.780   248.728   620.852
859.7000     0.000 -1155.840   132.454   117.952   120.215   114.384   123.660   128.098   123.174   134.097   256.114   246.050   243.389   248.481   248.508   621.033
859.8000     0.000 -1175.040   132.705   117.399   120.285   113.966   123.158   127.653   123.270   134.467   255.863   245.052   243.555   248.433   248.226   621.633
859.9000     0.000 -1209.600   133.067   117.962   120.361   114.001   123.256   128.034   123.881   134.882   256.324   245.996   244.242   248.883   248.861   621.833
860.0000     0.000 -1190.400   133.079   117.813   120.373   114.396   123.629   128.438   123.455   134.643   256.708   246.251   243.829   249.039   248.956   622.074
860.1000     0.000 -1152.000   132.490   118.022   120.385   115.102   124.075   128.294   123.075   134.048   256.565   246.316   243.460   249.150   248.872   622.567
860.2000     0.000 -1152.000   132.059   117.549   120.306   114.960   123.951   128.476   123.133   133.860   256.010   246.024   243.439   248.820   248.573   622.800
860.3000     0.000 -1152.000   132.571   117.881   120.039   114.161   123.452   128.709   123.915   134.609   256.023   246.590   243.954   248.770   248.834   624.767
860.4000     0.000 -1169.280   132.933   117.954   120.022   113.642   123.097   127.768   123.351   134.533   256.030   245.723   243.372   248.175   248.325   629.333
860.5000     0.000 -1163.520   133.641   118.068   120.006   113.511   122.908   128.403   124.084   134.907   256.549   246.472   244.090   248.417   248.882   622.933
860.6000     0.000 -1152.000   133.450   117.827   120.081   113.795   123.236   128.757   124.606   135.047   256.687   246.584   244.687   248.842   249.200   621.900
860.7000     0.000 -1180.800   132.287   117.080   120.221   113.975   123.428   129.096   124.560   134.890   255.716   246.177   244.781   248.865   248.884   623.733
860.8000     0.000 -1192.533   132.468   117.571   120.222   114.113   123.601   129.136   124.484   134.918   256.069   246.707   244.706   249.031   249.129   626.593
860.9000     0.000 -1171.200   133.845   118.539   120.095   114.393   123.697   128.350   124.527   135.970   257.542   246.890   244.621   250.363   249.854   628.788
861.0000     0.000 -1152.000   133.442   117.755   119.885   113.563   123.156   128.726   125.246   136.472   256.598   246.482   245.131   250.035   249.561   621.889
861.1000     0.000 -1152.000   132.726   117.269   119.873   113.645   123.110   128.877   124.406   134.851   255.836   246.146   244.279   248.496   248.689   621.800
861.2000     0.000 -1175.040   133.184   117.245   119.869   113.553   123.550   128.607   124.459   135.620   256.734   245.852   244.329   249.173   249.022   621.667
861.3000     0.000 -1192.320   133.123   117.085   119.847   113.188   123.232   128.878   124.388   135.208   256.355   245.963   244.235   248.396   248.737   621.467
861.4000     0.000 -1186.560   132.555   116.676   119.880   113.111   123.101   129.044   124.490   134.830   255.657   245.720   244.370   247.941   248.422   621.633
861.5000     0.000 -1171.200   132.836   116.767   120.044   113.207   123.046   128.827   124.761   135.235   255.882   245.594   244.805   248.442   248.681   621.630
861.6000     0.000 -1152.000   132.933   117.129   120.284   113.730   123.366   128.366   123.571   134.263   256.300   245.496   243.855   247.993   248.411   621.500
861.7000     0.000 -1152.000   132.850   117.305   120.317   114.204   123.762   128.390   123.604   134.728   256.612   245.695   243.921   248.932   248.790   622.100
861.8000     0.000 -1175.040   132.594   117.332   120.433   114.432   123.818   128.492   123.433   134.266   256.412   245.824   243.866   248.697   248.700   622.067
861.9000     0.000 -1209.600   132.242   117.500   120.445   114.743   124.160   128.985   123.667   134.288   256.402   246.485   244.112   249.031   249.007   621.733
862.0000     0.000 -1190.400   131.691   117.203   120.451   115.085   124.408   129.653   124.151   134.453   256.099   246.856   244.602   249.538   249.274   621.667
862.1000     0.000 -1152.000   132.015   117.951   120.373   115.398   124.566   129.482   123.100   133.578   256.581   247.433   243.473   248.976   249.116   621.667
862.2000     0.000 -1157.760   132.558   118.051   120.216   115.292   124.429   128.360   123.206   134.242   256.987   246.411   243.422   249.534   249.088   621.800
862.3000     0.000 -1209.600   132.559   117.695   120.047   114.838   123.803   128.115   123.216   133.998   256.362   245.811   243.263   248.837   248.568   622.700
862.4000     0.000 -1203.840   132.454   117.717   119.876   114.836   123.715   128.430   123.441   133.939   256.169   246.147   243.317   248.775   248.602   624.200
862.5000     0.000 -1152.000   132.507   117.572   119.706   115.231   124.293   128.771   123.646   133.963   256.800   246.343   243.352   249.194   248.922   628.222
862.6000     0.000 -1152.000   132.593   117.573   119.650   115.174   124.354   128.769   123.736   134.301   256.947   246.343   243.386   249.475   249.038   635.600
862.7000     0.000 -1180.800   132.406   117.379   119.536   115.257   124.550   129.204   124.087   134.636   256.956   246.582   243.622   249.893   249.264   649.833
862.8000     0.000 -1203.840   132.446   116.874   119.302   114.663   124.662   130.045   125.266   134.984   257.108   246.919   244.569   249.647   249.561   648.000
862.9000     0.000 -1171.200   132.735   116.603   118.918   113.461   124.237   131.600   126.374   135.883   256.973   248.203   245.292   249.344   249.953   639.222
863.0000     0.000 -1100.160   132.746   116.204   118.774   113.291   123.719   130.800   126.420   136.265   256.465   247.004   245.194   249.556   249.555   636.633
863.1000     0.000 -1146.764   132.631   115.714   118.815   112.612   123.324   130.769   126.639   136.639   255.955   246.483   245.454   249.251   249.286   634.545
863.2000     0.000 -1209.600   133.183   116.091   119.039   112.415   123.264   130.643   127.142   137.109   256.447   246.734   246.181   249.524   249.722   628.933
863.3000     0.000 -1171.200   133.792   116.311   119.822   112.440   123.251   131.498   128.624   137.998   257.043   247.809   248.446   250.438   250.934   622.148
863.4000     0.000 -1152.000   133.869   116.285   120.288   112.742   123.555   130.188   127.613   137.984   257.424   246.473   247.901   250.726   250.631   621.500
863.5000     0.000 -1152.000   134.920   116.558   120.552   112.772   123.900   130.229   127.780   138.640   258.820   246.787   248.332   251.412   251.338   622.167
863.6000     0.000 -1152.000   135.147   116.698   120.583   112.714   124.041   130.575   128.551   139.288   259.188   247.272   249.134   252.002   251.899   623.700
863.7000     0.000 -1152.000   135.775   117.003   120.647   112.764   124.481   131.325   129.256   140.171   260.256   248.328   249.904   252.935   252.856   626.667
863.8000     0.000 -1163.520   135.643   116.907   120.823   112.877   124.676   131.520   129.262   140.357   260.319   248.427   250.085   253.233   253.016   627.800
863.9000     0.000 -1209.600   135.608   117.681   120.943   113.288   124.993   131.234   129.024   140.618   260.601   248.915   249.967   253.906   253.347   621.500
864.0000     0.000 -1203.200   135.746   118.194   121.275   114.001   125.041   131.240   129.453   140.739   260.787   249.433   250.727   254.740   253.922   622.074
864.1000     0.000 -1152.000   136.250   118.366   121.853   114.738   125.374   131.008   130.180   141.357   261.625   249.374   252.033   256.095   254.781   622.333
