~Version Information
VERS.                     2.0 : CWLS Log ASCII Standart
WRAP.                     NO  : One line per depth step
~Well Information
STRT.M                      1422.8000  : Start Depth
STOP.M                      1601.3000  : Stop Depth
STEP.M                         0.1000  : Step
NULL.                         -999.25  : Null Value
COMP.                                  : Company
WELL.                                  : Well
FLD .                                  : Field
LOC .                                  : Location
PROV.                                  : Province
SRVC.                                  : Service Company
DATE.      06/12/2011                  : Log Date
UWI .                                  : Unique Well ID
~Curve Information
DEPT.M                                 :
mapo_ek.                                  :
speed_ek.                                   :
IK_ek.¬‘¬/¬                            :
BK_ek.Ž¬¬                              :
A4M05N_ek.O¬¬                  :
A8M1N_ek.Ž¬¬                  :
A04M01N_ek.Ž¬¬                  :
A1M01N_ek.Ž¬¬                  :
A2M05N_ek.Ž¬¬                  :
REZ_ek.Ž¬¬                   :
tense_ek.                                 :
_GK_ek.¨¬¯/c                               :
PS_ek.                                 :
~ASCII Log Data
# ...
1562.0000     0.000  -557.382   150.252    26.392    22.550    52.571     0.631     3.051    11.189     0.046  1049.833     8.833 -1416.183
1562.1000     0.000  -563.634   143.385    41.318    21.978    51.519     0.625     3.010    10.936     0.046  1050.000     7.307 -1416.708
1562.2000     0.000  -566.327   135.658    65.329    21.819    51.027     0.624     2.985    10.862     0.046  1050.000     5.860 -1417.139
1562.3000     0.000  -560.568   127.557   118.485    21.854    50.893     0.627     2.969    10.890     0.045  1049.967     6.618 -1417.494
1562.4000     0.000  -560.699   119.243   243.537    22.008    51.070     0.645     3.031    10.980     0.045  1050.000     8.659 -1417.620
1562.5000     0.000  -551.266   113.352   481.020    22.248    51.421     0.660     3.093    11.104     0.045  1049.900     7.444 -1417.615
1562.6000     0.000  -560.427   108.339   855.768    22.625    51.880     0.679     3.171    11.272     0.045  1049.926     6.569 -1417.430
1562.7000     0.000  -561.604   104.293  1209.352    22.987    52.363     0.696     3.241    11.452     0.045  1049.963     6.972 -1417.166
1562.8000     0.000  -556.345   102.180  1383.879    23.411    52.890     0.711     3.327    11.661     0.045  1049.818     6.347 -1416.826
1562.9000     0.000  -560.872    99.779  1393.237    23.872    53.433     0.730     3.412    11.867     0.044  1049.958     5.690 -1416.492
1563.0000     0.000  -557.575    97.821  1256.362    24.296    53.995     0.747     3.517    12.053     0.044  1049.767     5.322 -1416.125
1563.1000     0.000  -561.875    95.987  1109.172    24.678    54.571     0.761     3.620    12.242     0.044  1049.800     7.339 -1415.764
1563.2000     0.000  -561.529    94.225  1085.491    25.063    55.141     0.783     3.715    12.456     0.043  1050.000     8.372 -1415.314
1563.3000     0.000  -550.588    93.117  1115.034    25.488    55.703     0.798     3.821    12.658     0.043  1050.000     8.074 -1414.777
1563.4000     0.000  -558.390    91.543  1146.329    25.938    56.319     0.811     3.897    12.873     0.042  1050.000     8.643 -1414.062
1563.5000     0.000  -559.535    90.303  1123.363    26.395    56.931     0.830     3.996    13.087     0.042  1050.037     7.247 -1413.210
1563.6000     0.000  -554.918    89.779   983.186    26.888    57.477     0.849     4.103    13.331     0.042  1050.000     6.393 -1412.115
1563.7000     0.000  -565.329    89.030   791.208    27.384    58.056     0.867     4.202    13.649     0.042  1050.000     6.613 -1410.856
1563.8000     0.000  -567.651    88.920   697.833    27.875    58.626     0.881     4.305    13.981     0.041  1050.033     5.733 -1409.544
1563.9000     0.000  -560.401    89.569   697.515    28.424    59.288     0.896     4.382    14.324     0.041  1050.133     5.482 -1408.280
1564.0000     0.000  -559.878    89.612   748.044    28.902    60.019     0.913     4.461    14.674     0.041  1050.033     5.959 -1406.971
1564.1000     0.000  -563.269    89.491   827.397    29.401    60.761     0.929     4.569    15.046     0.041  1050.000     6.551 -1405.845
1564.2000     0.000  -565.480    89.697   943.329    29.908    61.490     0.946     4.667    15.472     0.041  1050.000     7.044 -1404.698
1564.3000     0.000  -559.944    89.103  1104.641    30.440    62.224     0.962     4.762    15.919     0.041  1050.000     6.225 -1403.902
1564.4000     0.000  -556.096    88.618  1225.933    31.000    62.941     0.982     4.849    16.356     0.040  1050.000     6.796 -1403.177
1564.5000     0.000  -558.735    88.499  1272.922    31.552    63.670     0.998     4.944    16.803     0.040  1050.000     8.382 -1402.508
1564.6000     0.000  -560.193    87.697  1308.781    32.123    64.452     1.010     5.018    17.212     0.040  1050.000     9.581 -1401.965
1564.7000     0.000  -566.369    86.256  1348.348    32.666    65.258     1.028     5.116    17.625     0.040  1050.033     8.615 -1401.556
1564.8000     0.000  -574.279    85.714  1301.191    33.245    66.052     1.047     5.208    18.035     0.040  1050.074     7.334 -1401.211
1564.9000     0.000  -573.278    85.145  1219.131    33.902    66.849     1.062     5.299    18.467     0.040  1050.133     7.203 -1401.166
1565.0000     0.000  -562.594    83.323  1160.637    34.567    67.773     1.081     5.410    18.921     0.040  1050.333     7.186 -1401.043
1565.1000     0.000  -560.330    83.318  1133.081    35.244    68.842     1.099     5.513    19.316     0.040  1050.250     6.787 -1401.115
1565.2000     0.000  -571.187    84.683  1110.919    35.888    69.925     1.121     5.622    19.692     0.039  1050.200     6.352 -1401.472
1565.3000     0.000  -565.050    84.134  1050.671    36.490    70.854     1.137     5.707    20.092     0.039  1050.167     7.721 -1401.828
1565.4000     0.000  -550.746    82.433   983.625    37.106    71.832     1.153     5.752    20.500     0.039  1050.074     5.531 -1402.385
1565.5000     0.000  -554.416    78.668   857.414    37.760    72.835     1.162     5.848    20.917     0.039  1050.000     4.636 -1402.921
1565.6000     0.000  -558.657    75.411   685.324    38.486    73.738     1.186     5.974    21.248     0.039  1050.185     6.968 -1403.453
1565.7000     0.000  -556.676    81.528   420.172    39.286    74.670     1.203     6.054    21.632     0.039  1050.200     7.825 -1404.087
1565.8000     0.000  -560.023    87.267   250.082    40.228    75.760     1.214     6.131    22.031     0.038  1050.000    10.873 -1404.816
1565.9000     0.000  -566.944    91.383   232.265    41.222    76.856     1.225     6.206    22.361     0.038  1050.000    13.880 -1405.383
1566.0000     0.000  -566.099    94.474   319.336    42.263    77.903     1.239     6.313    22.687     0.038  1050.259    11.297 -1406.032
1566.1000     0.000  -561.645    95.264   498.693    43.418    78.992     1.243     6.333    23.085     0.037  1050.061     9.663 -1406.674
1566.2000     0.000  -561.380    91.133   676.952    44.755    80.139     1.261     6.444    23.451     0.037  1050.133    12.137 -1407.465
1566.3000     0.000  -562.484    89.693   771.185    45.963    81.309     1.285     6.576    23.788     0.036  1050.033    13.771 -1408.258
1566.4000     0.000  -566.874    92.072   866.484    47.273    82.271     1.298     6.629    24.194     0.036  1050.000    11.104 -1409.002
1566.5000     0.000  -560.863    92.196   780.978    48.754    83.142     1.307     6.687    24.661     0.037  1050.000     9.164 -1409.721
1566.6000     0.000  -562.298    92.622   444.099    50.183    84.028     1.335     6.802    25.021     0.041  1050.151     8.952 -1410.451
1566.7000     0.000  -579.363    94.511   239.029    51.505    84.844     1.355     6.922    25.316     0.046  1050.033     7.200 -1411.243
1566.8000     0.000  -577.230    97.459   156.104    52.675    85.556     1.357     6.964    25.590     0.048  1050.000     7.487 -1411.773
1566.9000     0.000  -574.301    97.065   120.631    53.355    86.130     1.359     6.966    25.744     0.049  1050.067     9.903 -1412.296
1567.0000     0.000  -578.762    97.043   102.713    53.977    86.720     1.359     6.975    25.785     0.050  1050.000    12.218 -1412.735
1567.1000     0.000  -578.765    98.013    92.207    54.458    87.169     1.352     6.944    25.804     0.051  1050.233    13.536 -1413.243
1567.2000     0.000  -585.875    97.047    83.756    54.789    87.384     1.346     6.911    25.767     0.052  1050.333    10.383 -1413.453
1567.3000     0.000  -586.782    95.472    78.723    55.040    87.383     1.333     6.876    25.691     0.054  1050.300     6.170 -1413.733
1567.4000     0.000  -580.051    95.417    84.321    55.295    87.553     1.322     6.805    25.625     0.054  1050.333     7.559 -1413.783
1567.5000     0.000  -575.871    95.737    92.399    55.554    87.859     1.313     6.798    25.570     0.055  1050.333     8.512 -1414.011
1567.6000     0.000  -587.980    96.245    93.747    55.811    88.314     1.320     6.801    25.535     0.055  1050.306     6.440 -1414.049
1567.7000     0.000  -591.372    96.991   106.409    56.134    88.877     1.309     6.765    25.533     0.056  1050.333     5.880 -1413.937
