~Version Information
VERS.                     2.0 : CWLS Log ASCII Standart
WRAP.                     NO  : One line per depth step
~Well Information
STRT.M                      1451.2000  : Start Depth
STOP.M                      1602.5000  : Stop Depth
STEP.M                         0.1000  : Step
NULL.                         -999.25  : Null Value
COMP.                                  : Company
WELL.                                  : Well
FLD .                                  : Field
LOC .                                  : Location
PROV.                                  : Province
SRVC.                                  : Service Company
DATE.      06/12/2011                  : Log Date
UWI .                                  : Unique Well ID
~Curve Information
DEPT.M                                 :
mapo_mek.                                  :
speed_mek.                                   :
MGZ_mek.Ž¬                                 :
MPZ_mek.Ž¬                                 :
BMK_mek.O¬                                 :
U_mek.‚                                    :
J_mek.A                                    :
tense_mek.                                 :
~ASCII Log Data
# ...
1584.7000     0.000  -813.395     1.066     0.974    37.521     0.405     0.000   986.538
1584.8000     0.000  -809.175     0.930     0.957    58.209     0.402     0.000   986.538
1584.9000     0.000  -801.566     0.672     0.882    30.340     0.393     0.000   986.667
1585.0000     0.000  -810.002     0.871     0.870    30.664     0.384     0.000   986.333
1585.1000     0.000  -800.607     1.056     1.058    17.298     0.386     0.000   986.410
1585.2000     0.000  -804.827     1.407     1.176    14.816     0.372     0.000   986.564
1585.3000     0.000  -817.514     0.993     0.794    35.217     0.372     0.000   986.667
1585.4000     0.000  -810.198     0.593     0.796    42.628     0.375     0.000   986.667
1585.5000     0.000  -824.647     0.822     0.874    23.909     0.366     0.000   986.667
1585.6000     0.000  -818.126     0.527     0.773    28.823     0.365     0.000   986.590
1585.7000     0.000  -811.796     1.055     0.942    15.680     0.382     0.000   986.333
1585.8000     0.000  -817.167     1.882     1.608    11.684     0.383     0.000   986.487
1585.9000     0.000  -796.004     1.081     1.255    13.769     0.386     0.000   986.641
1586.0000     0.000  -809.836     1.320     1.054    12.226     0.392     0.000   986.578
1586.1000     0.000  -795.429     1.406     1.179    27.008     0.409     0.000   986.436
1586.2000     0.000  -797.922     0.728     0.910    47.984     0.417     0.000   986.667
1586.3000     0.000  -809.239     0.863     0.887    46.027     0.420     0.000   986.667
1586.4000     0.000  -805.594     1.190     1.205    71.306     0.423     0.000   986.641
1586.5000     0.000  -810.262     1.141     1.069    80.800     0.442     0.000   986.333
1586.6000     0.000  -813.121     0.930     1.147    86.840     0.453     0.000   986.333
1586.7000     0.000  -800.032     1.007     1.348    81.500     0.459     0.000   986.487
1586.8000     0.000  -804.955     0.987     1.131   111.259     0.454     0.000   986.667
1586.9000     0.000  -792.341     1.280     1.442   114.419     0.441     0.000   986.619
1587.0000     0.000  -772.284     1.145     1.376   119.199     0.443     0.000   986.333
1587.1000     0.000  -794.099     1.203     1.463   104.127     0.426     0.000   986.333
1587.2000     0.000  -794.342     2.511     1.527    65.226     0.397     0.000   986.641
1587.3000     0.000  -794.954     1.537     1.611    43.042     0.391     0.000   986.571
1587.4000     0.000  -795.429     0.905     1.126    44.830     0.414     0.000   986.333
1587.5000     0.000  -805.046     1.492     1.118    48.642     0.442     0.000   986.333
1587.6000     0.000  -805.978     1.118     1.241    59.816     0.469     0.000   986.333
1587.7000     0.000  -815.555     0.939     1.025   105.659     0.479     0.000   986.643
1587.8000     0.000  -816.911     0.744     1.040    95.344     0.471     0.000   986.513
1587.9000     0.000  -809.622     0.858     0.761    87.277     0.468     0.000   986.436
1588.0000     0.000  -821.131     1.143     1.138   108.948     0.464     0.000   986.487
1588.1000     0.000  -829.379     1.132     1.171    25.735     0.403     0.000   986.667
1588.2000     0.000  -814.609     1.424     1.134     9.607     0.402     0.001   986.564
1588.3000     0.000  -826.502     1.027     1.273    88.806     0.425     0.000   986.333
1588.4000     0.000  -815.555     1.800     1.572    60.958     0.465     0.000   986.333
1588.5000     0.000  -824.200     1.050     1.072    73.125     0.460     0.000   986.333
1588.6000     0.000  -818.062     0.923     1.071    66.548     0.466     0.000   986.333
1588.7000     0.000  -822.282     1.591     1.571    74.520     0.467     0.000   986.333
1588.8000     0.000  -824.328     1.897     1.832    46.853     0.471     0.000   986.333
1588.9000     0.000  -804.188     1.744     1.656    55.943     0.471     0.000   986.333
1589.0000     1.000  -813.714     1.264     1.349    58.743     0.466     0.000   986.333
1589.1000     0.000  -802.909     2.135     1.703    95.005     0.461     0.000   986.256
1589.2000     0.000  -821.432     2.131     1.911    95.075     0.465     0.000   986.310
1589.3000     0.000  -816.527     1.573     1.602    85.190     0.464     0.000   986.333
1589.4000     0.000  -818.254     2.112     1.665    66.252     0.457     0.000   986.385
1589.5000     0.000  -818.829     1.642     1.897    82.744     0.456     0.000   986.359
1589.6000     0.000  -818.829     1.818     1.574    86.355     0.459     0.000   986.333
1589.7000     0.000  -816.847     1.716     1.484    98.809     0.461     0.000   986.333
1589.8000     0.000  -811.988     1.659     1.495    90.363     0.461     0.000   986.333
1589.9000     0.000  -814.034     1.014     1.339    44.369     0.454     0.000   986.333
1590.0000     0.000  -818.226     1.953     1.362    62.128     0.452     0.000   986.333
1590.1000     0.000  -810.581     1.589     1.517    97.131     0.453     0.000   986.333
1590.2000     0.000  -825.885     1.643     1.408    89.141     0.449     0.000   986.333
1590.3000     0.000  -826.310     1.090     1.260    41.417     0.448     0.000   986.385
1590.4000     0.000  -824.583     1.659     1.553    30.587     0.432     0.000   986.359
1590.5000     0.000  -834.749     1.355     1.268    32.086     0.428     0.000   986.333
1590.6000     0.000  -831.584     1.136     1.396    17.252     0.438     0.000   986.333
1590.7000     0.000  -822.857     1.603     1.103    18.500     0.453     0.000   986.333
1590.8000     0.000  -819.469     0.804     1.070    42.185     0.455     0.000   986.333
1590.9000     0.000  -776.787     1.234     1.201    39.892     0.450     0.000   986.333
1591.0000     0.000  -759.510     1.079     1.088    24.549     0.454     0.000   986.333
1591.1000     0.000  -752.861     1.040     1.442    48.829     0.451     0.000   986.333
1591.2000     0.000  -766.448     1.136     1.062    73.400     0.445     0.000   986.333
1591.3000     0.000  -772.334     0.797     1.077    71.279     0.448     0.000   986.024
1591.4000     0.000  -773.165     0.801     0.984    78.802     0.446     0.000   986.095
1591.5000     0.000  -770.494     1.398     1.352    66.235     0.450     0.000   986.286
1591.6000     0.000  -776.905     1.416     1.539    89.555     0.450     0.000   986.190
1591.7000     0.000  -770.877     1.820     1.672    86.770     0.445     0.000   986.000
1591.8000     0.000  -757.967     1.431     1.610    69.020     0.447     0.000   986.000
1591.9000     0.000  -756.752     1.258     1.224    59.713     0.448     0.000   986.289
1592.0000     0.000  -755.117     1.057     1.169    66.674     0.439     0.000   986.310
1592.1000     0.000  -754.226     1.049     1.169    59.775     0.441     0.000   986.048
1592.2000     0.000  -771.103     1.578     1.411    44.133     0.435     0.000   986.133
1592.3000     0.000  -755.596     1.547     1.585    75.119     0.442     0.000   986.333
1592.4000     0.000  -762.954     1.473     1.502    63.883     0.462     0.000   986.333
1592.5000     0.000  -768.059     1.683     1.701    71.346     0.471     0.000   986.262
1592.6000     0.000  -762.293     1.625     1.664    90.698     0.474     0.000   986.333
1592.7000     0.000  -765.506     1.489     1.561   100.689     0.457     0.000   986.333
1592.8000     0.000  -764.022     1.258     1.214   107.243     0.455     0.000   986.333
1592.9000     0.000  -757.729     1.567     1.620   101.286     0.457     0.000   986.476
1593.0000     0.000  -756.304     1.705     1.503    84.061     0.443     0.000   986.667
1593.1000     0.000  -759.356     1.368     1.261    62.293     0.430     0.000   987.156
1593.2000     0.000  -772.156     1.244     1.226    90.767     0.416     0.000   988.641
1593.3000     0.000  -822.382     0.982     1.212   101.131     0.425     0.000   993.310
1593.4000     0.000  -953.885     1.408     1.585    80.123     0.416     0.000  1005.524
1593.5000     0.000  -980.175     1.759     1.448    72.717     0.400     0.000   991.485
