~Version Information
VERS.                     2.0 : CWLS Log ASCII Standart
WRAP.                     NO  : One line per depth step
~Well Information
STRT.M                      1451.2000  : Start Depth
STOP.M                      1602.5000  : Stop Depth
STEP.M                         0.1000  : Step
NULL.                         -999.25  : Null Value
COMP.                                  : Company
WELL.                                  : Well
FLD .                                  : Field
LOC .                                  : Location
PROV.                                  : Province
SRVC.                                  : Service Company
DATE.      06/12/2011                  : Log Date
UWI .                                  : Unique Well ID
~Curve Information
DEPT.M                                 :
mapo_mek.                                  :
speed_mek.                                   :
MGZ_mek.Ž¬                                 :
MPZ_mek.Ž¬                                 :
BMK_mek.O¬                                 :
U_mek.‚                                    :
J_mek.A                                    :
tense_mek.                                 :
~ASCII Log Data
# ...
1504.6000     0.000  -819.596     0.551     0.583     0.915     0.328     0.005   907.205
1504.7000     0.000  -811.285     0.503     0.532     1.021     0.324     0.005   907.256
1504.8000     0.000  -809.737     0.467     0.551     1.519     0.331     0.003   907.452
1504.9000     0.000  -811.924     0.499     0.548     1.363     0.331     0.004   908.154
1505.0000     0.000  -807.704     0.508     0.605     1.216     0.326     0.004   910.410
1505.1000     0.000  -810.568     0.479     0.599     3.468     0.324     0.001   914.238
1505.2000     0.000  -803.165     0.445     0.566     2.151     0.322     0.002   908.974
1505.3000     0.000  -802.717     0.470     0.629     2.000     0.315     0.002   912.436
1505.4000     0.000  -818.167     0.525     0.635     1.908     0.316     0.002   922.190
1505.5000     0.000  -814.801     0.389     0.560     3.095     0.314     0.001   916.436
1505.6000     0.000  -816.911     0.471     0.598     1.998     0.318     0.002   908.385
1505.7000     0.000  -822.665     0.636     0.600     1.233     0.336     0.004   907.282
1505.8000     0.000  -818.062     0.454     0.564     1.138     0.321     0.004   907.333
1505.9000     0.000  -818.583     0.460     0.558     1.112     0.316     0.004   907.833
1506.0000     0.000  -822.857     0.517     0.565     1.031     0.319     0.005   909.744
1506.1000     0.000  -826.310     0.536     0.577     0.960     0.322     0.005   914.795
1506.2000     0.000  -822.665     0.533     0.578     0.950     0.318     0.005   929.795
1506.3000     0.000  -827.652     0.510     0.577     0.964     0.317     0.005   943.051
1506.4000     0.000  -822.282     0.561     0.579     0.984     0.317     0.005   936.718
1506.5000     0.000  -818.829     0.487     0.558     1.005     0.319     0.005   919.487
1506.6000     0.000  -822.857     0.574     0.606     1.064     0.317     0.004   914.615
1506.7000     0.000  -826.502     0.523     0.576     1.084     0.314     0.004   910.692
1506.8000     0.000  -818.829     0.391     0.514     1.056     0.311     0.004   917.744
1506.9000     0.000  -816.655     0.357     0.482     1.092     0.310     0.004   933.590
1507.0000     0.000  -807.777     0.433     0.559     1.335     0.304     0.003   924.738
1507.1000     0.000  -814.609     0.676     0.640     1.310     0.303     0.003   920.333
1507.2000     0.000  -813.842     0.454     0.573     1.184     0.302     0.004   915.436
1507.3000     0.000  -802.731     0.422     0.553     1.259     0.304     0.004   929.143
1507.4000     0.000  -812.308     0.565     0.637     1.275     0.305     0.004   934.333
1507.5000     0.000  -807.001     0.569     0.622     1.361     0.301     0.003   916.487
1507.6000     0.000  -814.070     0.542     0.639     1.352     0.308     0.003   913.262
1507.7000     0.000  -818.637     0.625     0.712     1.318     0.315     0.004   910.154
1507.8000     0.000  -813.842     0.749     0.703     1.388     0.315     0.003   909.590
1507.9000     0.000  -817.231     0.655     0.736     1.403     0.317     0.003   914.667
1508.0000     0.000  -805.594     0.771     0.747     1.275     0.318     0.004   912.692
1508.1000     0.000  -811.696     0.785     0.733     1.063     0.313     0.004   912.952
1508.2000     0.000  -814.609     0.775     0.613     0.684     0.302     0.007   907.897
1508.3000     0.000  -809.143     0.443     0.466     0.562     0.284     0.008   910.190
1508.4000     0.000  -811.157     0.414     0.421     0.532     0.273     0.008   913.769
1508.5000     0.000  -814.929     0.412     0.415     0.534     0.271     0.008   907.385
1508.6000     0.000  -825.095     0.383     0.395     0.525     0.274     0.008   907.667
1508.7000     0.000  -824.264     0.365     0.404     0.538     0.278     0.008   909.000
1508.8000     0.000  -817.423     0.435     0.416     0.529     0.282     0.008   913.231
1508.9000     0.000  -825.095     0.438     0.427     0.562     0.286     0.008   909.744
1509.0000     0.000  -822.857     0.421     0.426     0.621     0.289     0.007   907.333
1509.1000     0.000  -830.721     0.473     0.419     0.516     0.289     0.008   909.000
1509.2000     0.000  -817.870     0.268     0.367     0.513     0.288     0.008   912.820
1509.3000     0.000  -814.609     0.323     0.380     0.496     0.285     0.009   921.410
1509.4000     0.000  -820.720     0.400     0.400     0.518     0.281     0.008   910.357
1509.5000     0.000  -809.622     0.417     0.402     0.519     0.282     0.008   912.692
1509.6000     0.000  -817.870     0.415     0.399     0.534     0.280     0.008   912.744
1509.7000     0.000  -822.282     0.417     0.399     0.524     0.281     0.008   910.410
1509.8000     0.000  -827.077     0.416     0.403     0.530     0.282     0.008   916.769
1509.9000     0.000  -821.451     0.418     0.402     0.528     0.279     0.008   934.692
1510.0000     0.000  -805.594     0.416     0.405     0.537     0.279     0.008   946.308
1510.1000     0.000  -814.545     0.405     0.400     0.540     0.281     0.008   945.952
1510.2000     0.000  -808.088     0.399     0.389     0.547     0.280     0.008   945.180
1510.3000     0.000  -807.184     0.398     0.386     0.537     0.283     0.008   941.952
1510.4000     0.000  -813.075     0.400     0.390     0.522     0.292     0.008   932.051
1510.5000     0.000  -816.336     0.402     0.391     0.519     0.294     0.008   915.513
1510.6000     0.000  -825.542     0.407     0.396     0.513     0.291     0.009   919.308
1510.7000     0.000  -815.313     0.419     0.405     0.521     0.285     0.008   910.820
1510.8000     0.000  -821.195     0.419     0.398     0.547     0.279     0.008   908.615
1510.9000     0.000  -826.885     0.408     0.392     0.545     0.278     0.008   911.667
1511.0000     0.000  -811.988     0.408     0.388     0.540     0.281     0.008   920.641
1511.1000     0.000  -813.180     0.408     0.388     0.540     0.281     0.008   931.310
1511.2000     0.000  -808.193     0.397     0.374     0.531     0.282     0.008   928.381
1511.3000     0.000  -812.372     0.398     0.375     0.527     0.289     0.008   939.231
1511.4000     0.000  -816.591     0.386     0.369     0.522     0.292     0.008   946.077
1511.5000     0.000  -828.635     0.387     0.370     0.519     0.285     0.008   944.820
1511.6000     0.000  -818.700     0.399     0.379     0.520     0.285     0.008   941.972
1511.7000     0.000  -822.501     0.399     0.381     0.543     0.286     0.008   934.595
1511.8000     0.000  -826.310     0.403     0.376     0.539     0.283     0.008   931.154
1511.9000     0.000  -817.103     0.389     0.369     0.544     0.280     0.008   919.308
1512.0000     0.000  -799.457     0.400     0.372     0.578     0.279     0.007   927.051
1512.1000     0.000  -810.965     0.396     0.371     0.524     0.282     0.008   931.128
1512.2000     0.000  -798.561     0.382     0.363     0.544     0.280     0.008   925.231
1512.3000     0.000  -802.494     0.394     0.371     0.552     0.277     0.008   922.000
1512.4000     0.000  -820.875     0.394     0.374     0.546     0.279     0.008   936.103
1512.5000     0.000  -816.016     0.391     0.376     0.541     0.283     0.008   939.359
1512.6000     0.000  -818.829     0.396     0.381     0.544     0.289     0.008   945.974
1512.7000     0.000  -807.001     0.408     0.386     0.566     0.290     0.008   946.667
1512.8000     0.000  -810.500     0.415     0.389     0.551     0.286     0.008   946.511
1512.9000     0.000  -822.282     0.414     0.379     0.529     0.284     0.008   946.667
1513.0000     0.000  -817.103     0.397     0.374     0.543     0.285     0.008   946.949
1513.1000     0.000  -818.829     0.406     0.381     0.554     0.288     0.008   946.949
1513.2000     0.000  -810.901     0.403     0.376     0.520     0.294     0.008   946.667
1513.3000     0.000  -804.188     0.390     0.371     0.538     0.291     0.008   946.590
1513.4000     0.000  -814.609     0.398     0.371     0.544     0.285     0.008   946.000
