~Version Information
VERS.                     2.0 : CWLS Log ASCII Standart
WRAP.                     NO  : One line per depth step
~Well Information
STRT.M                       485.0000  : Start Depth
STOP.M                      1606.7000  : Stop Depth
STEP.M                         0.1000  : Step
NULL.                         -999.25  : Null Value
COMP.                                  : Company
WELL.                                  : Well
FLD .                                  : Field
LOC .                                  : Location
PROV.                                  : Province
SRVC.                                  : Service Company
DATE.      06/12/2011                  : Log Date
UWI .                                  : Unique Well ID
~Curve Information
DEPT.M                                 :
mapo_ds.                                  :
speed_ds.                                   :
R1_ds.¬¬                                  :
R2_ds.¬¬                                  :
R3_ds.¬¬                                  :
R4_ds.¬¬                                  :
R5_ds.¬¬                                  :
R6_ds.¬¬                                  :
R7_ds.¬¬                                  :
R8_ds.¬¬                                  :
PR1_ds.¬¬                                  :
PR2_ds.¬¬                                  :
PR3_ds.¬¬                                  :
PR4_ds.¬¬                                  :
DS_ds.¬¬                                 :
tense_ds.                                 :
~ASCII Log Data
485.0000     0.000 -1062.982  -999.250  -999.250  -999.250  -999.250  -999.250  -999.250  -999.250  -999.250  -999.250  -999.250  -999.250  -999.250  -999.250   419.939
485.1000     0.000 -1062.982  -999.250  -999.250  -999.250  -999.250  -999.250  -999.250  -999.250  -999.250  -999.250  -999.250  -999.250  -999.250  -999.250   420.000
485.2000     0.000 -1048.320  -999.250  -999.250  -999.250  -999.250  -999.250  -999.250  -999.250  -999.250  -999.250  -999.250  -999.250  -999.250  -999.250   420.000
485.3000     0.000 -1057.745  -999.250  -999.250  -999.250  -999.250  -999.250  -999.250  -999.250  -999.250  -999.250  -999.250  -999.250  -999.250  -999.250   420.000
485.4000     0.000 -1047.273  -999.250  -999.250  -999.250  -999.250  -999.250  -999.250  -999.250  -999.250  -999.250  -999.250  -999.250  -999.250  -999.250   420.091
485.5000     0.000 -1026.327  -999.250  -999.250  -999.250  -999.250  -999.250  -999.250  -999.250  -999.250  -999.250  -999.250  -999.250  -999.250  -999.250   419.788
485.6000     0.000 -1022.836  -999.250  -999.250  -999.250  -999.250  -999.250  -999.250  -999.250  -999.250  -999.250  -999.250  -999.250  -999.250  -999.250   419.091
485.7000     0.000 -1030.400  -999.250  -999.250  -999.250  -999.250  -999.250  -999.250  -999.250  -999.250  -999.250  -999.250  -999.250  -999.250  -999.250   418.917
485.8000     0.000 -1021.091  -999.250  -999.250  -999.250  -999.250  -999.250  -999.250  -999.250  -999.250  -999.250  -999.250  -999.250  -999.250  -999.250   418.636
485.9000     0.000 -1024.582  -999.250  -999.250  -999.250  -999.250  -999.250  -999.250  -999.250  -999.250  -999.250  -999.250  -999.250  -999.250  -999.250   418.485
486.0000     0.000 -1029.818  -999.250  -999.250  -999.250  -999.250  -999.250  -999.250  -999.250  -999.250  -999.250  -999.250  -999.250  -999.250  -999.250   418.758
486.1000     0.000 -1035.200  -999.250  -999.250  -999.250  -999.250  -999.250  -999.250  -999.250  -999.250  -999.250  -999.250  -999.250  -999.250  -999.250   419.111
486.2000     0.000 -1036.800  -999.250  -999.250  -999.250  -999.250  -999.250  -999.250  -999.250  -999.250  -999.250  -999.250  -999.250  -999.250  -999.250   419.273
486.3000     0.000 -1031.564  -999.250  -999.250  -999.250  -999.250  -999.250  -999.250  -999.250  -999.250  -999.250  -999.250  -999.250  -999.250  -999.250   419.333
486.4000     0.000 -1036.800  -999.250  -999.250  -999.250  -999.250  -999.250  -999.250  -999.250  -999.250  -999.250  -999.250  -999.250  -999.250  -999.250   419.333
486.5000     0.000 -1029.818  -999.250  -999.250  -999.250  -999.250  -999.250  -999.250  -999.250  -999.250  -999.250  -999.250  -999.250  -999.250  -999.250   419.333
486.6000     0.000 -1014.109  -999.250  -999.250  -999.250  -999.250  -999.250  -999.250  -999.250  -999.250  -999.250  -999.250  -999.250  -999.250  -999.250   419.424
486.7000     0.000 -1025.600  -999.250  -999.250  -999.250  -999.250  -999.250  -999.250  -999.250  -999.250  -999.250  -999.250  -999.250  -999.250  -999.250   419.333
486.8000     0.000 -1026.327  -999.250  -999.250  -999.250  -999.250  -999.250  -999.250  -999.250  -999.250  -999.250  -999.250  -999.250  -999.250  -999.250   419.121
486.9000     0.000 -1026.327  -999.250  -999.250  -999.250  -999.250  -999.250  -999.250  -999.250  -999.250  -999.250  -999.250  -999.250  -999.250  -999.250   419.242
487.0000     0.000 -1005.382  -999.250  -999.250  -999.250  -999.250  -999.250  -999.250  -999.250  -999.250  -999.250  -999.250  -999.250  -999.250  -999.250   419.000
487.1000     0.000 -1017.600  -999.250  -999.250  -999.250  -999.250  -999.250  -999.250  -999.250  -999.250  -999.250  -999.250  -999.250  -999.250  -999.250   418.722
487.2000     0.000 -1026.327  -999.250  -999.250  -999.250  -999.250  -999.250  -999.250  -999.250  -999.250  -999.250  -999.250  -999.250  -999.250  -999.250   418.606
487.3000     0.000 -1049.018  -999.250  -999.250  -999.250  -999.250  -999.250  -999.250  -999.250  -999.250  -999.250  -999.250  -999.250  -999.250  -999.250   418.394
487.4000     0.000 -1050.764  -999.250  -999.250  -999.250  -999.250  -999.250  -999.250  -999.250  -999.250  -999.250  -999.250  -999.250  -999.250  -999.250   418.848
487.5000     0.000 -1029.818  -999.250  -999.250  -999.250  -999.250  -999.250  -999.250  -999.250  -999.250  -999.250  -999.250  -999.250  -999.250  -999.250   419.303
487.6000     0.000 -1041.600  -999.250  -999.250  -999.250  -999.250  -999.250  -999.250  -999.250  -999.250  -999.250  -999.250  -999.250  -999.250  -999.250   419.583
487.7000     0.000 -1038.545  -999.250  -999.250  -999.250  -999.250  -999.250  -999.250  -999.250  -999.250  -999.250  -999.250  -999.250  -999.250  -999.250   419.667
487.8000     0.000 -1026.327  -999.250  -999.250  -999.250  -999.250  -999.250  -999.250  -999.250  -999.250  -999.250  -999.250  -999.250  -999.250  -999.250   419.333
487.9000     0.000 -1047.273   140.733   139.562   140.210   127.971   122.166   114.331   105.924   125.042   262.899   253.893   246.134   253.013   253.985   419.485
488.0000     0.000 -1057.745   140.665   139.621   140.287   127.975   122.253   114.233   105.398   124.702   262.918   253.854   245.685   252.677   253.783   419.576
488.1000     0.000 -1042.036   140.530   139.721   140.461   128.002   122.302   114.214   105.671   124.649   262.832   253.935   246.132   252.651   253.887   419.455
488.2000     0.000 -1026.327   140.558   139.674   140.478   127.976   122.232   113.971   105.872   124.657   262.790   253.645   246.350   252.632   253.854   419.667
488.3000     0.000 -1010.618   140.751   139.683   140.499   127.987   122.229   113.751   105.795   124.753   262.980   253.434   246.294   252.739   253.862   419.606
488.4000     0.000 -1008.000   140.982   139.699   140.451   127.968   122.470   113.782   105.546   125.003   263.451   253.481   245.997   252.972   253.975   419.028
488.5000     0.000 -1005.382   141.110   139.776   140.404   127.879   122.673   113.840   105.447   125.174   263.783   253.616   245.851   253.053   254.076   418.848
488.6000     0.000  -991.418   141.138   139.892   140.728   127.801   122.709   113.869   105.552   124.967   263.847   253.761   246.280   252.768   254.164   418.667
488.7000     0.000  -996.800   141.192   140.011   140.811   127.812   122.657   113.562   105.701   124.966   263.849   253.572   246.512   252.778   254.178   418.889
488.8000     0.000  -991.418   141.277   139.772   140.738   127.796   122.608   113.384   105.801   125.008   263.884   253.156   246.539   252.804   254.096   419.000
488.9000     0.000 -1011.200   141.261   139.699   140.534   127.799   122.672   113.610   105.784   125.046   263.933   253.309   246.318   252.846   254.102   419.111
489.0000     1.000 -1005.785   141.218   139.827   140.513   127.793   122.625   114.257   105.861   125.141   263.843   254.084   246.374   252.934   254.309   419.103
489.1000     0.000 -1014.109   141.133   139.758   140.589   127.773   122.444   114.298   105.854   125.199   263.577   254.057   246.444   252.972   254.262   419.606
489.2000     0.000 -1019.200   141.124   139.829   140.768   127.763   122.448   114.085   106.012   125.284   263.571   253.914   246.780   253.047   254.328   419.667
489.3000     0.000 -1015.855   141.144   139.619   140.873   127.730   122.460   113.844   105.568   125.020   263.604   253.462   246.441   252.750   254.064   419.667
489.4000     0.000 -1005.382   141.158   139.568   140.756   127.655   122.492   113.674   105.279   124.862   263.650   253.241   246.035   252.517   253.861   419.667
489.5000     0.000 -1001.891   141.078   139.723   140.737   127.668   122.445   114.070   105.392   124.654   263.523   253.794   246.129   252.323   253.942   419.364
489.6000     0.000 -1024.000   140.940   139.906   140.732   127.667   122.320   114.261   105.338   124.656   263.260   254.167   246.070   252.323   253.955   419.333
489.7000     0.000 -1001.891   140.895   140.014   140.772   127.670   122.294   114.339   105.281   124.770   263.189   254.353   246.053   252.440   254.009   419.424
