~Version Information
VERS.                     2.0 : CWLS Log ASCII Standart
WRAP.                     NO  : One line per depth step
~Well Information
STRT.M                       485.0000  : Start Depth
STOP.M                      1606.7000  : Stop Depth
STEP.M                         0.1000  : Step
NULL.                         -999.25  : Null Value
COMP.                                  : Company
WELL.                                  : Well
FLD .                                  : Field
LOC .                                  : Location
PROV.                                  : Province
SRVC.                                  : Service Company
DATE.      06/12/2011                  : Log Date
UWI .                                  : Unique Well ID
~Curve Information
DEPT.M                                 :
mapo_ds.                                  :
speed_ds.                                   :
R1_ds.¬¬                                  :
R2_ds.¬¬                                  :
R3_ds.¬¬                                  :
R4_ds.¬¬                                  :
R5_ds.¬¬                                  :
R6_ds.¬¬                                  :
R7_ds.¬¬                                  :
R8_ds.¬¬                                  :
PR1_ds.¬¬                                  :
PR2_ds.¬¬                                  :
PR3_ds.¬¬                                  :
PR4_ds.¬¬                                  :
DS_ds.¬¬                                 :
tense_ds.                                 :
~ASCII Log Data
# ...
1008.2000     0.000 -1152.000   132.748   117.830   120.261   114.856   123.671   131.323   125.596   134.550   256.419   249.153   245.857   249.407   250.209   740.567
1008.3000     0.000 -1152.000   132.895   117.721   119.577   113.126   123.913   131.971   127.218   135.442   256.808   249.692   246.796   248.568   250.466   740.333
1008.4000     0.000 -1105.920   133.762   117.086   119.145   113.627   123.696   132.195   127.432   135.610   257.458   249.281   246.577   249.237   250.638   740.133
1008.5000     0.000 -1094.400   133.713   117.152   118.837   113.833   123.729   131.954   127.575   136.195   257.442   249.107   246.412   250.028   250.747   739.567
1008.6000     0.000 -1141.527   132.757   117.150   119.772   113.221   123.574   131.492   127.435   135.962   256.331   248.642   247.207   249.183   250.341   738.485
1008.7000     0.000 -1123.200   132.667   116.970   120.447   114.003   123.939   131.636   127.296   136.340   256.606   248.606   247.744   250.343   250.825   736.333
1008.8000     0.000 -1094.400   133.711   117.893   120.528   114.143   123.525   131.976   127.236   135.902   257.235   249.869   247.764   250.045   251.228   731.967
1008.9000     0.000 -1125.818   132.600   117.722   120.760   114.197   122.885   131.952   127.332   136.086   255.484   249.673   248.092   250.283   250.883   722.242
1009.0000     1.000 -1152.000   132.985   116.845   120.768   114.307   123.264   131.377   127.588   135.989   256.249   248.223   248.357   250.297   250.781   715.333
1009.1000     0.000 -1094.400   134.221   118.016   120.825   114.128   124.218   131.330   127.870   136.053   258.439   249.346   248.695   250.181   251.665   737.800
1009.2000     0.000 -1115.345   131.356   116.099   120.689   113.778   124.265   131.052   126.225   134.776   255.621   247.150   246.914   248.554   249.560   735.485
1009.3000     0.000 -1094.400   130.796   115.943   120.293   113.778   124.364   131.973   126.128   134.668   255.160   247.916   246.421   248.446   249.486   729.900
1009.4000     0.000 -1115.345   130.154   115.669   119.860   113.481   124.346   132.141   126.182   134.502   254.500   247.810   246.042   247.982   249.084   717.545
1009.5000     0.000 -1152.000   129.943   115.085   119.171   112.784   124.255   131.771   125.609   133.783   254.198   246.855   244.781   246.567   248.100   718.067
1009.6000     0.000 -1152.000   129.873   115.090   118.577   114.404   124.779   131.417   124.577   132.843   254.651   246.507   243.154   247.246   247.890   731.767
1009.7000     0.000 -1152.000   129.902   114.997   118.482   113.668   124.503   131.447   124.846   132.813   254.404   246.444   243.328   246.480   247.664   727.800
1009.8000     0.000 -1123.200   130.150   114.493   118.399   112.552   124.290   131.845   125.876   133.794   254.441   246.338   244.275   246.345   247.850   713.400
1009.9000     0.000 -1094.400   129.985   114.208   118.288   112.586   124.190   131.784   125.881   133.674   254.175   245.991   244.169   246.260   247.649   705.667
1010.0000     0.000 -1125.818   130.078   114.160   118.256   112.140   124.120   131.954   125.984   133.615   254.198   246.114   244.240   245.755   247.577   712.303
1010.1000     0.000 -1152.000   130.075   114.113   118.253   111.952   124.388   132.467   126.725   134.154   254.463   246.580   244.978   246.106   248.032   726.433
1010.2000     0.000 -1152.000   130.498   114.496   118.327   111.894   124.299   132.814   127.567   134.833   254.797   247.310   245.894   246.727   248.682   738.967
1010.3000     0.000 -1152.000   130.498   114.282   118.454   111.812   124.335   133.379   128.202   134.829   254.833   247.660   246.656   246.641   248.948   739.500
1010.4000     0.000 -1152.000   129.790   114.424   118.999   112.428   124.168   133.459   128.616   135.067   253.958   247.883   247.615   247.495   249.238   739.667
1010.5000     0.000 -1134.720   130.741   115.401   119.509   113.312   124.616   133.617   129.279   135.013   255.357   249.019   248.788   248.326   250.372   739.600
1010.6000     0.000 -1094.400   131.631   116.380   119.576   113.582   125.044   134.246   129.943   136.053   256.675   250.627   249.519   249.635   251.614   739.267
1010.7000     0.000 -1117.091   132.131   116.320   119.024   113.327   124.850   134.146   130.159   136.818   256.981   250.466   249.182   250.144   251.693   738.182
1010.8000     0.000 -1155.840   132.357   116.078   118.441   113.452   125.135   134.620   130.606   136.565   257.492   250.698   249.047   250.017   251.813   735.133
1010.9000     0.000 -1150.080   132.678   116.072   118.245   113.864   125.741   135.370   131.050   137.578   258.420   251.442   249.295   251.442   252.650   734.267
1011.0000     0.000 -1148.160   132.793   116.262   118.882   113.891   125.412   135.030   130.814   136.989   258.205   251.291   249.696   250.880   252.518   740.433
1011.1000     0.000 -1150.080   132.860   117.041   119.744   114.323   125.473   135.335   130.457   135.582   258.333   252.376   250.201   249.904   252.703   739.833
1011.2000     0.000 -1096.320   133.410   117.167   119.797   114.405   125.345   135.699   130.354   135.852   258.754   252.866   250.151   250.257   253.007   738.833
1011.3000     0.000 -1096.320   131.632   117.192   119.851   114.234   125.252   135.409   130.270   136.131   256.884   252.601   250.122   250.365   252.493   737.167
1011.4000     0.000 -1113.600   131.202   117.117   119.849   114.209   124.924   132.669   127.292   134.397   256.126   249.786   247.141   248.606   250.415   734.515
1011.5000     0.000 -1094.400   131.863   117.509   119.835   114.295   124.967   132.564   127.053   133.766   256.830   250.072   246.888   248.062   250.463   728.333
1011.6000     0.000 -1136.291   131.536   116.697   119.299   114.004   124.739   132.660   127.960   133.965   256.274   249.357   247.259   247.968   250.215   731.424
1011.7000     0.000 -1117.440   131.323   115.703   118.833   114.005   125.125   132.991   128.385   134.466   256.448   248.694   247.219   248.471   250.208   725.000
1011.8000     0.000 -1094.400   131.809   116.344   118.701   114.433   125.045   133.513   129.476   135.087   256.854   249.857   248.177   249.519   251.102   710.000
1011.9000     0.000 -1131.055   132.326   114.859   118.681   114.760   125.660   134.892   132.049   136.882   257.986   249.751   250.729   251.642   252.527   706.727
1012.0000     0.000 -1117.440   134.897   116.877   120.161   114.752   128.207   141.389   140.548   143.017   263.104   258.266   260.709   257.769   259.962   714.200
1012.1000     0.000 -1094.400   135.516   117.573   120.627   115.541   128.906   142.098   141.636   143.667   264.422   259.672   262.263   259.208   261.391   730.600
1012.2000     0.000 -1131.055   134.739   117.703   120.841   115.893   128.953   141.762   141.421   143.552   263.692   259.465   262.262   259.445   261.216   741.879
1012.3000     0.000 -1111.680   134.430   117.360   120.860   115.918   128.268   141.038   139.763   143.839   262.699   258.398   260.623   259.757   260.369   743.233
1012.4000     0.000 -1094.400   134.849   117.732   120.856   115.750   128.632   143.322   141.906   144.611   263.481   261.054   262.763   260.361   261.915   747.167
1012.5000     0.000 -1115.345   135.254   118.225   121.120   117.084   128.888   142.040   142.269   144.586   264.142   260.265   263.389   261.670   262.367   745.636
1012.6000     0.000 -1094.400   135.099   119.039   122.242   117.894   129.093   138.745   138.246   143.405   264.191   257.785   260.488   261.299   260.941   731.700
1012.7000     0.000 -1120.582   135.132   119.187   121.971   117.556   126.994   139.717   139.769   144.392   262.126   258.904   261.741   261.948   261.180   722.242
1012.8000     0.000 -1152.000   134.596   119.473   121.120   118.438   127.976   135.166   135.498   140.156   262.572   254.639   256.618   258.594   258.106   723.933
1012.9000     0.000 -1152.000   132.850   116.880   119.155   114.589   125.598   137.297   138.789   143.446   258.448   254.177   257.944   258.036   257.151   711.667
