~Version Information
VERS.                     2.0 : CWLS Log ASCII Standart
WRAP.                     NO  : One line per depth step
~Well Information
STRT.M                       485.0000  : Start Depth
STOP.M                      1606.7000  : Stop Depth
STEP.M                         0.1000  : Step
NULL.                         -999.25  : Null Value
COMP.                                  : Company
WELL.                                  : Well
FLD .                                  : Field
LOC .                                  : Location
PROV.                                  : Province
SRVC.                                  : Service Company
DATE.      06/12/2011                  : Log Date
UWI .                                  : Unique Well ID
~Curve Information
DEPT.M                                 :
mapo_ds.                                  :
speed_ds.                                   :
R1_ds.¬¬                                  :
R2_ds.¬¬                                  :
R3_ds.¬¬                                  :
R4_ds.¬¬                                  :
R5_ds.¬¬                                  :
R6_ds.¬¬                                  :
R7_ds.¬¬                                  :
R8_ds.¬¬                                  :
PR1_ds.¬¬                                  :
PR2_ds.¬¬                                  :
PR3_ds.¬¬                                  :
PR4_ds.¬¬                                  :
DS_ds.¬¬                                 :
tense_ds.                                 :
~ASCII Log Data
# ...
633.8000     0.000 -1256.533   133.771   120.883   121.997   115.984   123.692   126.249   119.607   131.821   257.464   247.131   241.603   247.805   248.501   498.630
633.9000     0.000 -1260.800   133.274   121.075   122.016   116.066   123.712   125.839   118.803   130.977   256.986   246.914   240.820   247.042   247.940   499.111
634.0000     0.000 -1260.800   133.346   121.122   122.052   115.565   123.833   126.354   119.080   131.186   257.179   247.476   241.132   246.751   248.135   500.185
634.1000     0.000 -1260.800   133.544   121.128   122.093   115.332   123.519   125.846   118.855   131.238   257.063   246.975   240.948   246.570   247.889   502.185
634.2000     0.000 -1256.533   133.946   121.423   122.157   115.980   123.830   125.985   119.288   131.405   257.776   247.408   241.445   247.386   248.504   506.074
634.3000     0.000 -1263.360   133.882   121.510   122.168   115.248   123.378   125.936   119.219   131.434   257.260   247.446   241.387   246.681   248.194   501.233
634.4000     0.000 -1243.733   133.894   122.037   122.164   115.309   123.363   126.228   119.335   131.380   257.256   248.265   241.499   246.690   248.427   498.444
634.5000     0.000 -1228.800   134.318   122.545   122.193   115.321   123.520   126.192   119.513   131.537   257.838   248.737   241.707   246.858   248.785   498.037
634.6000     0.000 -1248.000   134.852   122.625   122.186   115.471   123.520   126.268   119.604   131.928   258.372   248.892   241.790   247.398   249.113   498.000
634.7000     0.000 -1244.160   134.996   122.784   122.209   115.391   123.510   126.302   119.493   132.035   258.506   249.086   241.702   247.426   249.180   497.667
634.8000     0.000 -1254.400   135.621   123.109   122.315   115.367   123.789   126.525   119.727   132.250   259.410   249.634   242.042   247.617   249.676   497.667
634.9000     0.000 -1248.000   135.837   123.222   122.156   115.509   124.037   126.991   120.082   132.765   259.874   250.213   242.238   248.274   250.150   497.296
635.0000     0.000 -1237.333   136.156   123.301   122.168   115.827   124.546   126.856   120.067   132.960   260.702   250.156   242.235   248.787   250.470   497.000
635.1000     0.000 -1259.520   136.148   123.591   122.193   116.049   125.016   127.465   120.207   132.995   261.164   251.056   242.401   249.044   250.916   497.000
635.2000     0.000 -1254.400   135.099   123.679   122.194   116.161   124.744   127.202   120.370   132.574   259.843   250.881   242.564   248.735   250.506   497.222
635.3000     0.000 -1254.400   135.229   123.671   122.184   116.241   124.925   126.947   119.825   132.637   260.153   250.618   242.009   248.878   250.415   497.407
635.4000     0.000 -1237.333   136.700   123.397   122.177   116.206   125.091   127.557   120.260   133.423   261.791   250.954   242.437   249.630   251.203   497.815
635.5000     0.000 -1239.467   134.301   123.361   122.159   116.211   125.116   127.649   120.290   132.345   259.416   251.010   242.449   248.556   250.358   498.222
635.6000     0.000 -1255.680   133.825   123.345   122.182   116.218   125.037   127.551   120.215   132.178   258.862   250.896   242.397   248.395   250.138   498.467
635.7000     0.000 -1235.200   133.884   122.720   122.202   116.258   124.869   127.381   120.207   131.799   258.753   250.101   242.409   248.056   249.830   498.148
635.8000     0.000 -1241.600   133.807   122.730   122.206   116.298   125.324   128.239   120.436   132.081   259.131   250.970   242.642   248.379   250.280   498.000
635.9000     0.000 -1267.200   133.323   122.794   122.215   116.072   125.387   128.475   120.651   132.063   258.710   251.269   242.866   248.135   250.245   498.000
636.0000     0.000 -1263.360   133.471   122.800   122.217   116.192   125.847   128.985   120.812   132.173   259.317   251.784   243.029   248.365   250.624   498.100
636.1000     0.000 -1262.933   133.499   122.783   122.206   116.404   126.345   129.257   120.784   132.321   259.844   252.040   242.990   248.725   250.900   498.667
636.2000     0.000 -1256.533   132.527   122.604   122.209   116.506   127.335   130.499   121.290   132.271   259.862   253.103   243.499   248.777   251.310   498.481
636.3000     0.000 -1241.600   132.060   122.486   122.210   116.159   127.655   131.417   121.944   131.605   259.716   253.903   244.154   247.764   251.384   498.333
636.4000     0.000 -1241.600   132.158   122.506   122.217   116.500   127.582   130.734   121.126   131.190   259.740   253.240   243.343   247.691   251.004   498.333
636.5000     0.000 -1260.800   132.118   122.487   122.172   117.271   128.532   131.346   121.153   131.429   260.650   253.833   243.325   248.700   251.627   498.259
636.6000     0.000 -1253.760   131.829   122.099   122.171   115.909   123.822   127.492   119.798   131.413   255.651   249.591   241.969   247.322   248.633   498.067
636.7000     0.000 -1243.733   132.095   122.050   122.173   115.456   123.144   126.466   119.555   131.718   255.239   248.517   241.728   247.174   248.164   498.593
636.8000     0.000 -1248.000   132.194   122.053   122.152   115.703   123.210   126.400   119.559   131.811   255.405   248.454   241.712   247.514   248.271   499.222
636.9000     0.000 -1260.800   132.233   121.905   122.068   115.929   122.974   126.100   119.470   132.135   255.208   248.006   241.539   248.064   248.204   500.481
637.0000     0.000 -1262.933   132.227   121.842   122.030   116.266   122.785   126.294   119.671   132.495   255.012   248.136   241.700   248.762   248.403   502.926
637.1000     0.000 -1265.280   132.288   121.771   122.031   116.294   122.743   126.085   119.681   132.547   255.031   247.856   241.712   248.841   248.360   509.000
637.2000     0.000 -1267.200   132.331   121.906   122.007   116.058   122.621   125.367   119.714   132.295   254.952   247.273   241.721   248.352   248.075   520.444
637.3000     0.000 -1267.200   132.691   122.465   122.041   116.191   122.869   125.401   119.485   132.120   255.560   247.866   241.526   248.311   248.316   526.889
637.4000     0.000 -1222.400   133.008   122.568   122.063   116.562   123.468   126.062   119.878   133.099   256.476   248.630   241.941   249.661   249.177   515.148
637.5000     0.000 -1228.800   132.953   122.540   122.071   116.740   123.752   126.312   120.418   133.602   256.705   248.852   242.489   250.342   249.597   499.222
637.6000     0.000 -1248.000   132.841   122.254   122.056   117.048   124.168   126.311   120.491   133.676   257.009   248.564   242.547   250.724   249.711   497.667
637.7000     0.000 -1216.000   132.820   122.057   122.051   117.161   124.232   126.358   120.338   133.398   257.052   248.415   242.389   250.559   249.604   497.593
637.8000     0.000 -1230.933   132.786   122.021   122.049   117.182   124.115   126.150   120.334   133.267   256.901   248.171   242.383   250.449   249.476   497.333
637.9000     0.000 -1224.960   132.754   121.962   122.071   117.186   123.956   125.926   120.233   133.013   256.710   247.888   242.304   250.199   249.275   497.333
638.0000     0.000 -1218.133   132.682   121.754   122.076   116.750   123.313   125.960   120.060   132.356   255.995   247.715   242.136   249.106   248.738   497.481
638.1000     0.000 -1241.600   132.497   121.642   122.083   116.519   123.055   125.933   119.837   131.788   255.552   247.575   241.920   248.307   248.338   497.556
638.2000     0.000 -1215.360   132.497   121.640   122.083   116.415   122.989   125.839   119.879   131.922   255.486   247.479   241.962   248.337   248.316   497.467
638.3000     0.000 -1235.200   132.511   121.683   122.067   116.409   122.869   125.839   119.969   131.924   255.380   247.522   242.036   248.334   248.318   497.852
638.4000     0.000 -1213.440   132.600   121.739   122.075   116.220   122.896   125.945   120.079   132.049   255.496   247.684   242.154   248.269   248.400   498.167
638.5000     0.000 -1211.733   132.811   121.887   122.055   116.105   122.638   126.020   120.186   132.269   255.449   247.907   242.241   248.374   248.493   498.593
