~Version Information
VERS.                     2.0 : CWLS Log ASCII Standart
WRAP.                     NO  : One line per depth step
~Well Information
STRT.M                      1451.2000  : Start Depth
STOP.M                      1602.5000  : Stop Depth
STEP.M                         0.1000  : Step
NULL.                         -999.25  : Null Value
COMP.                                  : Company
WELL.                                  : Well
FLD .                                  : Field
LOC .                                  : Location
PROV.                                  : Province
SRVC.                                  : Service Company
DATE.      06/12/2011                  : Log Date
UWI .                                  : Unique Well ID
~Curve Information
DEPT.M                                 :
mapo_mek.                                  :
speed_mek.                                   :
MGZ_mek.Ž¬                                 :
MPZ_mek.Ž¬                                 :
BMK_mek.O¬                                 :
U_mek.‚                                    :
J_mek.A                                    :
tense_mek.                                 :
~ASCII Log Data
# ...
1531.3000     0.000  -822.090     0.762     0.685    60.944     0.368     0.000   946.846
1531.4000     0.000  -821.789     1.792     1.628    67.971     0.473     0.000   946.929
1531.5000     0.000  -816.719     2.081     1.510    55.870     0.423     0.000   947.000
1531.6000     0.000  -823.816     0.796     0.854     1.969     0.236     0.002   946.897
1531.7000     0.000  -806.681     0.220     0.415     0.356     0.197     0.008   946.667
1531.8000     0.000  -827.716     0.064     0.182     0.571     0.183     0.005   946.667
1531.9000     0.000  -822.665     0.049     0.172     0.743     0.183     0.004   946.667
1532.0000     0.000  -820.939     0.064     0.181     0.674     0.187     0.004   946.795
1532.1000     0.000  -813.417     0.047     0.146     0.526     0.175     0.005   946.929
1532.2000     0.000  -805.403     0.036     0.133     0.433     0.191     0.007   947.000
1532.3000     0.000  -818.829     0.041     0.179     1.452     0.221     0.002   946.795
1532.4000     0.000  -809.814     0.898     1.032   117.032     0.400     0.000   946.974
1532.5000     0.000  -818.048     2.093     1.958   132.318     0.466     0.000   947.000
1532.6000     0.000  -812.116     3.590     2.068   134.333     0.458     0.000   946.897
1532.7000     0.000  -807.704     3.165     2.091    30.685     0.444     0.000   946.667
1532.8000     0.000  -807.362     2.293     1.456     9.962     0.310     0.000   946.667
1532.9000     0.000  -802.653     1.793     1.013     1.232     0.302     0.004   946.974
1533.0000     0.000  -804.188     0.212     0.510     6.529     0.302     0.001   946.820
1533.1000     0.000  -799.050     0.758     0.991    32.204     0.390     0.000   946.667
1533.2000     0.000  -803.384     2.888     1.368    13.477     0.413     0.000   946.667
1533.3000     0.000  -804.987     1.487     1.262    62.227     0.422     0.000   946.917
1533.4000     0.000  -816.030     3.511     1.956   121.647     0.462     0.000   947.000
1533.5000     0.000  -816.623     3.565     2.108    82.549     0.462     0.000   946.857
1533.6000     0.000  -811.349     3.313     1.901    96.456     0.464     0.000   946.667
1533.7000     0.000  -804.444     2.506     1.762    62.037     0.468     0.000   946.846
1533.8000     0.000  -817.103     2.751     1.721    46.200     0.481     0.000   946.923
1533.9000     0.000  -817.359     3.128     2.026    35.381     0.470     0.000   946.769
1534.0000     0.000  -808.280     2.793     1.983    47.846     0.463     0.000   946.718
1534.1000     0.000  -806.174     1.915     1.844    42.541     0.402     0.000   946.667
1534.2000     0.000  -801.630     2.754     1.758     0.778     0.269     0.005   946.846
1534.3000     0.000  -818.939     1.599     0.601     0.560     0.261     0.007   946.881
1534.4000     0.000  -819.980     0.354     0.498    30.981     0.324     0.000   946.820
1534.5000     0.000  -817.732     2.707     1.757    33.956     0.394     0.000   946.667
1534.6000     0.000  -819.477     1.939     1.489    21.603     0.393     0.000   946.911
1534.7000     0.000  -805.594     1.410     1.113    23.357     0.388     0.000   946.897
1534.8000     0.000  -810.006     0.946     1.107    26.599     0.377     0.000   946.769
1534.9000     0.000  -812.883     0.871     1.023    12.446     0.378     0.000   946.744
1535.0000     0.000  -809.303     1.005     1.595    18.538     0.366     0.000   946.923
1535.1000     0.000  -806.709     1.349     1.485    27.652     0.417     0.000   946.952
1535.2000     1.000  -792.424     2.837     1.699    14.961     0.466     0.000   947.000
1535.3000     1.000  -809.499     1.940     1.841    52.395     0.494     0.000   946.667
1535.4000     1.000  -810.581     2.516     1.947    83.646     0.500     0.000   946.949
1535.5000     1.000  -811.732     1.807     1.792    55.064     0.482     0.000   947.000
1535.6000     1.000  -819.724     2.547     1.481    21.255     0.363     0.000   947.000
1535.7000     1.000  -806.531     1.868     1.504     0.467     0.279     0.009   946.738
1535.8000     1.000  -815.377     1.246     0.349     1.084     0.265     0.004   946.667
1535.9000     1.000  -804.252     0.621     0.630    33.748     0.344     0.000   946.718
1536.0000     1.000  -798.456     2.310     1.875    26.064     0.396     0.000   947.000
1536.1000     1.000  -805.275     2.973     1.957    30.328     0.435     0.000   947.000
1536.2000     1.000  -808.472     2.376     2.010    26.684     0.453     0.000   946.795
1536.3000     1.000  -813.892     2.814     2.060    33.377     0.461     0.000   946.667
1536.4000     1.000  -812.627     2.002     1.841    78.174     0.496     0.000   946.667
1536.5000     1.000  -807.768     2.785     1.926    56.236     0.503     0.000   946.744
1536.6000     1.000  -812.947     3.375     1.807    50.451     0.501     0.000   946.846
1536.7000     1.000  -808.193     2.119     2.121    89.759     0.493     0.000   946.667
1536.8000     1.000  -824.282     1.945     2.029    98.035     0.481     0.000   946.762
1536.9000     1.000  -806.937     2.949     1.705    52.622     0.482     0.000   947.000
1537.0000     1.000  -806.937     2.963     2.299    57.883     0.493     0.000   947.000
1537.1000     1.000  -818.829     3.173     2.065    82.701     0.488     0.000   947.000
1537.2000     1.000  -814.993     3.151     2.059    70.251     0.483     0.000   947.000
1537.3000     1.000  -822.323     2.199     1.828    52.795     0.486     0.000   947.000
1537.4000     1.000  -810.874     2.429     1.632    55.538     0.499     0.000   947.056
1537.5000     1.000  -813.180     2.297     1.496    52.222     0.510     0.000   947.000
1537.6000     1.000  -813.203     2.305     1.336    76.274     0.520     0.000   947.000
1537.7000     1.000  -806.362     2.329     1.917    69.144     0.520     0.000   946.923
1537.8000     1.000  -819.469     2.301     2.047    52.431     0.511     0.000   946.923
1537.9000     1.000  -814.486     2.451     1.715    28.330     0.512     0.000   947.000
1538.0000     1.000  -809.814     2.709     1.715    73.821     0.513     0.000   947.000
1538.1000     1.000  -816.980     2.567     2.090    75.930     0.523     0.000   947.000
1538.2000     1.000  -814.609     2.039     1.814    53.597     0.531     0.000   947.000
1538.3000     1.000  -826.118     2.054     1.798    43.665     0.522     0.000   947.000
1538.4000     1.000  -824.903     2.522     1.704    55.836     0.523     0.000   947.000
1538.5000     0.000  -806.362     3.206     2.397    71.256     0.522     0.000   947.000
1538.6000     0.000  -808.216     2.803     2.012    55.694     0.515     0.000   946.769
1538.7000     0.000  -806.234     1.494     1.660    42.258     0.381     0.000   946.667
1538.8000     0.000  -806.362     1.993     1.337     0.494     0.303     0.009   946.744
1538.9000     0.000  -790.314     0.906     0.418     2.205     0.298     0.002   946.667
1539.0000     1.000  -804.571     0.626     0.517    29.058     0.410     0.000   946.667
1539.1000     0.000  -795.940     1.887     1.434    23.114     0.397     0.000   946.667
1539.2000     0.000  -800.653     2.180     1.741    17.987     0.380     0.000   946.667
1539.3000     0.000  -818.829     2.116     1.649    19.265     0.393     0.000   946.820
1539.4000     0.000  -818.637     1.552     1.309    19.432     0.388     0.000   946.692
1539.5000     0.000  -830.529     1.244     1.324    18.744     0.376     0.000   946.667
1539.6000     0.000  -818.254     1.815     1.478    18.617     0.368     0.000   946.667
1539.7000     0.000  -818.062     2.243     1.681    17.608     0.381     0.000   946.692
1539.8000     0.000  -820.236     2.404     1.705    17.562     0.380     0.000   946.718
1539.9000     0.000  -798.753     1.761     1.649    16.568     0.383     0.000   946.667
1540.0000     0.000  -805.594     2.705     1.523    17.781     0.378     0.000   946.667
1540.1000     0.000  -789.670     0.817     0.780    18.135     0.370     0.000   946.667
