~Version Information
VERS.                     2.0 : CWLS Log ASCII Standart
WRAP.                     NO  : One line per depth step
~Well Information
STRT.M                      1422.8000  : Start Depth
STOP.M                      1601.3000  : Stop Depth
STEP.M                         0.1000  : Step
NULL.                         -999.25  : Null Value
COMP.                                  : Company
WELL.                                  : Well
FLD .                                  : Field
LOC .                                  : Location
PROV.                                  : Province
SRVC.                                  : Service Company
DATE.      06/12/2011                  : Log Date
UWI .                                  : Unique Well ID
~Curve Information
DEPT.M                                 :
mapo_ek.                                  :
speed_ek.                                   :
IK_ek.¬‘¬/¬                            :
BK_ek.Ž¬¬                              :
A4M05N_ek.O¬¬                  :
A8M1N_ek.Ž¬¬                  :
A04M01N_ek.Ž¬¬                  :
A1M01N_ek.Ž¬¬                  :
A2M05N_ek.Ž¬¬                  :
REZ_ek.Ž¬¬                   :
tense_ek.                                 :
_GK_ek.¨¬¯/c                               :
PS_ek.                                 :
~ASCII Log Data
# ...
1585.2000  -999.250  -999.250   107.010    29.272    41.203   106.663     1.030     5.307    20.598     0.052  1049.933     1.525 -1432.895
1585.3000  -999.250  -999.250   107.357    39.410    40.193   104.694     0.999     5.137    19.983     0.052  1050.067     3.232 -1432.903
1585.4000  -999.250  -999.250   108.566    54.020    39.397   102.828     0.980     5.039    19.571     0.052  1051.185     3.878 -1432.700
1585.5000  -999.250  -999.250   109.441    73.651    39.169   101.435     0.963     4.953    19.404     0.052  1056.300     5.468 -1432.642
1585.6000  -999.250  -999.250   108.755   101.592    39.227   100.571     0.963     4.951    19.357     0.052  1049.967     7.265 -1432.808
1585.7000  -999.250  -999.250   104.323   140.129    39.507   100.306     0.969     4.973    19.399     0.052  1049.833     6.228 -1432.917
1585.8000  -999.250  -999.250    99.842   194.193    39.931   100.357     0.975     4.989    19.532     0.052  1049.700     4.726 -1432.885
1585.9000  -999.250  -999.250    96.243   285.474    40.468   100.518     0.983     5.025    19.670     0.052  1050.000     4.809 -1432.570
1586.0000  -999.250  -999.250    93.335   451.166    41.135   100.823     0.997     5.071    19.828     0.052  1050.000     5.529 -1432.583
1586.1000  -999.250  -999.250    88.696   600.170    41.752   101.303     1.008     5.128    19.999     0.052  1049.818     6.628 -1432.703
1586.2000  -999.250  -999.250    83.454   567.104    42.168   101.493     1.025     5.203    20.133     0.052  1049.917     6.938 -1432.813
1586.3000  -999.250  -999.250    77.548   366.192    42.558   101.571     1.038     5.264    20.215     0.052  1049.933     5.568 -1432.691
1586.4000  -999.250  -999.250    73.430   220.144    43.100   101.632     1.036     5.257    20.340     0.052  1049.697     5.469 -1432.496
1586.5000  -999.250  -999.250    71.366   135.252    43.577   101.543     1.038     5.259    20.329     0.052  1049.667     5.553 -1432.575
1586.6000  -999.250  -999.250    69.119    93.877    43.259   101.609     1.058     5.361    20.221     0.052  1049.767     4.702 -1433.048
1586.7000  -999.250  -999.250    72.303    85.438    43.226   101.701     1.039     5.259    20.162     0.052  1049.867     4.412 -1433.351
1586.8000  -999.250  -999.250    76.997   109.102    43.252   101.327     1.025     5.203    20.108     0.052  1049.889     4.901 -1433.625
1586.9000  -999.250  -999.250    79.779   160.757    43.270   101.438     1.035     5.246    20.056     0.051  1049.833     6.038 -1433.770
1587.0000  -999.250  -999.250    85.232   199.397    43.548   101.717     1.027     5.240    20.121     0.052  1050.000     6.244 -1434.110
1587.1000  -999.250  -999.250    86.873   249.285    43.665   101.701     1.042     5.323    20.118     0.051  1050.000     7.476 -1434.572
1587.2000  -999.250  -999.250    80.580   305.857    44.052   101.952     1.060     5.428    20.222     0.051  1050.467     8.059 -1434.872
1587.3000  -999.250  -999.250    78.170   342.290    44.565   102.371     1.041     5.278    20.451     0.051  1053.000     7.249 -1434.913
1587.4000  -999.250  -999.250    72.199   368.485    44.922   102.851     1.058     5.455    20.571     0.051  1057.800     6.391 -1434.975
1587.5000  -999.250  -999.250    67.071   282.351    45.199   103.402     1.091     5.611    20.683     0.051  1054.733     5.291 -1435.093
1587.6000  -999.250  -999.250    84.206   238.819    45.690   103.876     1.083     5.543    20.942     0.051  1049.889     4.810 -1435.417
1587.7000  -999.250  -999.250    94.418   243.450    46.135   104.257     1.093     5.584    21.132     0.051  1050.000     3.805 -1435.694
1587.8000  -999.250  -999.250   101.798   240.955    46.318   105.065     1.103     5.641    21.242     0.051  1049.917     4.028 -1435.878
1587.9000  -999.250  -999.250   111.984   230.673    46.642   105.513     1.106     5.692    21.412     0.052  1049.741     5.306 -1436.016
1588.0000  -999.250  -999.250    98.612   229.716    46.949   105.751     1.115     5.718    21.619     0.051  1050.000     6.575 -1436.183
1588.1000  -999.250  -999.250    90.802   239.308    47.243   106.012     1.121     5.753    21.798     0.051  1050.185     6.742 -1436.114
1588.2000  -999.250  -999.250    88.272   260.784    47.570   106.346     1.128     5.795    21.939     0.051  1050.600     5.065 -1435.988
1588.3000  -999.250  -999.250    84.732   264.691    47.830   106.657     1.136     5.866    22.111     0.051  1053.370     5.341 -1435.660
1588.4000  -999.250  -999.250    81.073   217.449    47.973   106.933     1.141     5.898    22.221     0.051  1058.714     7.982 -1435.191
1588.5000  -999.250  -999.250    79.218   166.837    48.094   107.184     1.159     5.894    22.311     0.051  1054.333     7.788 -1434.669
1588.6000  -999.250  -999.250    78.955   152.646    48.190   107.296     1.141     5.894    22.380     0.051  1049.778     5.005 -1434.082
1588.7000  -999.250  -999.250    80.322   166.166    48.305   107.430     1.140     5.883    22.455     0.051  1049.767     4.088 -1433.291
1588.8000  -999.250  -999.250    81.331   180.807    48.382   107.409     1.141     5.913    22.496     0.051  1050.000     5.429 -1432.974
1588.9000  -999.250  -999.250    82.303   164.523    48.441   107.293     1.149     6.026    22.546     0.051  1050.042     6.063 -1432.663
1589.0000  -999.250  -999.250    83.149   126.035    48.448   106.957     1.152     5.960    22.651     0.051  1050.467     6.955 -1432.480
1589.1000  -999.250  -999.250    83.791   118.421    48.394   106.585     1.144     5.917    22.682     0.051  1053.167     6.919 -1432.309
1589.2000  -999.250  -999.250    84.390   131.051    48.363   106.448     1.135     5.908    22.616     0.051  1062.111     4.156 -1432.074
1589.3000  -999.250  -999.250    85.283   125.189    48.354   106.256     1.139     5.938    22.565     0.051  1065.815     2.970 -1431.944
1589.4000  -999.250  -999.250    86.440    92.051    47.809   106.015     1.139     5.943    22.442     0.051  1066.926     3.516 -1432.150
1589.5000  -999.250  -999.250    87.855    72.145    47.611   105.536     1.129     5.870    22.280     0.051  1061.500     4.223 -1432.133
1589.6000  -999.250  -999.250    88.664    66.397    47.540   104.769     1.100     5.762    21.951     0.051  1063.417     5.126 -1432.070
1589.7000  -999.250  -999.250    88.079    57.006    47.536   103.335     1.076     5.667    21.578     0.051  1062.074     5.042 -1431.863
1589.8000  -999.250  -999.250    87.486    52.777    47.529   102.157     1.041     5.465    21.077     0.051  1054.367     6.072 -1431.765
1589.9000  -999.250  -999.250    87.859    59.501    47.537   100.971     1.010     5.274    20.503     0.051  1067.000     7.660 -1431.990
1590.0000  -999.250  -999.250    88.926    66.632    47.534    99.732     0.991     5.175    20.034     0.051  1087.800     5.801 -1432.303
1590.1000  -999.250  -999.250    90.855    66.994    47.534    98.575     0.983     5.112    19.652     0.051  1085.810     3.742 -1432.559
1590.2000  -999.250  -999.250    92.114    85.534    47.537    97.728     0.940     4.910    19.405     0.051  1085.000     4.184 -1432.734
1590.3000  -999.250  -999.250    92.568   120.699    47.518    97.284     0.940     4.872    19.164     0.051  1089.042     4.668 -1432.988
1590.4000  -999.250  -999.250    93.344   150.066    47.550    97.088     0.934     4.844    19.007     0.051  1088.222     5.019 -1433.423
1590.5000  -999.250  -999.250    93.598   170.157    47.556    97.086     0.932     4.834    18.998     0.051  1082.515     5.318 -1433.875
1590.6000  -999.250  -999.250    93.441   184.826    47.536    97.098     0.934     4.834    19.010     0.051  1067.381     3.983 -1434.176
1590.7000  -999.250  -999.250    93.247   209.420    47.534    97.385     0.939     4.871    19.069     0.051  1052.074     3.622 -1434.387
1590.8000  -999.250  -999.250    92.997   230.976    47.548    97.684     0.944     4.872    19.131     0.051  1058.875     5.580 -1434.410
1590.9000  -999.250  -999.250    93.340   221.666    47.545    97.942     0.948     4.905    19.170     0.051  1078.296     5.436 -1434.513
