~Version Information
VERS.                     2.0 : CWLS Log ASCII Standart
WRAP.                     NO  : One line per depth step
~Well Information
STRT.M                      1451.2000  : Start Depth
STOP.M                      1602.5000  : Stop Depth
STEP.M                         0.1000  : Step
NULL.                         -999.25  : Null Value
COMP.                                  : Company
WELL.                                  : Well
FLD .                                  : Field
LOC .                                  : Location
PROV.                                  : Province
SRVC.                                  : Service Company
DATE.      06/12/2011                  : Log Date
UWI .                                  : Unique Well ID
~Curve Information
DEPT.M                                 :
mapo_mek.                                  :
speed_mek.                                   :
MGZ_mek.Ž¬                                 :
MPZ_mek.Ž¬                                 :
BMK_mek.O¬                                 :
U_mek.‚                                    :
J_mek.A                                    :
tense_mek.                                 :
~ASCII Log Data
# ...
1513.5000     0.000  -821.017     0.389     0.374     0.563     0.282     0.007   943.976
1513.6000     0.000  -810.581     0.380     0.363     0.543     0.281     0.008   938.641
1513.7000     0.000  -814.609     0.374     0.357     0.526     0.281     0.008   928.846
1513.8000     0.000  -822.282     0.403     0.379     0.569     0.281     0.007   936.051
1513.9000     0.000  -822.679     0.420     0.390     0.582     0.278     0.007   936.286
1514.0000     0.000  -815.377     0.409     0.380     0.557     0.279     0.008   939.077
1514.1000     0.000  -821.323     0.400     0.372     0.551     0.276     0.008   946.513
1514.2000     0.000  -825.734     0.383     0.370     0.553     0.274     0.007   946.667
1514.3000     0.000  -824.775     0.383     0.362     0.558     0.274     0.007   946.487
1514.4000     0.000  -826.502     0.381     0.358     0.529     0.276     0.008   946.026
1514.5000     0.000  -821.131     0.381     0.358     0.522     0.276     0.008   943.949
1514.6000     0.000  -834.968     0.373     0.358     0.526     0.271     0.008   938.000
1514.7000     0.000  -822.026     0.380     0.360     0.537     0.268     0.007   920.590
1514.8000     0.000  -815.824     0.402     0.371     0.558     0.275     0.007   916.974
1514.9000     0.000  -822.282     0.401     0.357     0.621     0.280     0.007   935.615
1515.0000     0.000  -813.011     0.373     0.371     0.651     0.278     0.006   946.872
1515.1000     0.000  -806.106     0.389     0.370     0.593     0.279     0.007   946.667
1515.2000     0.000  -799.265     0.402     0.341     0.593     0.276     0.007   946.667
1515.3000     0.000  -798.160     0.400     0.383     0.555     0.276     0.007   946.667
1515.4000     0.000  -813.906     0.380     0.355     0.550     0.274     0.007   946.667
1515.5000     0.000  -817.167     0.366     0.356     0.602     0.274     0.007   946.795
1515.6000     0.000  -816.030     0.436     0.349     0.605     0.280     0.007   947.000
1515.7000     0.000  -814.783     0.405     0.382     0.590     0.281     0.007   946.738
1515.8000     0.000  -812.180     0.402     0.379     0.604     0.274     0.007   946.667
1515.9000     0.000  -825.159     0.403     0.387     0.656     0.271     0.006   946.667
1516.0000     0.000  -810.965     0.420     0.385     0.630     0.264     0.006   946.846
1516.1000     0.000  -806.937     0.424     0.383     0.606     0.263     0.006   946.667
1516.2000     0.000  -814.482     0.390     0.369     0.592     0.273     0.007   946.667
1516.3000     0.000  -803.293     0.393     0.366     0.572     0.283     0.007   946.564
1516.4000     0.000  -813.536     0.388     0.374     0.589     0.287     0.007   946.190
1516.5000     0.000  -825.159     0.417     0.375     0.608     0.292     0.007   945.000
1516.6000     0.000  -824.008     0.408     0.370     0.583     0.294     0.008   941.692
1516.7000     0.000  -829.379     0.463     0.375     0.503     0.301     0.009   934.564
1516.8000     0.000  -837.106     0.418     0.404     0.520     0.302     0.009   941.619
1516.9000     0.000  -824.008     0.363     0.362     0.528     0.295     0.008   943.333
1517.0000     0.000  -821.706     0.374     0.367     0.563     0.299     0.008   940.385
1517.1000     0.000  -817.103     0.399     0.380     0.604     0.304     0.008   947.000
1517.2000     0.000  -809.431     0.355     0.369     0.593     0.308     0.008   947.000
1517.3000     0.000  -816.911     0.185     0.286     0.657     0.327     0.007   947.000
1517.4000     0.000  -822.857     0.229     0.408     1.243     0.349     0.004   947.000
1517.5000     0.000  -824.008     1.247     1.055     4.197     0.324     0.001   947.000
1517.6000     0.000  -821.131     1.563     1.104     0.582     0.303     0.008   947.000
1517.7000     0.000  -823.926     1.168     1.231     0.536     0.292     0.008   947.000
1517.8000     0.000  -829.922     0.941     0.982     0.605     0.291     0.007   947.000
1517.9000     0.000  -829.803     2.248     1.533     0.635     0.278     0.007   947.000
1518.0000     0.000  -804.827     2.158     1.741     0.681     0.267     0.006   947.000
1518.1000     0.000  -810.006     1.845     1.707     0.644     0.261     0.006   946.744
1518.2000     0.000  -805.467     1.633     1.556     0.624     0.277     0.007   946.667
1518.3000     0.000  -809.796     2.673     1.963     0.627     0.293     0.007   946.810
1518.4000     0.000  -822.282     1.377     1.281     0.617     0.294     0.007   946.667
1518.5000     0.000  -826.885     0.808     0.576     0.596     0.300     0.008   946.692
1518.6000     0.000  -830.529     0.403     0.435     0.609     0.301     0.007   946.923
1518.7000     0.000  -818.583     0.442     0.413     0.612     0.287     0.007   947.000
1518.8000     0.000  -835.133     0.449     0.418     0.636     0.281     0.007   947.000
1518.9000     0.000  -834.749     0.453     0.425     0.701     0.285     0.006   947.000
1519.0000     1.000  -817.538     0.476     0.443     0.661     0.293     0.007   947.000
1519.1000     0.000  -821.323     0.463     0.421     0.604     0.294     0.007   946.923
1519.2000     0.000  -818.062     0.432     0.401     0.612     0.295     0.007   947.000
1519.3000     0.000  -819.596     0.419     0.398     0.605     0.295     0.007   947.000
1519.4000     0.000  -835.389     0.432     0.404     0.626     0.299     0.007   947.000
1519.5000     0.000  -830.721     0.434     0.410     0.688     0.305     0.007   947.000
1519.6000     0.000  -842.166     0.447     0.419     0.684     0.302     0.007   947.000
1519.7000     0.000  -817.423     0.497     0.446     0.637     0.298     0.007   947.000
1519.8000     0.000  -808.216     0.438     0.402     0.576     0.296     0.008   946.820
1519.9000     0.000  -828.853     0.404     0.388     0.578     0.294     0.008   946.786
1520.0000     0.000  -811.157     0.414     0.399     0.618     0.293     0.007   947.000
1520.1000     0.000  -818.446     0.433     0.405     0.679     0.284     0.006   946.820
1520.2000     0.000  -806.362     0.469     0.413     0.668     0.271     0.006   946.487
1520.3000     0.000  -815.020     0.414     0.396     0.643     0.255     0.006   946.071
1520.4000     0.000  -820.939     0.410     0.390     0.675     0.257     0.006   944.359
1520.5000     0.000  -807.513     0.442     0.413     0.734     0.261     0.005   939.641
1520.6000     0.000  -830.529     0.508     0.429     0.676     0.262     0.006   925.282
1520.7000     0.000  -831.792     0.461     0.415     0.663     0.259     0.006   922.667
1520.8000     0.000  -835.133     0.433     0.403     0.667     0.267     0.006   943.692
1520.9000     0.000  -834.749     0.399     0.387     0.663     0.274     0.006   947.000
1521.0000     0.000  -810.390     0.409     0.392     0.725     0.275     0.006   946.786
1521.1000     0.000  -816.802     0.456     0.405     0.735     0.273     0.006   946.833
1521.2000     0.000  -805.403     0.428     0.403     0.703     0.263     0.006   947.000
1521.3000     0.000  -819.021     0.414     0.385     0.670     0.269     0.006   947.000
1521.4000     0.000  -830.146     0.414     0.391     0.719     0.266     0.006   947.000
1521.5000     0.000  -830.721     0.436     0.405     0.703     0.277     0.006   947.000
1521.6000     0.000  -843.381     0.439     0.401     0.660     0.282     0.006   947.154
1521.7000     0.000  -835.740     0.417     0.399     0.716     0.271     0.006   947.000
1521.8000     0.000  -833.900     0.441     0.407     0.703     0.275     0.006   947.000
1521.9000     0.000  -826.502     0.453     0.413     0.705     0.280     0.006   947.000
1522.0000     0.000  -817.103     0.436     0.397     0.695     0.274     0.006   947.000
1522.1000     0.000  -820.172     0.407     0.385     0.608     0.297     0.007   947.000
1522.2000     0.000  -809.558     0.425     0.393     0.602     0.310     0.008   947.000
1522.3000     0.000  -820.875     0.429     0.388     0.574     0.313     0.008   947.000
