~Version Information
VERS.                     2.0 : CWLS Log ASCII Standart
WRAP.                     NO  : One line per depth step
~Well Information
STRT.M                      1422.8000  : Start Depth
STOP.M                      1601.3000  : Stop Depth
STEP.M                         0.1000  : Step
NULL.                         -999.25  : Null Value
COMP.                                  : Company
WELL.                                  : Well
FLD .                                  : Field
LOC .                                  : Location
PROV.                                  : Province
SRVC.                                  : Service Company
DATE.      06/12/2011                  : Log Date
UWI .                                  : Unique Well ID
~Curve Information
DEPT.M                                 :
mapo_ek.                                  :
speed_ek.                                   :
IK_ek.¬‘¬/¬                            :
BK_ek.Ž¬¬                              :
A4M05N_ek.O¬¬                  :
A8M1N_ek.Ž¬¬                  :
A04M01N_ek.Ž¬¬                  :
A1M01N_ek.Ž¬¬                  :
A2M05N_ek.Ž¬¬                  :
REZ_ek.Ž¬¬                   :
tense_ek.                                 :
_GK_ek.¨¬¯/c                               :
PS_ek.                                 :
~ASCII Log Data
# ...
1573.6000     0.000  -603.034    78.702   327.253    69.518   193.099     1.557     8.240    33.134     0.054  1049.639     5.888 -1422.921
1573.7000     0.000  -609.158    79.397   336.993    70.059   194.820     1.559     8.259    33.446     0.054  1049.576     5.876 -1423.284
1573.8000     0.000  -618.837    81.916   340.373    70.424   196.407     1.575     8.319    33.619     0.056  1049.667     6.722 -1423.671
1573.9000     0.000  -615.191    83.940   309.469    70.859   198.278     1.594     8.428    33.936     0.057  1049.667     7.946 -1424.155
1574.0000     0.000  -609.380    88.604   273.049    71.259   199.896     1.574     8.286    34.157     0.057  1049.722     7.133 -1424.690
1574.1000     0.000  -611.208    90.259   253.041    71.622   201.207     1.602     8.490    34.282     0.059  1049.700     6.081 -1425.053
1574.2000     0.000  -613.750    88.276   240.903    71.918   202.669     1.607     8.500    34.410     0.060  1049.667     5.032 -1425.516
1574.3000     0.000  -608.701    91.522   255.254    72.474   203.734     1.609     8.522    34.664     0.061  1049.667     4.418 -1426.122
1574.4000     0.000  -609.283    89.953   252.657    72.941   204.878     1.626     8.621    34.752     0.063  1049.788     4.045 -1426.448
1574.5000     0.000  -606.583    84.286   224.195    73.406   206.385     1.635     8.668    34.873     0.064  1049.758     4.216 -1426.665
1574.6000     0.000  -610.594    82.242   213.330    73.820   207.515     1.645     8.677    34.963     0.063  1049.806     6.744 -1426.913
1574.7000     0.000  -618.049    76.836   208.762    74.243   208.834     1.646     8.708    35.076     0.063  1049.667     7.517 -1427.044
1574.8000     0.000  -619.953    74.717   205.430    74.643   210.293     1.646     8.723    35.178     0.057  1049.833     6.523 -1427.008
1574.9000     0.000  -617.740    73.813   202.471    75.105   211.605     1.664     8.823    35.276     0.053  1049.917     6.279 -1426.975
1575.0000     0.000  -620.307    74.075   199.450    75.614   212.953     1.667     8.847    35.409     0.052  1049.833     6.069 -1426.808
1575.1000     0.000  -618.810    76.173   204.383    76.152   214.453     1.668     8.889    35.582     0.051  1050.000     7.676 -1426.604
1575.2000     0.000  -616.094    78.210   222.061    76.738   215.971     1.670     8.927    35.720     0.049  1049.667     8.112 -1426.372
1575.3000     0.000  -617.069    79.951   245.619    77.144   217.568     1.671     8.969    35.889     0.049  1049.778     6.641 -1426.102
1575.4000     0.000  -619.599    80.243   256.939    77.576   219.059     1.678     9.016    36.058     0.048  1049.849     7.573 -1425.680
1575.5000     0.000  -612.203    78.792   245.800    78.118   220.486     1.682     9.059    36.237     0.047  1049.667     7.892 -1425.540
1575.6000     0.000  -609.263    78.615   245.200    78.746   222.169     1.687     9.082    36.430     0.047  1049.750     6.069 -1425.555
1575.7000     0.000  -619.723    79.166   284.954    79.348   223.995     1.693     9.116    36.650     0.047  1049.722     6.470 -1425.520
1575.8000     0.000  -621.343    80.027   353.965    79.863   225.733     1.703     9.175    36.819     0.046  1049.667     7.247 -1425.530
1575.9000     0.000  -617.568    80.501   431.617    80.494   227.431     1.717     9.236    37.093     0.045  1049.694     7.816 -1425.812
1576.0000     0.000  -614.249    80.088   500.035    81.239   229.148     1.713     9.236    37.398     0.045  1049.667     7.792 -1426.061
1576.1000     0.000  -616.797    78.131   514.530    81.996   230.942     1.736     9.325    37.663     0.045  1049.667     7.241 -1426.558
1576.2000     0.000  -614.975    76.926   487.279    82.597   232.680     1.747     9.372    37.888     0.045  1049.769     8.930 -1427.109
1576.3000     0.000  -608.488    77.351   443.445    83.220   234.215     1.757     9.428    38.157     0.045  1049.767     9.515 -1427.405
1576.4000     0.000  -614.567    78.352   398.164    83.778   235.314     1.762     9.448    38.380     0.045  1049.767     9.658 -1427.812
1576.5000     0.000  -615.968    80.145   367.996    84.284   235.416     1.761     9.447    38.613     0.045  1049.867     9.625 -1428.416
1576.6000     0.000  -622.869    81.150   308.402    84.770   234.564     1.773     9.503    38.792     0.044  1049.909     7.276 -1428.815
1576.7000     0.000  -622.229    81.476   264.426    85.288   233.395     1.778     9.536    38.883     0.044  1050.000     5.074 -1429.226
1576.8000     0.000  -621.843    84.711   114.659    85.127   231.808     1.791     9.583    38.702     0.044  1050.000     4.437 -1429.576
1576.9000     0.000  -627.775    89.697    58.737    84.165   229.734     1.798     9.631    38.258     0.044  1049.788     4.076 -1429.674
1577.0000     0.000  -633.272    95.134    40.682    82.962   227.208     1.713     9.183    37.692     0.044  1049.933     4.155 -1429.838
1577.1000     0.000  -629.359    98.950    37.834    81.533   224.747     1.647     8.867    37.010     0.044  1049.939     4.392 -1429.934
1577.2000     0.000  -634.076    96.631    34.511    79.458   221.855     1.640     8.779    36.174     0.044  1049.800     5.515 -1429.733
1577.3000     0.000  -632.518    97.347    33.496    77.705   218.884     1.621     8.680    35.511     0.043  1049.849     5.994 -1429.382
1577.4000     0.000  -627.375   100.221    35.704    76.624   215.359     1.572     8.435    35.014     0.043  1049.900     7.569 -1428.999
1577.5000     0.000  -629.450   102.750    46.393    75.379   213.010     1.519     8.115    34.441     0.042  1049.909     8.988 -1428.511
1577.6000     0.000  -638.430   105.004    71.556    74.313   210.892     1.532     8.162    34.040     0.042  1050.000     7.002 -1427.956
1577.7000     0.000  -638.191   104.301    88.665    73.732   208.586     1.493     7.970    33.726     0.042  1050.000     5.497 -1427.439
1577.8000     0.000  -636.654    99.905    91.640    73.474   205.898     1.534     8.124    33.540     0.042  1049.889     5.614 -1426.980
1577.9000     0.000  -632.905    95.138    69.804    72.964   203.700     1.535     8.072    33.245     0.041  1049.944     7.617 -1426.660
1578.0000     0.000  -632.926    93.809    47.956    72.651   201.981     1.522     7.978    33.034     0.041  1050.000     8.914 -1426.567
1578.1000     0.000  -631.292    91.568    45.980    71.750   199.944     1.489     7.818    32.530     0.041  1049.933     8.631 -1426.627
1578.2000     0.000  -629.810    94.889    48.170    70.682   198.734     1.488     7.748    32.022     0.041  1049.758     9.548 -1426.797
1578.3000     0.000  -625.394   101.106    60.856    69.810   196.983     1.451     7.550    31.565     0.040  1049.788    10.516 -1427.235
1578.4000     0.000  -620.286   103.121    90.397    69.002   195.439     1.451     7.521    31.132     0.040  1049.667     9.825 -1427.665
1578.5000     0.000  -609.687   106.915    93.932    68.535   194.305     1.458     7.550    30.821     0.040  1049.750     9.498 -1428.220
1578.6000     0.000  -610.875   105.858    96.759    68.563   193.707     1.447     7.468    30.694     0.040  1049.833     7.677 -1428.876
1578.7000     0.000  -624.454   101.770   133.111    68.795   193.542     1.471     7.621    30.652     0.039  1049.727     5.637 -1429.480
1578.8000     0.000  -636.679    97.182   182.318    69.029   194.107     1.487     7.685    30.610     0.039  1049.667     6.548 -1430.058
1578.9000     0.000  -636.404    96.781   203.524    69.513   194.761     1.504     7.781    30.741     0.038  1049.667     6.338 -1430.779
1579.0000     1.000  -629.175    96.132   199.817    69.904   195.340     1.517     7.827    30.821     0.038  1049.667     5.142 -1431.514
1579.1000     0.000  -636.887    95.831   187.977    70.202   196.437     1.531     7.898    30.906     0.038  1049.697     6.357 -1432.240
1579.2000     0.000  -631.721    95.992   174.696    70.456   197.355     1.546     7.945    30.958     0.037  1049.926     7.433 -1432.710
1579.3000     0.000  -629.272    96.129   173.330    70.553   198.369     1.557     8.005    30.963     0.037  1049.758     7.430 -1433.164
