~Version Information
VERS.                     2.0 : CWLS Log ASCII Standart
WRAP.                     NO  : One line per depth step
~Well Information
STRT.M                      1451.2000  : Start Depth
STOP.M                      1602.5000  : Stop Depth
STEP.M                         0.1000  : Step
NULL.                         -999.25  : Null Value
COMP.                                  : Company
WELL.                                  : Well
FLD .                                  : Field
LOC .                                  : Location
PROV.                                  : Province
SRVC.                                  : Service Company
DATE.      06/12/2011                  : Log Date
UWI .                                  : Unique Well ID
~Curve Information
DEPT.M                                 :
mapo_mek.                                  :
speed_mek.                                   :
MGZ_mek.Ž¬                                 :
MPZ_mek.Ž¬                                 :
BMK_mek.O¬                                 :
U_mek.‚                                    :
J_mek.A                                    :
tense_mek.                                 :
~ASCII Log Data
# ...
1540.2000     0.000  -800.653     0.237     0.540    17.677     0.392     0.000   946.667
1540.3000     0.000  -817.295     0.900     1.135    20.682     0.445     0.000   946.667
1540.4000     0.000  -810.581     2.033     1.826    41.739     0.476     0.000   946.667
1540.5000     0.000  -804.699     3.889     2.370    86.576     0.455     0.000   946.667
1540.6000     0.000  -805.106     1.574     1.371     7.237     0.274     0.001   946.667
1540.7000     0.000  -802.845     0.318     0.406     0.687     0.197     0.004   946.667
1540.8000     0.000  -803.484     0.138     0.150     0.343     0.174     0.008   946.667
1540.9000     0.000  -794.657     0.034     0.150     0.358     0.173     0.007   946.667
1541.0000     0.000  -799.329     0.084     0.160     0.803     0.213     0.004   946.667
1541.1000     0.000  -800.297     0.400     0.183    16.798     0.257     0.000   946.667
1541.2000     0.000  -790.186     2.084     1.919   107.798     0.491     0.000   946.667
1541.3000     0.000  -808.506     2.061     1.921    99.798     0.512     0.000   946.667
1541.4000     0.000  -808.855     1.680     1.838    84.201     0.513     0.000   946.615
1541.5000     0.000  -805.786     2.500     2.170   110.767     0.509     0.000   946.667
1541.6000     0.000  -805.594     3.628     2.266    45.330     0.494     0.000   946.667
1541.7000     0.000  -809.143     3.864     2.298    62.913     0.484     0.000   946.667
1541.8000     0.000  -815.505     2.539     2.081    55.060     0.479     0.000   946.667
1541.9000     0.000  -813.139     2.297     2.038   116.321     0.467     0.000   946.590
1542.0000     0.000  -816.016     1.838     1.821    29.494     0.456     0.000   946.667
1542.1000     0.000  -816.911     1.426     1.324    29.591     0.449     0.000   946.667
1542.2000     0.000  -807.481     1.446     1.822    50.476     0.463     0.000   946.667
1542.3000     0.000  -816.911     2.972     1.987    90.596     0.437     0.000   946.590
1542.4000     0.000  -816.623     2.575     2.284    79.849     0.416     0.000   946.667
1542.5000     0.000  -821.323     2.023     3.317    99.879     0.422     0.000   946.667
1542.6000     0.000  -804.444     2.139     1.946    59.052     0.460     0.000   946.667
1542.7000     0.000  -798.689     1.924     1.585     3.554     0.369     0.002   946.667
1542.8000     0.000  -803.918     1.425     0.804     1.674     0.371     0.003   946.595
1542.9000     0.000  -797.411     0.468     0.783    68.052     0.401     0.000   946.410
1543.0000     0.000  -795.492     1.435     1.331    45.107     0.457     0.000   946.487
1543.1000     0.000  -797.388     1.889     1.775   111.437     0.441     0.000   946.476
1543.2000     0.000  -791.391     2.242     2.065    77.655     0.445     0.000   946.452
1543.3000     0.000  -798.050     1.811     1.824    67.032     0.458     0.000   946.590
1543.4000     0.000  -800.224     1.406     1.549    53.575     0.461     0.000   946.590
1543.5000     0.000  -808.173     2.208     1.539    57.069     0.465     0.000   946.667
1543.6000     0.000  -803.676     1.970     2.010    86.370     0.394     0.000   946.667
1543.7000     0.000  -803.293     1.351     1.607     1.741     0.332     0.003   946.359
1543.8000     0.000  -813.061     0.956     0.532     3.356     0.313     0.001   946.333
1543.9000     0.000  -797.602     1.187     0.656    19.011     0.377     0.000   946.513
1544.0000     0.000  -801.566     0.431     0.651    17.750     0.399     0.000   946.615
1544.1000     0.000  -804.275     1.298     1.441    47.694     0.414     0.000   946.524
1544.2000     0.000  -805.211     2.228     1.823    36.903     0.421     0.000   946.333
1544.3000     0.000  -821.131     2.180     1.568    41.517     0.412     0.000   946.513
1544.4000     0.000  -811.988     1.547     1.759    38.781     0.387     0.000   946.667
1544.5000     0.000  -813.180     2.798     1.477    30.087     0.382     0.000   946.667
1544.6000     0.000  -815.198     1.223     1.417    27.901     0.392     0.000   946.333
1544.7000     0.000  -800.671     1.882     1.527    11.168     0.406     0.001   946.333
1544.8000     0.000  -811.844     1.487     1.381     9.785     0.401     0.001   946.333
1544.9000     0.000  -808.015     1.098     1.200    10.097     0.398     0.001   946.405
1545.0000     0.000  -795.072     1.348     1.335    11.605     0.399     0.000   946.667
1545.1000     0.000  -793.127     1.248     1.294    12.668     0.402     0.000   946.385
1545.2000     0.000  -794.716     1.179     1.127    13.843     0.401     0.000   946.333
1545.3000     0.000  -797.027     1.253     1.313    25.333     0.402     0.000   946.333
1545.4000     0.000  -802.968     1.454     1.315    15.430     0.405     0.000   946.333
1545.5000     0.000  -799.521     1.204     1.258    13.927     0.407     0.000   946.333
1545.6000     0.000  -802.781     1.122     1.210    39.179     0.406     0.000   946.333
1545.7000     0.000  -801.187     1.329     1.254    38.863     0.407     0.000   946.333
1545.8000     0.000  -804.955     1.526     1.426    27.398     0.402     0.000   946.333
1545.9000     0.000  -801.375     1.399     1.250    22.326     0.401     0.000   946.590
1546.0000     0.000  -804.516     1.181     1.150    19.390     0.401     0.000   946.333
1546.1000     0.000  -799.968     1.118     1.170    14.676     0.401     0.000   946.333
1546.2000     0.000  -788.898     1.348     1.316    13.907     0.401     0.000   946.333
1546.3000     0.000  -807.896     1.227     1.304    13.338     0.401     0.000   946.590
1546.4000     0.000  -797.602     1.180     1.186    14.355     0.402     0.000   946.667
1546.5000     0.000  -806.412     1.371     1.398    13.340     0.401     0.000   946.667
1546.6000     0.000  -813.267     1.267     1.248    13.463     0.402     0.000   946.667
1546.7000     0.000  -811.029     1.169     1.179    13.790     0.405     0.000   946.667
1546.8000     0.000  -802.142     1.337     1.259    11.865     0.410     0.000   946.667
1546.9000     0.000  -808.846     0.878     1.108    11.679     0.409     0.001   946.667
1547.0000     0.000  -804.188     1.207     1.067    16.260     0.413     0.000   946.667
1547.1000     0.000  -802.494     0.990     1.149    16.328     0.415     0.000   946.667
1547.2000     0.000  -795.748     1.441     1.281    11.912     0.416     0.001   946.667
1547.3000     0.000  -806.234     1.310     1.302     9.172     0.416     0.001   946.738
1547.4000     0.000  -817.098     1.100     1.208    10.140     0.414     0.001   946.667
1547.5000     0.000  -809.367     1.217     1.216    10.599     0.415     0.001   946.667
1547.6000     0.000  -811.566     0.871     1.046    10.484     0.419     0.001   946.667
1547.7000     0.000  -805.978     1.119     1.195    12.192     0.421     0.000   946.667
1547.8000     0.000  -802.781     1.201     1.379    11.659     0.423     0.001   946.667
1547.9000     0.000  -805.106     1.529     1.412     5.809     0.417     0.001   946.667
1548.0000     0.000  -796.899     1.588     1.307     6.870     0.407     0.001   946.667
1548.1000     1.000  -800.297     0.830     1.048     7.969     0.402     0.001   946.667
1548.2000     1.000  -798.114     1.133     1.086    10.065     0.405     0.001   946.667
1548.3000     1.000  -812.436     1.027     1.171    12.363     0.412     0.000   946.667
1548.4000     1.000  -802.672     1.269     1.259    11.617     0.412     0.001   946.667
1548.5000     0.000  -804.512     1.206     1.425    13.766     0.413     0.000   946.762
1548.6000     0.000  -805.594     1.526     1.411    12.208     0.413     0.000   946.667
1548.7000     0.000  -806.426     1.457     1.485    12.710     0.417     0.000   946.897
1548.8000     0.000  -811.221     1.368     1.471    13.057     0.417     0.000   946.786
1548.9000     0.000  -803.676     1.372     1.505    10.412     0.416     0.001   946.795
1549.0000     1.000  -799.712     1.496     1.423     8.861     0.411     0.001   946.667
