~Version Information
VERS.                     2.0 : CWLS Log ASCII Standart
WRAP.                     NO  : One line per depth step
~Well Information
STRT.M                       485.0000  : Start Depth
STOP.M                      1606.7000  : Stop Depth
STEP.M                         0.1000  : Step
NULL.                         -999.25  : Null Value
COMP.                                  : Company
WELL.                                  : Well
FLD .                                  : Field
LOC .                                  : Location
PROV.                                  : Province
SRVC.                                  : Service Company
DATE.      06/12/2011                  : Log Date
UWI .                                  : Unique Well ID
~Curve Information
DEPT.M                                 :
mapo_ds.                                  :
speed_ds.                                   :
R1_ds.¬¬                                  :
R2_ds.¬¬                                  :
R3_ds.¬¬                                  :
R4_ds.¬¬                                  :
R5_ds.¬¬                                  :
R6_ds.¬¬                                  :
R7_ds.¬¬                                  :
R8_ds.¬¬                                  :
PR1_ds.¬¬                                  :
PR2_ds.¬¬                                  :
PR3_ds.¬¬                                  :
PR4_ds.¬¬                                  :
DS_ds.¬¬                                 :
tense_ds.                                 :
~ASCII Log Data
# ...
1305.8000     0.000 -1073.455   138.927   124.640   120.488   114.100   114.311   116.730   113.912   133.815   253.238   241.370   234.400   247.915   244.231   894.000
1305.9000     0.000 -1073.280   138.671   124.389   120.490   114.113   114.307   116.677   114.105   133.088   252.977   241.065   234.596   247.201   243.960   894.267
1306.0000     0.000 -1082.182   138.557   124.464   120.487   114.124   114.102   116.470   113.932   132.316   252.658   240.934   234.419   246.440   243.613   894.333
1306.1000     0.000 -1068.218   138.625   124.488   120.603   114.126   114.627   116.855   114.273   133.125   253.252   241.344   234.876   247.250   244.180   894.333
1306.2000     0.000 -1068.218   138.550   124.544   120.696   114.130   114.718   116.395   114.122   132.717   253.268   240.938   234.817   246.847   243.968   894.000
1306.3000     0.000 -1065.600   138.453   124.836   120.860   114.129   114.781   116.306   114.801   132.681   253.234   241.142   235.662   246.810   244.212   893.633
1306.4000     0.000 -1078.691   138.466   124.902   120.849   114.142   114.936   116.292   113.917   132.376   253.402   241.195   234.766   246.518   243.970   893.394
1306.5000     0.000 -1071.709   138.801   124.907   121.018   114.143   115.027   116.607   114.447   132.160   253.828   241.514   235.465   246.303   244.277   893.151
1306.6000     0.000 -1059.491   139.038   125.278   121.088   114.125   115.044   116.603   114.350   133.209   254.082   241.881   235.438   247.333   244.684   893.000
1306.7000     0.000 -1062.982   139.086   125.354   121.107   114.133   115.069   116.485   114.684   133.646   254.155   241.839   235.791   247.779   244.891   893.242
1306.8000     0.000 -1059.840   139.006   125.340   120.979   114.108   115.107   116.533   115.312   133.714   254.113   241.873   236.290   247.822   245.025   893.600
1306.9000     0.000 -1068.218   138.854   125.781   121.088   114.122   115.227   116.426   114.531   133.566   254.081   242.207   235.619   247.688   244.899   893.667
1307.0000     0.000 -1068.218   139.279   125.976   121.194   114.121   115.471   117.478   115.143   134.026   254.750   243.455   236.337   248.146   245.672   893.970
1307.1000     0.000 -1062.982   139.784   125.975   121.206   114.068   115.685   118.261   115.341   133.783   255.468   244.236   236.547   247.850   246.026   894.000
1307.2000     0.000 -1068.218   139.664   125.770   121.188   113.997   115.633   118.797   118.428   135.073   255.297   244.567   239.616   249.069   247.137   893.909
1307.3000     0.000 -1088.640   140.024   125.421   121.024   113.790   115.504   118.690   118.372   135.994   255.527   244.110   239.396   249.785   247.205   894.000
1307.4000     0.000 -1089.164   140.388   126.922   121.012   113.461   115.180   118.258   118.077   136.742   255.567   245.180   239.089   250.203   247.510   894.000
1307.5000     0.000 -1078.691   141.305   127.899   121.174   113.393   115.449   118.680   118.615   136.989   256.753   246.580   239.789   250.383   248.376   893.909
1307.6000     0.000 -1094.400   142.292   129.723   121.342   113.417   115.374   119.230   119.081   139.789   257.666   248.953   240.423   253.206   250.062   894.000
1307.7000     0.000 -1089.164   142.917   127.060   122.160   113.727   115.224   119.707   119.357   138.108   258.142   246.768   241.518   251.835   249.566   894.000
1307.8000     0.000 -1077.120   141.725   126.195   123.180   114.137   115.613   120.343   119.034   137.392   257.338   246.538   242.215   251.529   249.405   893.833
1307.9000     0.000 -1083.927   142.464   127.329   123.629   115.318   116.280   120.009   119.096   136.944   258.744   247.338   242.725   252.261   250.267   893.667
1308.0000     0.000 -1068.218   141.559   136.550   127.296   116.890   117.359   125.684   117.378   134.559   258.917   262.233   244.674   251.449   254.318   893.667
1308.1000     0.000 -1079.040   141.984   152.475   128.563   115.428   117.389   119.234   116.345   134.519   259.372   271.709   244.907   249.947   256.484   893.667
1308.2000     0.000 -1092.655   140.975   136.882   122.785   115.321   114.867   116.530   115.797   134.305   255.842   253.412   238.582   249.626   249.365   893.909
1308.3000     0.000 -1083.927   140.330   127.344   121.843   115.202   114.790   116.173   113.309   133.307   255.120   243.517   235.153   248.509   245.575   894.000
1308.4000     0.000 -1094.400   139.645   125.617   121.973   114.821   114.815   115.984   113.202   132.378   254.460   241.601   235.175   247.199   244.609   894.000
1308.5000     0.000 -1089.164   139.501   125.467   122.021   114.791   114.848   116.030   113.079   132.086   254.349   241.497   235.100   246.876   244.456   894.091
1308.6000     0.000 -1082.880   139.480   125.535   122.024   114.710   114.883   115.654   113.253   132.362   254.363   241.189   235.277   247.072   244.475   894.333
1308.7000     0.000 -1089.164   139.434   125.587   122.044   114.475   115.003   115.538   112.871   131.806   254.437   241.126   234.915   246.281   244.190   894.333
1308.8000     0.000 -1062.982   139.427   125.862   122.089   114.400   115.083   115.578   112.767   131.792   254.511   241.440   234.857   246.192   244.250   894.333
1308.9000     0.000 -1079.040   140.271   126.159   122.019   114.292   115.143   116.279   113.803   133.122   255.413   242.439   235.822   247.413   245.272   894.267
1309.0000     1.000 -1071.709   139.112   125.426   121.823   114.172   115.268   116.039   113.256   132.070   254.380   241.465   235.079   246.242   244.291   894.000
1309.1000     0.000 -1052.509   139.034   125.307   122.175   114.138   115.346   116.357   113.585   132.098   254.380   241.664   235.760   246.235   244.510   894.000
1309.2000     0.000 -1068.218   139.542   126.426   122.490   114.124   115.700   116.777   114.045   132.567   255.242   243.203   236.535   246.691   245.418   893.849
1309.3000     0.000 -1062.982   140.183   126.925   122.426   114.078   115.538   116.705   113.842   132.937   255.721   243.630   236.267   247.015   245.658   893.727
1309.4000     0.000 -1079.040   140.233   126.743   122.336   113.891   115.403   116.631   113.974   133.223   255.636   243.374   236.311   247.114   245.609   894.000
1309.5000     0.000 -1082.182   140.913   126.777   122.307   113.783   115.238   116.963   114.624   134.002   256.151   243.741   236.931   247.785   246.152   893.909
1309.6000     0.000 -1062.982   141.262   127.716   123.223   114.449   115.187   116.328   114.064   133.947   256.449   244.044   237.287   248.397   246.544   893.667
1309.7000     0.000 -1068.218   141.822   128.351   123.939   115.019   115.667   116.410   113.821   133.916   257.488   244.761   237.760   248.935   247.236   893.727
1309.8000     0.000 -1059.840   143.182   128.805   126.653   117.543   116.030   116.344   114.018   137.159   259.211   245.149   240.671   254.702   249.933   894.000
1309.9000     0.000 -1073.455   143.490   129.732   125.044   116.310   115.851   116.328   114.300   149.195   259.341   246.060   239.344   265.504   252.563   894.000
1310.0000     0.000 -1076.945   144.863   137.219   125.064   115.255   116.838   122.202   113.629   134.756   261.701   259.421   238.693   250.011   252.456   893.667
1310.1000     0.000 -1069.964   145.308   130.343   123.958   114.979   116.415   116.841   113.595   134.057   261.722   247.184   237.553   249.036   248.874   893.667
1310.2000     0.000 -1082.182   142.008   128.959   123.791   114.993   116.508   117.030   114.077   133.841   258.516   245.988   237.867   248.834   247.801   893.667
1310.3000     0.000 -1090.560   143.261   131.149   123.989   115.013   116.751   117.252   113.834   134.044   260.012   248.402   237.823   249.058   248.824   893.800
1310.4000     0.000 -1083.927   146.384   129.456   123.421   114.950   117.144   117.389   113.988   134.977   263.528   246.845   237.409   249.926   249.427   893.879
1310.5000     0.000 -1088.640   142.781   128.380   123.140   114.916   118.326   116.688   114.917   133.872   261.107   245.068   238.057   248.788   248.255   893.667
