~Version Information
VERS.                     2.0 : CWLS Log ASCII Standart
WRAP.                     NO  : One line per depth step
~Well Information
STRT.M                      1451.2000  : Start Depth
STOP.M                      1602.5000  : Stop Depth
STEP.M                         0.1000  : Step
NULL.                         -999.25  : Null Value
COMP.                                  : Company
WELL.                                  : Well
FLD .                                  : Field
LOC .                                  : Location
PROV.                                  : Province
SRVC.                                  : Service Company
DATE.      06/12/2011                  : Log Date
UWI .                                  : Unique Well ID
~Curve Information
DEPT.M                                 :
mapo_mek.                                  :
speed_mek.                                   :
MGZ_mek.Ž¬                                 :
MPZ_mek.Ž¬                                 :
BMK_mek.O¬                                 :
U_mek.‚                                    :
J_mek.A                                    :
tense_mek.                                 :
~ASCII Log Data
# ...
1495.7000     0.000  -814.801     0.053     0.209     0.783     0.206     0.004   907.308
1495.8000     0.000  -816.911     0.049     0.173     0.437     0.213     0.007   907.333
1495.9000     0.000  -819.980     0.045     0.160     0.577     0.201     0.005   907.333
1496.0000     0.000  -822.346     0.034     0.129     0.482     0.187     0.006   907.333
1496.1000     0.000  -814.783     0.029     0.126     0.779     0.206     0.004   907.333
1496.2000     0.000  -817.989     0.289     0.363     1.859     0.287     0.002   907.619
1496.3000     0.000  -813.368     1.076     0.825     2.269     0.323     0.002   908.500
1496.4000     0.000  -827.310     0.551     0.614     4.620     0.317     0.001   911.000
1496.5000     0.000  -830.913     0.319     0.549     3.260     0.318     0.001   913.180
1496.6000     0.000  -816.719     0.590     0.640     1.817     0.313     0.003   907.333
1496.7000     0.000  -814.609     0.582     0.647     1.875     0.293     0.002   907.513
1496.8000     0.000  -815.568     0.409     0.488     1.990     0.287     0.002   907.333
1496.9000     0.000  -816.655     0.294     0.499     1.931     0.310     0.002   907.256
1497.0000     0.000  -806.362     0.663     0.610     1.171     0.319     0.004   907.282
1497.1000     0.000  -812.436     0.552     0.591     1.154     0.311     0.004   907.308
1497.2000     0.000  -799.806     0.517     0.551     1.426     0.300     0.003   907.333
1497.3000     0.000  -800.671     0.422     0.549     2.316     0.265     0.002   907.256
1497.4000     0.000  -803.293     0.519     0.560     2.179     0.266     0.002   907.333
1497.5000     0.000  -806.649     0.248     0.504     2.345     0.264     0.002   907.333
1497.6000     0.000  -818.446     0.310     0.473     2.392     0.256     0.002   907.333
1497.7000     0.000  -813.842     0.254     0.503     2.281     0.253     0.002   907.333
1497.8000     0.000  -811.924     0.382     0.528     2.452     0.248     0.001   907.231
1497.9000     0.000  -826.502     0.410     0.606     1.350     0.275     0.003   907.231
1498.0000     0.000  -815.249     0.698     0.559     0.892     0.284     0.005   907.333
1498.1000     0.000  -814.609     0.500     0.577     0.961     0.318     0.005   907.333
1498.2000     0.000  -805.594     0.580     0.523     0.896     0.314     0.005   907.333
1498.3000     0.000  -814.158     0.566     0.526     0.835     0.310     0.006   907.200
1498.4000     0.000  -820.172     0.467     0.529     0.945     0.311     0.005   907.333
1498.5000     0.000  -818.062     0.590     0.586     1.291     0.318     0.004   907.333
1498.6000     0.000  -822.665     0.703     0.633     1.379     0.318     0.003   907.282
1498.7000     0.000  -817.870     0.725     0.541     0.945     0.312     0.005   907.308
1498.8000     0.000  -814.034     0.408     0.495     1.287     0.312     0.004   907.333
1498.9000     0.000  -831.105     0.554     0.577     2.455     0.328     0.002   907.333
1499.0000     1.000  -830.338     0.659     0.650     1.529     0.343     0.003   907.333
1499.1000     0.000  -804.631     0.655     0.608     2.533     0.336     0.002   907.333
1499.2000     0.000  -805.914     0.478     0.602     1.371     0.340     0.004   907.333
1499.3000     0.000  -803.996     0.475     0.661     2.088     0.346     0.002   907.333
1499.4000     0.000  -806.362     0.984     0.773     2.713     0.346     0.002   907.256
1499.5000     0.000  -817.633     0.709     0.690     1.469     0.346     0.004   907.190
1499.6000     0.000  -813.842     0.599     0.670     1.854     0.345     0.003   907.333
1499.7000     0.000  -820.007     0.870     0.681     1.564     0.342     0.003   907.262
1499.8000     0.000  -809.622     0.795     0.650     0.979     0.336     0.005   907.333
1499.9000     0.000  -813.417     0.531     0.589     1.010     0.337     0.005   907.333
1500.0000     0.000  -806.362     0.537     0.593     1.597     0.324     0.003   907.333
1500.1000     0.000  -814.418     0.523     0.588     1.265     0.326     0.004   907.333
1500.2000     0.000  -798.370     0.449     0.501     0.862     0.321     0.006   907.333
1500.3000     0.000  -807.302     0.436     0.483     0.922     0.321     0.005   907.333
1500.4000     0.000  -818.062     0.377     0.469     1.247     0.323     0.004   907.333
1500.5000     0.000  -818.637     0.517     0.569     1.197     0.329     0.004   907.333
1500.6000     0.000  -834.749     0.641     0.688     1.913     0.321     0.002   907.333
1500.7000     0.000  -823.241     0.791     0.649     2.227     0.311     0.002   907.333
1500.8000     0.000  -821.131     0.565     0.582     1.201     0.305     0.004   907.333
1500.9000     0.000  -820.898     0.560     0.611     1.593     0.306     0.003   907.333
1501.0000     0.000  -805.403     0.710     0.662     1.497     0.305     0.003   907.333
1501.1000     0.000  -816.336     0.623     0.589     1.324     0.302     0.003   907.180
1501.2000     0.000  -808.663     0.496     0.529     0.910     0.307     0.005   907.000
1501.3000     0.000  -802.781     0.415     0.480     1.261     0.318     0.004   907.077
1501.4000     0.000  -823.688     0.663     0.674     1.035     0.324     0.005   907.119
1501.5000     0.000  -819.980     0.670     0.575     0.914     0.319     0.005   907.103
1501.6000     0.000  -826.885     0.477     0.521     0.958     0.298     0.005   907.333
1501.7000     0.000  -824.173     0.573     0.526     1.140     0.282     0.004   907.333
1501.8000     0.000  -820.875     0.337     0.446     1.002     0.291     0.004   907.333
1501.9000     0.000  -822.691     0.477     0.528     0.988     0.322     0.005   907.333
1502.0000     0.000  -809.622     0.559     0.593     0.998     0.338     0.005   907.333
1502.1000     0.000  -811.732     0.644     0.614     1.098     0.343     0.005   907.333
1502.2000     0.000  -808.024     0.650     0.632     1.072     0.342     0.005   907.333
1502.3000     0.000  -811.285     0.604     0.595     0.990     0.338     0.005   907.333
1502.4000     0.000  -811.732     0.529     0.564     1.041     0.339     0.005   907.333
1502.5000     0.000  -816.030     0.531     0.564     1.110     0.350     0.005   907.333
1502.6000     0.000  -816.267     0.681     0.619     1.836     0.350     0.003   907.071
1502.7000     0.000  -812.606     0.674     0.699     1.408     0.356     0.004   907.222
1502.8000     0.000  -801.439     0.542     0.571     1.391     0.349     0.004   907.333
1502.9000     0.000  -817.039     0.507     0.595     1.212     0.346     0.004   907.356
1503.0000     0.000  -804.849     0.601     0.569     1.179     0.333     0.004   907.778
1503.1000     0.000  -803.740     0.475     0.546     1.193     0.323     0.004   909.048
1503.2000     0.000  -805.019     0.560     0.622     1.128     0.328     0.004   912.872
1503.3000     0.000  -807.960     0.545     0.586     1.162     0.321     0.004   918.923
1503.4000     0.000  -815.852     0.477     0.525     1.131     0.323     0.004   909.952
1503.5000     0.000  -815.760     0.482     0.563     1.050     0.324     0.005   907.205
1503.6000     0.000  -820.939     0.496     0.564     1.114     0.308     0.004   907.333
1503.7000     0.000  -830.516     0.549     0.539     1.117     0.306     0.004   907.262
1503.8000     0.000  -824.008     0.494     0.555     1.081     0.316     0.004   907.051
1503.9000     0.000  -820.987     0.565     0.577     1.187     0.326     0.004   907.194
1504.0000     0.000  -815.377     0.556     0.544     1.210     0.330     0.004   907.333
1504.1000     0.000  -818.637     0.440     0.533     1.047     0.330     0.005   907.154
1504.2000     0.000  -814.098     0.486     0.538     1.054     0.341     0.005   907.308
1504.3000     0.000  -804.571     0.474     0.630     1.530     0.343     0.003   907.333
1504.4000     0.000  -817.870     0.700     0.589     1.139     0.348     0.005   907.333
1504.5000     0.000  -812.691     0.627     0.606     1.047     0.334     0.005   907.333
