~Version Information
VERS.                     2.0 : CWLS Log ASCII Standart
WRAP.                     NO  : One line per depth step
~Well Information
STRT.M                       485.0000  : Start Depth
STOP.M                      1606.7000  : Stop Depth
STEP.M                         0.1000  : Step
NULL.                         -999.25  : Null Value
COMP.                                  : Company
WELL.                                  : Well
FLD .                                  : Field
LOC .                                  : Location
PROV.                                  : Province
SRVC.                                  : Service Company
DATE.      06/12/2011                  : Log Date
UWI .                                  : Unique Well ID
~Curve Information
DEPT.M                                 :
mapo_ds.                                  :
speed_ds.                                   :
R1_ds.¬¬                                  :
R2_ds.¬¬                                  :
R3_ds.¬¬                                  :
R4_ds.¬¬                                  :
R5_ds.¬¬                                  :
R6_ds.¬¬                                  :
R7_ds.¬¬                                  :
R8_ds.¬¬                                  :
PR1_ds.¬¬                                  :
PR2_ds.¬¬                                  :
PR3_ds.¬¬                                  :
PR4_ds.¬¬                                  :
DS_ds.¬¬                                 :
tense_ds.                                 :
~ASCII Log Data
# ...
1157.0000     0.000  -806.400   141.825   124.970   119.594   110.114   112.451   116.441   116.095   135.899   254.277   241.410   235.689   246.013   244.347   815.714
1157.1000     0.000  -806.400   141.602   124.491   119.320   110.053   113.020   117.395   117.026   136.029   254.622   241.886   236.346   246.082   244.734   809.214
1157.2000     0.000  -798.720   141.827   124.309   118.933   109.826   112.434   116.688   116.776   136.494   254.260   240.997   235.709   246.321   244.322   808.644
1157.3000     0.000  -798.171   143.354   125.471   119.125   109.427   112.001   116.457   117.196   137.044   255.356   241.928   236.321   246.471   245.019   812.143
1157.4000     0.000  -810.240   141.481   124.688   120.124   111.798   113.375   116.909   116.181   135.524   254.856   241.597   236.305   247.322   245.020   803.933
1157.5000     0.000  -806.400   141.291   125.468   120.974   112.373   114.145   117.640   116.335   135.364   255.435   243.108   237.308   247.738   245.897   790.833
1157.6000     0.000  -803.657   141.643   125.842   121.131   112.046   113.460   116.880   116.223   135.609   255.103   242.722   237.355   247.655   245.709   790.071
1157.7000     0.000  -817.371   142.065   126.371   121.404   112.052   113.421   116.666   115.664   135.441   255.486   243.037   237.068   247.493   245.771   809.524
1157.8000     0.000  -802.286   142.707   126.280   120.605   111.042   112.502   116.073   115.878   136.254   255.209   242.353   236.482   247.296   245.335   817.452
1157.9000     0.000  -810.240   141.734   126.761   121.481   111.977   113.247   115.520   114.665   134.958   254.981   242.281   236.147   246.936   245.086   813.333
1158.0000     0.000  -802.286   141.317   126.619   121.736   113.166   114.563   116.636   115.012   134.198   255.880   243.255   236.749   247.364   245.812   800.500
1158.1000     0.000  -802.560   139.728   125.353   121.699   113.451   115.194   117.158   114.829   133.783   254.922   242.511   236.529   247.234   245.299   781.311
1158.2000     0.000  -796.800   139.542   125.589   121.981   114.040   115.411   117.119   115.091   133.248   254.953   242.708   237.072   247.288   245.505   781.881
1158.3000     0.000  -787.200   139.038   125.741   122.811   114.721   115.824   117.239   113.869   131.935   254.862   242.980   236.680   246.656   245.294   786.238
1158.4000     0.000  -817.920   139.286   126.058   122.866   115.072   116.299   117.559   114.335   132.467   255.585   243.616   237.201   247.539   245.985   782.689
1158.5000     0.000  -822.857   139.191   125.835   122.728   114.992   115.875   117.133   114.335   132.398   255.067   242.968   237.063   247.390   245.622   781.690
1158.6000     0.000  -826.971   139.071   125.805   122.870   115.179   116.345   117.391   113.845   132.049   255.416   243.196   236.715   247.229   245.639   785.357
1158.7000     0.000  -806.400   139.576   126.174   122.792   114.765   116.224   117.896   114.875   132.846   255.801   244.070   237.667   247.611   246.287   796.690
1158.8000     0.000  -798.171   139.844   126.282   122.989   115.061   116.489   117.987   114.523   132.605   256.332   244.269   237.512   247.666   246.445   807.881
1158.9000     0.000  -806.400   139.672   126.048   122.886   114.956   116.661   118.606   114.722   133.043   256.333   244.654   237.608   247.998   246.648   806.667
1159.0000     1.000  -787.200   140.265   126.038   122.256   114.391   116.401   118.712   115.597   133.469   256.666   244.751   237.853   247.860   246.782   796.667
1159.1000     0.000  -803.657   140.457   125.887   122.153   114.364   116.462   118.971   116.045   133.853   256.919   244.858   238.198   248.216   247.048   786.381
1159.2000     0.000  -797.440   140.504   125.869   122.057   114.327   116.237   119.079   116.286   134.308   256.741   244.948   238.344   248.636   247.167   800.178
1159.3000     0.000  -802.286   140.879   125.774   122.070   114.320   116.126   119.253   117.217   134.968   257.005   245.027   239.287   249.288   247.652   817.262
1159.4000     0.000  -806.400   140.912   125.814   122.333   114.372   115.952   119.007   117.323   135.377   256.864   244.820   239.657   249.749   247.772   813.690
1159.5000     0.000  -802.560   141.067   125.948   122.067   114.682   116.131   118.798   117.275   135.798   257.199   244.746   239.341   250.480   247.941   804.422
1159.6000     0.000  -811.886   141.104   125.947   122.397   115.135   116.441   118.920   116.781   135.404   257.545   244.867   239.178   250.539   248.032   813.595
1159.7000     0.000  -806.400   141.265   126.158   123.021   115.942   117.488   119.303   116.868   135.151   258.752   245.461   239.888   251.093   248.799   812.071
1159.8000     0.000  -797.440   141.746   127.131   124.111   116.441   117.928   121.774   117.809   135.655   259.675   248.906   241.920   252.096   250.649   814.333
1159.9000     0.000  -806.400   141.860   127.635   124.221   117.209   118.031   120.866   117.900   136.583   259.891   248.501   242.120   253.792   251.076   816.738
1160.0000     0.000  -806.400   141.810   126.278   123.234   117.312   118.010   120.404   118.221   136.364   259.819   246.681   241.455   253.676   250.408   819.667
1160.1000     0.000  -794.880   141.434   125.225   122.370   115.895   117.752   120.303   118.166   135.841   259.186   245.528   240.536   251.736   249.247   819.467
1160.2000     0.000  -800.914   141.365   125.462   122.753   116.833   118.547   120.531   117.535   135.282   259.912   245.992   240.289   252.115   249.577   819.190
1160.3000     0.000  -800.000   143.052   126.159   123.882   116.946   119.324   120.714   118.937   136.498   262.376   246.874   242.819   253.444   251.378   818.044
1160.4000     0.000  -806.400   149.943   129.501   122.691   114.108   115.740   119.718   121.789   142.139   265.683   249.220   244.480   256.246   253.907   814.810
1160.5000     0.000  -807.771   147.737   128.731   121.852   114.339   114.897   119.320   118.959   138.022   262.634   248.050   240.811   252.360   250.964   805.810
1160.6000     0.000  -809.143   149.705   129.201   121.460   113.577   114.261   119.448   120.721   140.261   263.966   248.649   242.181   253.838   252.159   805.500
1160.7000     0.000  -810.240   149.919   128.339   120.003   112.250   112.805   119.142   121.063   141.596   262.724   247.480   241.066   253.846   251.279   818.978
1160.8000     0.000  -806.400   148.905   128.397   120.854   112.388   112.385   118.214   121.458   142.979   261.290   246.611   242.311   255.367   251.395   818.310
1160.9000     0.000  -806.400   151.111   128.896   121.161   114.690   115.069   118.753   120.920   142.334   266.180   247.649   242.081   257.024   253.233   816.524
1161.0000     0.000  -806.400   151.500   129.938   122.799   118.763   118.144   119.906   122.993   143.848   269.644   249.844   245.792   262.611   256.973   810.378
1161.1000     0.000  -810.514   150.000   128.784   124.208   120.138   119.470   120.324   123.289   144.161   269.470   249.109   247.497   264.299   257.594   791.786
1161.2000     0.000  -802.286   149.881   128.818   124.603   120.617   120.167   121.621   123.743   144.824   270.048   250.439   248.346   265.442   258.569   780.952
1161.3000     0.000  -806.400   150.211   129.153   125.299   121.338   120.927   121.298   124.379   145.090   271.138   250.451   249.678   266.428   259.424   782.571
1161.4000     0.000  -814.080   151.566   129.605   125.244   121.231   121.380   121.844   124.515   145.687   272.946   251.449   249.758   266.918   260.268   787.956
1161.5000     0.000  -806.400   151.080   130.707   126.416   121.952   122.688   121.890   124.427   145.127   273.768   252.598   250.843   267.079   261.072   786.286
1161.6000     0.000  -806.400   150.545   131.251   126.550   122.253   122.456   122.182   124.398   147.371   273.001   253.433   250.948   269.624   261.751   792.905
1161.7000     0.000  -802.286   150.156   130.882   126.540   121.955   123.115   122.838   125.583   147.421   273.272   253.720   252.123   269.376   262.123   810.119
