~Version Information
VERS.                     2.0 : CWLS Log ASCII Standart
WRAP.                     NO  : One line per depth step
~Well Information
STRT.M                      1422.8000  : Start Depth
STOP.M                      1601.3000  : Stop Depth
STEP.M                         0.1000  : Step
NULL.                         -999.25  : Null Value
COMP.                                  : Company
WELL.                                  : Well
FLD .                                  : Field
LOC .                                  : Location
PROV.                                  : Province
SRVC.                                  : Service Company
DATE.      06/12/2011                  : Log Date
UWI .                                  : Unique Well ID
~Curve Information
DEPT.M                                 :
mapo_ek.                                  :
speed_ek.                                   :
IK_ek.¬‘¬/¬                            :
BK_ek.Ž¬¬                              :
A4M05N_ek.O¬¬                  :
A8M1N_ek.Ž¬¬                  :
A04M01N_ek.Ž¬¬                  :
A1M01N_ek.Ž¬¬                  :
A2M05N_ek.Ž¬¬                  :
REZ_ek.Ž¬¬                   :
tense_ek.                                 :
_GK_ek.¨¬¯/c                               :
PS_ek.                                 :
~ASCII Log Data
# ...
1457.6000     0.000  -844.667   123.902    12.426    65.644   141.060     1.579     8.022    30.200     0.065   969.667    44.168 -1403.638
1457.7000     0.000  -837.842   142.635    12.030    63.203   137.381     1.515     7.705    29.187     0.065   969.583    39.331 -1403.347
1457.8000     0.000  -842.501   147.583    11.646    60.646   132.983     1.452     7.366    28.019     0.064   969.667    36.550 -1403.120
1457.9000     0.000  -842.647   143.435    11.631    57.921   128.817     1.392     7.072    26.916     0.064   969.625    40.937 -1403.147
1458.0000     0.000  -844.580   141.729    11.964    55.666   125.340     1.340     6.823    25.954     0.063   969.667    41.808 -1403.126
1458.1000     0.000  -839.232   140.629    12.745    52.726   122.100     1.298     6.591    24.901     0.064   969.667    41.265 -1403.043
1458.2000     0.000  -838.975   140.071    10.748    49.830   119.123     1.300     6.518    23.836     0.061   969.667    42.555 -1403.132
1458.3000     0.000  -835.736   138.165     8.507    47.807   116.941     1.157     5.809    23.034     0.058   969.571    48.449 -1403.462
1458.4000     0.000  -837.957   131.098    10.201    45.523   115.145     1.048     5.345    22.299     0.062   969.333    60.017 -1403.971
1458.5000     0.000  -832.204   130.466    16.132    43.141   113.712     1.101     5.583    21.614     0.063   969.333    65.879 -1404.552
1458.6000     0.000  -835.823   147.849    22.881    42.475   112.693     1.057     5.377    21.545     0.061   969.333    53.263 -1404.984
1458.7000     0.000  -837.469   161.109    31.730    42.854   111.949     1.032     5.265    21.764     0.062   969.333    39.758 -1405.540
1458.8000     0.000  -846.837   170.909    61.344    42.956   112.488     1.089     5.531    21.834     0.066   969.190    35.241 -1406.326
1458.9000     0.000  -846.056   187.007   116.909    43.561   113.725     1.113     5.591    22.140     0.066   969.222    32.350 -1406.909
1459.0000     0.000  -845.666   182.483   153.306    44.450   114.358     1.142     5.689    22.488     0.066   969.429    32.862 -1407.429
1459.1000     0.000  -846.783   172.860   156.812    44.887   115.592     1.163     5.746    22.607     0.066   970.095    34.014 -1407.575
1459.2000     0.000  -855.602   164.523   210.431    45.383   117.022     1.185     5.783    22.766     0.066   972.167    37.757 -1407.766
1459.3000     0.000  -848.107   140.843   259.232    45.936   117.778     1.217     5.876    22.911     0.066   977.429    40.039 -1408.063
1459.4000     0.000  -845.251   118.448   268.130    46.499   117.571     1.248     5.975    23.071     0.066   981.278    37.983 -1408.279
1459.5000     0.000  -840.732   108.869   229.452    47.032   117.662     1.272     6.113    23.222     0.066   974.429    37.151 -1408.143
1459.6000     0.000  -846.285   106.918   147.361    47.374   117.742     1.298     6.242    23.329     0.066   982.667    35.213 -1407.998
1459.7000     0.000  -841.302   104.875   127.626    47.040   117.904     1.321     6.351    23.088     0.067   971.381    34.439 -1407.581
1459.8000     0.000  -846.858   100.975   114.121    47.152   118.190     1.343     6.450    23.007     0.062   969.381    40.812 -1407.393
1459.9000     0.000  -846.927    94.238    96.360    47.218   118.425     1.247     6.073    22.974     0.063   969.333    45.901 -1407.032
1460.0000     0.000  -857.860    84.967   107.461    47.379   118.662     1.323     6.451    22.978     0.065   969.333    38.025 -1406.367
1460.1000     0.000  -852.548    90.111   111.880    47.609   118.898     1.358     6.649    23.086     0.065   969.333    31.431 -1405.558
1460.2000     0.000  -848.854   101.064    96.269    48.672   119.152     1.395     6.810    23.644     0.065   969.167    31.054 -1404.915
1460.3000     0.000  -839.846   110.634    96.996    49.344   119.474     1.429     7.022    23.961     0.065   969.333    32.496 -1404.307
1460.4000     0.000  -838.029   120.455   132.394    49.830   120.850     1.434     7.107    24.256     0.065   969.333    34.646 -1403.809
1460.5000     0.000  -834.920   118.714   131.343    50.321   121.796     1.468     7.246    24.551     0.065   969.333    30.104 -1403.239
1460.6000     0.000  -835.489   108.248   106.813    50.831   122.801     1.489     7.336    24.839     0.065   969.222    23.378 -1402.644
1460.7000     0.000  -833.530   105.669    86.510    51.338   123.695     1.509     7.452    25.209     0.065   969.095    22.751 -1402.324
1460.8000     0.000  -841.512   105.319    65.573    51.785   124.339     1.533     7.585    25.646     0.065   969.500    20.888 -1402.213
1460.9000     0.000  -845.618   105.432    58.032    52.202   125.063     1.545     7.657    26.073     0.065   969.429    19.664 -1402.025
1461.0000     0.000  -846.951   106.696    56.008    52.622   125.288     1.562     7.717    26.517     0.065   969.833    26.571 -1401.777
1461.1000     0.000  -843.521   107.583    57.418    52.811   125.446     1.572     7.795    26.922     0.065   970.619    33.352 -1401.499
1461.2000     0.000  -845.170   108.426    46.137    52.944   125.616     1.596     7.907    27.295     0.066   973.200    36.645 -1401.301
1461.3000     0.000  -842.180   109.043    46.122    53.030   125.806     1.575     7.848    27.523     0.065   981.458    35.220 -1401.360
1461.4000     0.000  -843.720   108.925    68.345    53.075   126.144     1.578     7.850    27.711     0.065   985.810    32.947 -1401.348
1461.5000     0.000  -839.558   108.071   103.256    53.073   126.627     1.582     7.899    27.935     0.064   971.524    31.516 -1401.290
1461.6000     0.000  -843.724   108.204   155.156    53.536   127.219     1.595     7.962    28.330     0.063   974.857    29.147 -1401.269
1461.7000     0.000  -847.763   108.514   202.614    54.259   128.120     1.628     8.120    28.827     0.063   971.667    27.723 -1401.258
1461.8000     0.000  -849.853   111.170   222.778    55.271   129.355     1.664     8.320    29.392     0.063   969.000    24.200 -1401.436
1461.9000     0.000  -850.255   118.323   204.250    56.444   130.910     1.706     8.519    30.015     0.063   969.200    19.343 -1401.448
1462.0000     0.000  -848.373   126.345   165.769    57.668   132.214     1.754     8.711    30.750     0.064   969.333    19.059 -1401.256
1462.1000     0.000  -848.404   127.095   129.506    58.970   128.960     1.794     8.909    31.441     0.064   969.619    20.343 -1401.000
1462.2000     0.000  -855.048   117.295    97.039    60.323   124.008     1.828     9.082    32.061     0.064   970.857    19.799 -1400.531
1462.3000     0.000  -849.854   102.794    66.852    61.552   122.113     1.853     9.220    32.558     0.064   973.000    18.498 -1400.123
1462.4000     0.000  -844.954    92.106    34.904    57.895   120.725     1.911     9.473    30.709     0.065   980.444    24.764 -1399.752
1462.5000     0.000  -841.543    73.518    12.763    52.123   118.985     1.958     9.611    27.757     0.056   997.429    42.770 -1399.197
1462.6000     0.000  -841.351    34.663     6.804    49.487   116.731     1.220     6.319    26.260     0.052   993.056    69.303 -1398.783
1462.7000     0.000  -843.686   -31.840     6.840    47.062   114.500     0.868     4.743    25.064     0.055   970.381    89.767 -1398.459
1462.8000     0.000  -847.355   -35.831    11.670    44.446   112.281     1.335     6.995    23.702     0.063   968.667    89.124 -1398.254
1462.9000     0.000  -854.428    82.890    21.206    47.000   109.829     1.472     7.530    24.619     0.062   968.762    76.823 -1398.349
1463.0000     0.000  -852.046   201.884    29.618    52.050   107.505     1.490     7.601    27.045     0.061   969.286    57.637 -1398.400
1463.1000     0.000  -840.838   289.716    36.939    53.737   111.109     1.472     7.604    27.795     0.061   969.667    42.139 -1398.680
1463.2000     0.000  -840.327   342.217    49.610    54.878   114.684     1.478     7.678    28.105     0.061   969.667    35.306 -1399.159
1463.3000     0.000  -845.959   275.166    76.829    56.301   112.180     1.521     7.792    28.502     0.060   969.833    30.764 -1399.718
