~Version Information
VERS.                     2.0 : CWLS Log ASCII Standart
WRAP.                     NO  : One line per depth step
~Well Information
STRT.M                      1451.2000  : Start Depth
STOP.M                      1602.5000  : Stop Depth
STEP.M                         0.1000  : Step
NULL.                         -999.25  : Null Value
COMP.                                  : Company
WELL.                                  : Well
FLD .                                  : Field
LOC .                                  : Location
PROV.                                  : Province
SRVC.                                  : Service Company
DATE.      06/12/2011                  : Log Date
UWI .                                  : Unique Well ID
~Curve Information
DEPT.M                                 :
mapo_mek.                                  :
speed_mek.                                   :
MGZ_mek.Ž¬                                 :
MPZ_mek.Ž¬                                 :
BMK_mek.O¬                                 :
U_mek.‚                                    :
J_mek.A                                    :
tense_mek.                                 :
~ASCII Log Data
# ...
1566.9000     0.000  -806.553     1.073     1.190    15.576     0.419     0.000   978.231
1567.0000     0.000  -804.188     1.119     0.920    28.495     0.395     0.000   974.744
1567.1000     0.000  -804.987     0.847     0.923    23.529     0.401     0.000   986.333
1567.2000     0.000  -806.490     1.231     1.318    40.661     0.409     0.000   986.333
1567.3000     0.000  -823.748     1.258     1.313   126.180     0.415     0.000   986.524
1567.4000     0.000  -824.775     1.442     1.219   108.966     0.418     0.000   986.333
1567.5000     0.000  -812.691     1.569     1.558    74.409     0.425     0.000   986.333
1567.6000     0.000  -815.760     1.031     1.077    39.941     0.437     0.000   986.333
1567.7000     0.000  -821.131     1.563     1.294    33.808     0.436     0.000   986.333
1567.8000     0.000  -823.570     1.689     1.586    28.318     0.436     0.000   986.333
1567.9000     0.000  -816.400     1.231     1.247    24.399     0.428     0.000   986.333
1568.0000     0.000  -808.472     0.924     1.260    29.004     0.428     0.000   985.923
1568.1000     0.000  -797.283     1.926     1.511    36.770     0.437     0.000   984.769
1568.2000     0.000  -787.770     1.975     1.491    35.876     0.439     0.000   981.048
1568.3000     0.000  -807.896     1.350     1.419    44.855     0.437     0.000   972.538
1568.4000     0.000  -814.842     1.662     1.382    45.407     0.437     0.000   984.857
1568.5000     0.000  -813.650     1.639     1.516    34.497     0.435     0.000   986.256
1568.6000     0.000  -819.532     1.474     1.260    61.073     0.430     0.000   986.308
1568.7000     0.000  -812.947     0.756     0.917    51.763     0.429     0.000   986.256
1568.8000     0.000  -815.313     1.062     1.267    76.336     0.428     0.000   986.333
1568.9000     0.000  -809.737     1.737     1.544   111.552     0.443     0.000   986.333
1569.0000     1.000  -810.390     1.736     1.576    95.473     0.446     0.000   986.333
1569.1000     0.000  -803.147     1.422     1.402    32.515     0.440     0.000   986.333
1569.2000     0.000  -799.406     1.946     1.450    21.077     0.430     0.000   986.333
1569.3000     0.000  -811.732     0.987     1.160    19.004     0.411     0.000   986.333
1569.4000     0.000  -811.157     1.520     1.333    20.883     0.409     0.000   986.333
1569.5000     0.000  -823.748     1.502     1.492    48.035     0.409     0.000   986.333
1569.6000     0.000  -822.665     1.177     1.354    69.005     0.408     0.000   986.333
1569.7000     0.000  -821.898     1.438     1.475    80.993     0.395     0.000   986.333
1569.8000     0.000  -822.857     1.935     1.627    88.872     0.400     0.000   986.333
1569.9000     0.000  -821.131     2.427     2.018    97.998     0.413     0.000   986.436
1570.0000     0.000  -826.885     2.352     1.894    97.565     0.418     0.000   986.333
1570.1000     0.000  -821.056     1.257     1.434    79.542     0.427     0.000   986.333
1570.2000     0.000  -823.866     1.776     1.372    47.735     0.424     0.000   986.333
1570.3000     0.000  -825.707     1.299     1.106    56.741     0.435     0.000   986.333
1570.4000     0.000  -813.299     1.086     1.379    63.252     0.460     0.000   986.417
1570.5000     0.000  -809.143     1.770     1.533    90.363     0.457     0.000   986.333
1570.6000     0.000  -813.075     1.544     1.556    94.606     0.457     0.000   986.333
1570.7000     0.000  -807.896     0.924     1.202    99.489     0.472     0.000   986.333
1570.8000     0.000  -809.677     2.324     1.704    84.611     0.473     0.000   986.333
1570.9000     0.000  -810.581     2.132     1.894    80.886     0.473     0.000   986.333
1571.0000     0.000  -808.216     2.368     1.869    91.901     0.472     0.000   986.333
1571.1000     0.000  -803.548     2.005     1.811    86.028     0.467     0.000   986.333
1571.2000     0.000  -808.727     2.317     1.891    62.222     0.452     0.000   986.333
1571.3000     0.000  -823.866     2.476     1.803    42.338     0.463     0.000   986.333
1571.4000     0.000  -817.870     1.559     1.589    56.575     0.470     0.000   986.436
1571.5000     0.000  -816.980     1.798     1.506    27.520     0.466     0.000   986.476
1571.6000     0.000  -813.842     1.180     1.298    38.769     0.451     0.000   986.333
1571.7000     0.000  -814.609     1.406     1.348    56.763     0.426     0.000   986.333
1571.8000     0.000  -806.617     1.281     1.260    60.568     0.425     0.000   986.333
1571.9000     0.000  -801.375     1.136     1.160    51.657     0.430     0.000   986.333
1572.0000     0.000  -813.892     1.970     1.843    57.859     0.434     0.000   986.405
1572.1000     0.000  -808.408     1.971     1.439    77.949     0.449     0.000   986.641
1572.2000     0.000  -809.175     1.081     1.295    95.589     0.450     0.000   986.513
1572.3000     0.000  -813.203     1.698     1.641    99.427     0.443     0.000   986.333
1572.4000     0.000  -819.469     1.705     1.659    96.202     0.437     0.000   986.333
1572.5000     0.000  -812.163     1.907     1.597    94.985     0.458     0.000   986.178
1572.6000     0.000  -813.842     1.391     1.473    95.923     0.469     0.000   986.256
1572.7000     0.000  -818.062     1.631     1.559    92.236     0.477     0.000   986.333
1572.8000     0.000  -811.732     1.982     1.682    98.518     0.477     0.000   986.333
1572.9000     0.000  -801.055     1.641     1.657    96.054     0.472     0.000   986.282
1573.0000     0.000  -805.403     1.986     1.747   104.731     0.471     0.000   986.333
1573.1000     0.000  -790.917     2.007     1.774   101.439     0.476     0.000   986.333
1573.2000     0.000  -797.685     2.153     1.828    85.391     0.479     0.000   986.333
1573.3000     0.000  -795.301     1.737     1.705    94.851     0.474     0.000   986.231
1573.4000     0.000  -795.109     1.666     1.589    99.262     0.472     0.000   986.000
1573.5000     0.000  -807.955     1.923     1.615    98.757     0.478     0.000   986.000
1573.6000     0.000  -802.078     1.421     1.886    83.723     0.475     0.000   986.000
1573.7000     0.000  -804.631     1.728     1.608    87.295     0.461     0.000   986.071
1573.8000     0.000  -799.904     1.879     1.693    97.026     0.454     0.000   986.180
1573.9000     0.000  -799.457     1.468     1.695    90.882     0.450     0.000   986.000
1574.0000     0.000  -801.484     1.061     1.286    97.177     0.442     0.000   986.143
1574.1000     0.000  -798.497     1.612     1.217    83.242     0.436     0.000   986.256
1574.2000     0.000  -798.813     0.847     1.171    99.205     0.431     0.000   986.333
1574.3000     0.000  -804.188     1.220     1.075    75.662     0.413     0.000   986.333
1574.4000     0.000  -804.955     0.678     1.073    83.703     0.411     0.000   986.333
1574.5000     0.000  -810.581     1.071     1.230    64.718     0.414     0.000   986.103
1574.6000     0.000  -811.874     1.728     1.099    68.073     0.411     0.000   986.000
1574.7000     0.000  -804.252     1.125     1.101    82.225     0.414     0.000   986.205
1574.8000     0.000  -806.709     1.087     1.149    42.552     0.422     0.000   986.333
1574.9000     0.000  -805.019     0.876     1.120    69.250     0.415     0.000   986.333
1575.0000     0.000  -811.280     1.169     1.085    63.978     0.424     0.000   986.333
1575.1000     0.000  -797.347     0.904     1.203    84.929     0.436     0.000   986.333
1575.2000     0.000  -796.068     1.159     1.296    81.138     0.437     0.000   986.180
1575.3000     0.000  -810.805     1.123     1.319    69.768     0.437     0.000   986.190
1575.4000     0.000  -811.540     1.539     1.305    76.872     0.425     0.000   986.231
1575.5000     0.000  -816.016     1.142     1.345    63.361     0.416     0.000   986.205
1575.6000     0.000  -820.044     1.628     1.638    47.492     0.380     0.000   986.333
1575.7000     0.000  -805.594     2.513     1.717    44.838     0.345     0.000   986.333
