~Version Information
VERS.                     2.0 : CWLS Log ASCII Standart
WRAP.                     NO  : One line per depth step
~Well Information
STRT.M                      1422.8000  : Start Depth
STOP.M                      1601.3000  : Stop Depth
STEP.M                         0.1000  : Step
NULL.                         -999.25  : Null Value
COMP.                                  : Company
WELL.                                  : Well
FLD .                                  : Field
LOC .                                  : Location
PROV.                                  : Province
SRVC.                                  : Service Company
DATE.      06/12/2011                  : Log Date
UWI .                                  : Unique Well ID
~Curve Information
DEPT.M                                 :
mapo_ek.                                  :
speed_ek.                                   :
IK_ek.¬‘¬/¬                            :
BK_ek.Ž¬¬                              :
A4M05N_ek.O¬¬                  :
A8M1N_ek.Ž¬¬                  :
A04M01N_ek.Ž¬¬                  :
A1M01N_ek.Ž¬¬                  :
A2M05N_ek.Ž¬¬                  :
REZ_ek.Ž¬¬                   :
tense_ek.                                 :
_GK_ek.¨¬¯/c                               :
PS_ek.                                 :
~ASCII Log Data
# ...
1486.6000     0.000  -811.351   179.248     4.483     4.613     6.732     0.630     2.231     4.522     0.047  1008.944   119.035 -1406.745
1486.7000     0.000  -816.988   294.951     3.919     4.864     7.187     0.563     2.044     4.898     0.048  1008.333   128.848 -1406.085
1486.8000     0.000  -816.372   369.972     3.603     5.129     7.777     0.552     2.125     5.335     0.047  1005.524   129.338 -1405.498
1486.9000     0.000  -821.613   414.495     3.570     5.400     8.035     0.715     2.846     5.778     0.044   998.389   110.406 -1405.009
1487.0000     0.000  -828.098   467.480     3.329     5.910     8.499     0.835     3.462     6.366     0.043   977.476    86.374 -1404.848
1487.1000     0.000  -827.689   525.776     3.269     6.532     9.068     0.761     3.197     6.974     0.043   975.556    72.800 -1404.789
1487.2000     0.000  -829.961   549.823     3.823     6.532     9.697     0.712     3.094     6.904     0.042   986.722    66.224 -1404.828
1487.3000     0.000  -823.797   512.899     4.221     6.385    10.446     0.712     3.111     6.679     0.044  1007.250    69.753 -1405.059
1487.4000     0.000  -823.530   411.624     4.129     6.439    10.914     0.533     2.296     6.726     0.046  1009.533    80.084 -1405.477
1487.5000     0.000  -813.180   295.288     5.116     6.498    11.167     0.586     2.403     6.772     0.043  1009.238    92.058 -1405.994
1487.6000     0.000  -814.240   244.976     6.505     6.578    11.376     0.683     2.707     6.785     0.042  1008.778    89.368 -1406.641
1487.7000     0.000  -813.937   259.105     6.696     6.968    11.828     0.686     2.565     7.181     0.043  1007.476    83.097 -1407.098
1487.8000     0.000  -826.634   261.031     7.079     7.223    12.325     0.719     2.588     7.367     0.043  1004.867    88.613 -1407.552
1487.9000     0.000  -824.763   264.998     7.310     7.173    13.005     0.684     2.402     7.264     0.044   994.111    98.342 -1408.107
1488.0000     0.000  -830.390   253.921     7.630     7.503    13.483     0.629     2.250     7.499     0.045   978.524   113.575 -1408.694
1488.1000     0.000  -838.892   195.743     8.802     7.835    13.716     0.582     2.151     7.705     0.045   985.000   121.611 -1409.129
1488.2000     0.000  -836.040   186.537    10.648     8.252    13.905     0.717     2.639     7.982     0.042  1003.286   113.375 -1409.365
1488.3000     0.000  -824.721   226.926    11.905     8.637    14.011     0.768     2.799     8.280     0.042  1009.762    91.754 -1409.407
1488.4000     0.000  -821.544   273.472    15.594     9.171    14.237     0.740     2.793     8.612     0.042  1009.667    65.194 -1409.478
1488.5000     0.000  -819.322   292.028    24.160     9.331    14.593     0.727     2.772     8.445     0.042  1009.556    45.600 -1409.510
1488.6000     0.000  -825.555   272.751    33.966     9.411    14.833     0.716     2.759     8.206     0.041  1009.571    34.734 -1409.427
1488.7000     0.000  -822.926   225.885    41.553     9.655    14.804     0.728     2.812     8.134     0.041  1009.571    26.559 -1409.072
1488.8000     0.000  -821.979   175.609    47.065    10.084    14.772     0.770     2.971     8.306     0.041  1009.667    20.865 -1408.621
1488.9000     1.000  -819.892   155.998    51.908    10.602    14.755     0.844     3.262     8.496     0.041  1009.667    15.663 -1408.330
1489.0000     0.000  -818.628   156.150    66.789    11.230    14.751     0.952     3.692     8.696     0.041  1009.667    13.205 -1408.191
1489.1000     0.000  -823.010   159.878    91.856    11.813    14.832     0.994     3.904     8.875     0.041  1009.524    15.012 -1408.032
1489.2000     0.000  -826.396   162.046   108.102    12.263    14.977     0.999     3.930     9.098     0.041  1009.381    15.343 -1407.743
1489.3000     0.000  -824.852   156.593   103.125    12.507    15.261     1.005     4.017     9.252     0.041  1009.667    14.822 -1407.350
1489.4000     0.000  -815.617   147.674    88.781    12.687    15.514     1.026     4.163     9.430     0.041  1009.524    14.311 -1407.149
1489.5000     0.000  -812.007   140.044    78.091    13.037    15.590     1.046     4.327     9.742     0.041  1009.500    12.192 -1407.125
1489.6000     0.000  -818.310   136.436    71.797    13.614    15.618     1.073     4.507    10.344     0.040  1009.333    13.479 -1407.126
1489.7000     0.000  -821.257   140.877    67.904    14.398    15.755     1.125     4.773    10.916     0.040  1008.933    14.808 -1406.940
1489.8000     0.000  -826.097   150.664    69.534    15.080    15.986     1.211     5.116    11.560     0.040  1007.571    11.251 -1406.807
1489.9000     0.000  -820.350   159.945    74.343    15.823    16.338     1.293     5.526    12.267     0.040  1003.714    10.229 -1406.931
1490.0000     0.000  -824.163   167.582    69.830    16.662    16.767     1.290     5.618    12.989     0.040   995.500    12.398 -1407.247
1490.1000     0.000  -823.779   173.449    56.630    17.421    17.091     1.305     5.774    13.750     0.040  1000.333    14.100 -1407.630
1490.2000     0.000  -830.972   178.904    39.741    18.114    17.340     1.351     6.035    14.465     0.040   994.400    14.798 -1407.912
1490.3000     0.000  -829.084   188.707    29.029    18.867    17.461     1.387     6.260    15.272     0.040  1006.333    12.380 -1408.135
1490.4000     0.000  -824.326   200.753    20.903    19.772    17.389     1.465     6.598    15.966     0.040  1007.714    10.812 -1408.671
1490.5000     0.000  -821.773   214.184    14.869    20.223    17.148     1.488     6.817    16.784     0.039  1004.056    11.485 -1409.318
1490.6000     0.000  -822.377   224.211    11.161    20.496    16.857     1.543     7.089    17.706     0.039  1003.238    10.946 -1409.862
1490.7000     0.000  -829.702   232.048     9.262    20.578    16.435     1.532     7.048    18.342     0.039  1005.000    17.290 -1410.282
1490.8000     0.000  -826.487   234.929     8.041    20.328    15.930     1.533     7.067    18.504     0.039   994.833    27.603 -1410.472
1490.9000     0.000  -830.969   228.147     7.172    19.755    15.380     1.484     6.935    18.371     0.040   980.917    46.533 -1410.875
1491.0000     0.000  -830.542   206.956     7.063    18.896    14.899     1.363     6.373    17.931     0.041   984.476    64.638 -1411.361
1491.1000     0.000  -840.617   179.756     7.183    17.871    14.439     1.314     6.147    17.220     0.041   991.778    77.047 -1411.627
1491.2000     0.000  -835.962   154.920     7.255    17.192    14.043     1.226     5.744    16.637     0.042   995.833    95.953 -1411.612
1491.3000     0.000  -828.927   139.583     7.370    17.340    13.718     1.165     5.273    16.653     0.042  1009.292   109.854 -1411.557
1491.4000     0.000  -819.872   140.355     7.708    17.630    13.355     1.191     5.374    16.702     0.041  1009.333   115.282 -1411.590
1491.5000     0.000  -813.042   171.498     8.312    18.089    13.226     1.358     5.956    16.769     0.039  1008.958   119.746 -1411.926
1491.6000     0.000  -817.065   209.590     8.460    18.997    13.084     1.296     5.750    17.100     0.041  1007.944   122.543 -1412.066
1491.7000     0.000  -829.320   234.929     8.583    19.452    12.890     1.220     5.366    17.148     0.041  1005.238   124.698 -1412.071
1491.8000     0.000  -826.720   244.637     8.652    19.527    12.718     1.308     5.645    16.882     0.040   997.222   125.168 -1412.064
1491.9000     0.000  -824.632   235.372     7.929    19.862    12.335     1.222     5.341    16.532     0.042   984.778   119.323 -1412.288
1492.0000     0.000  -823.801   215.466     6.718    19.894    11.690     1.259     5.387    15.915     0.042   989.048   114.053 -1412.568
1492.1000     0.000  -824.820   192.775     5.861    19.346    10.965     1.226     5.228    14.922     0.044   991.000   116.462 -1412.717
1492.2000     0.000  -827.391   175.454     5.845    18.306    10.196     1.060     4.493    13.606     0.045  1007.542   122.894 -1412.541
1492.3000     0.000  -818.034   150.610     5.835    16.528     9.212     0.952     4.050    12.013     0.046  1009.600   122.040 -1412.319
