~Version Information
VERS.                     2.0 : CWLS Log ASCII Standart
WRAP.                     NO  : One line per depth step
~Well Information
STRT.M                       485.0000  : Start Depth
STOP.M                      1606.7000  : Stop Depth
STEP.M                         0.1000  : Step
NULL.                         -999.25  : Null Value
COMP.                                  : Company
WELL.                                  : Well
FLD .                                  : Field
LOC .                                  : Location
PROV.                                  : Province
SRVC.                                  : Service Company
DATE.      06/12/2011                  : Log Date
UWI .                                  : Unique Well ID
~Curve Information
DEPT.M                                 :
mapo_ds.                                  :
speed_ds.                                   :
R1_ds.¬¬                                  :
R2_ds.¬¬                                  :
R3_ds.¬¬                                  :
R4_ds.¬¬                                  :
R5_ds.¬¬                                  :
R6_ds.¬¬                                  :
R7_ds.¬¬                                  :
R8_ds.¬¬                                  :
PR1_ds.¬¬                                  :
PR2_ds.¬¬                                  :
PR3_ds.¬¬                                  :
PR4_ds.¬¬                                  :
DS_ds.¬¬                                 :
tense_ds.                                 :
~ASCII Log Data
# ...
1603.4000     0.000  -982.691   122.332   116.610   122.086   119.629   125.164   121.679   110.456   119.553   247.496   238.289   232.542   239.182   239.377   867.515
1603.5000     0.000  -956.800   122.341   116.613   122.095   119.607   125.173   121.681   110.462   119.558   247.514   238.294   232.556   239.165   239.382   876.444
1603.6000     0.000  -936.000   122.328   116.617   122.086   119.614   125.165   121.684   110.462   119.531   247.494   238.302   232.549   239.146   239.372   854.444
1603.7000     0.000  -931.200   122.332   116.625   122.090   119.631   125.156   121.691   110.464   119.541   247.487   238.316   232.553   239.173   239.382   826.389
1603.8000     0.000  -753.231   122.343   116.612   122.097   119.625   125.156   121.649   110.462   119.535   247.499   238.262   232.558   239.160   239.370   783.180
1603.9000     0.000  -298.800   122.339   116.624   122.093   119.635   125.165   121.665   110.444   119.558   247.504   238.289   232.536   239.193   239.380   727.979
1604.0000  -999.250  -999.250   122.336   116.617   122.098   119.632   125.168   121.663   110.445   119.549   247.504   238.281   232.543   239.180   239.377  -999.250
1604.1000  -999.250  -999.250   122.346   116.638   122.100   119.644   125.175   121.679   110.460   119.551   247.521   238.318   232.560   239.194   239.398  -999.250
1604.2000  -999.250  -999.250   122.334   116.632   122.082   119.631   125.160   121.681   110.450   119.549   247.494   238.313   232.532   239.180   239.380  -999.250
1604.3000  -999.250  -999.250   122.332   116.622   122.085   119.627   125.168   121.673   110.459   119.549   247.500   238.295   232.544   239.177   239.379  -999.250
1604.4000  -999.250  -999.250   122.341   116.605   122.082   119.631   125.170   121.675   110.460   119.553   247.511   238.280   232.543   239.184   239.379  -999.250
1604.5000  -999.250  -999.250   122.342   116.594   122.098   119.637   125.180   121.685   110.466   119.569   247.522   238.278   232.564   239.206   239.393  -999.250
1604.6000  -999.250  -999.250   122.364   116.607   122.108   119.632   125.200   121.683   110.477   119.559   247.564   238.290   232.585   239.190   239.407  -999.250
1604.7000  -999.250  -999.250   122.375   116.635   122.118   119.662   125.207   121.710   110.495   119.593   247.582   238.345   232.613   239.255   239.449  -999.250
1604.8000  -999.250  -999.250   122.359   116.630   122.109   119.657   125.191   121.710   110.478   119.594   247.550   238.340   232.587   239.251   239.432  -999.250
1604.9000  -999.250  -999.250   122.355   116.614   122.109   119.662   125.189   121.705   110.469   119.596   247.544   238.319   232.577   239.258   239.425  -999.250
1605.0000  -999.250  -999.250   122.353   116.622   122.091   119.650   125.183   121.701   110.464   119.590   247.536   238.322   232.555   239.241   239.413  -999.250
1605.1000  -999.250  -999.250   122.345   116.620   122.092   119.664   125.187   121.698   110.477   119.585   247.532   238.318   232.568   239.249   239.417  -999.250
1605.2000  -999.250  -999.250   122.347   116.624   122.095   119.654   125.185   121.699   110.470   119.594   247.533   238.322   232.565   239.248   239.417  -999.250
1605.3000  -999.250  -999.250   122.355   116.628   122.105   119.668   125.193   121.715   110.484   119.601   247.548   238.343   232.589   239.269   239.437  -999.250
1605.4000  -999.250  -999.250   122.344   116.631   122.108   119.666   125.189   121.714   110.478   119.610   247.533   238.346   232.585   239.276   239.435  -999.250
1605.5000  -999.250  -999.250   122.342   116.632   122.094   119.664   125.184   121.707   110.473   119.601   247.525   238.339   232.567   239.265   239.424  -999.250
1605.6000  -999.250  -999.250   122.353   116.629   122.107   119.667   125.199   121.721   110.480   119.603   247.553   238.350   232.587   239.271   239.440  -999.250
1605.7000  -999.250  -999.250   122.352   116.640   122.100   119.671   125.198   121.723   110.484   119.603   247.550   238.363   232.584   239.274   239.443  -999.250
1605.8000  -999.250  -999.250   122.342   116.655   122.097   119.675   125.192   121.724   110.478   119.608   247.534   238.379   232.575   239.282   239.442  -999.250
1605.9000  -999.250  -999.250   122.348   116.656   122.096   119.683   125.194   121.730   110.473   119.608   247.541   238.386   232.569   239.292   239.447  -999.250
1606.0000  -999.250  -999.250   122.348   116.664   122.095   119.682   125.192   121.736   110.483   119.618   247.540   238.400   232.577   239.300   239.455  -999.250
1606.1000  -999.250  -999.250   122.343   116.653   122.097   119.683   125.181   121.731   110.468   119.612   247.524   238.384   232.565   239.295   239.442  -999.250
1606.2000  -999.250  -999.250   122.346   116.652   122.097   119.682   125.174   121.728   110.474   119.607   247.520   238.380   232.571   239.290   239.440  -999.250
1606.3000  -999.250  -999.250   122.348   116.656   122.095   119.683   125.185   121.732   110.473   119.624   247.533   238.388   232.569   239.307   239.449  -999.250
1606.4000  -999.250  -999.250   122.356   116.663   122.098   119.685   125.191   121.741   110.477   119.628   247.547   238.405   232.575   239.313   239.460  -999.250
1606.5000  -999.250  -999.250   122.336   116.659   122.092   119.695   125.188   121.741   110.467   119.627   247.524   238.400   232.559   239.322   239.451  -999.250
1606.6000  -999.250  -999.250   122.357   116.642   122.097   119.671   125.190   121.721   110.485   119.603   247.547   238.363   232.582   239.273   239.441  -999.250
1606.7000  -999.250  -999.250   122.359   116.641   122.093   119.678   125.191   121.740   110.483   119.613   247.550   238.381   232.575   239.291   239.449  -999.250
