~Version Information
VERS.                     2.0 : CWLS Log ASCII Standart
WRAP.                     NO  : One line per depth step
~Well Information
STRT.M                       485.0000  : Start Depth
STOP.M                      1606.7000  : Stop Depth
STEP.M                         0.1000  : Step
NULL.                         -999.25  : Null Value
COMP.                                  : Company
WELL.                                  : Well
FLD .                                  : Field
LOC .                                  : Location
PROV.                                  : Province
SRVC.                                  : Service Company
DATE.      06/12/2011                  : Log Date
UWI .                                  : Unique Well ID
~Curve Information
DEPT.M                                 :
mapo_ds.                                  :
speed_ds.                                   :
R1_ds.¬¬                                  :
R2_ds.¬¬                                  :
R3_ds.¬¬                                  :
R4_ds.¬¬                                  :
R5_ds.¬¬                                  :
R6_ds.¬¬                                  :
R7_ds.¬¬                                  :
R8_ds.¬¬                                  :
PR1_ds.¬¬                                  :
PR2_ds.¬¬                                  :
PR3_ds.¬¬                                  :
PR4_ds.¬¬                                  :
DS_ds.¬¬                                 :
tense_ds.                                 :
~ASCII Log Data
# ...
1377.8000     0.000 -1047.273   142.160   125.438   121.830   113.748   114.782   117.759   118.188   137.703   256.942   243.197   240.019   251.451   247.902   933.333
1377.9000     0.000 -1036.800   142.200   126.966   122.776   113.849   114.693   117.964   118.394   138.014   256.893   244.930   241.170   251.862   248.714   933.333
1378.0000     0.000 -1026.327   141.767   128.169   123.377   114.333   114.474   117.537   117.836   137.721   256.241   245.705   241.212   252.054   248.803   933.333
1378.1000     0.000 -1047.273   140.556   127.470   125.348   116.020   114.619   117.422   116.556   135.411   255.175   244.892   241.904   251.431   248.351   933.424
1378.2000     0.000 -1052.509   140.962   128.458   125.129   115.864   115.061   117.576   116.639   135.306   256.023   246.034   241.769   251.171   248.749   933.333
1378.3000     0.000 -1052.509   140.477   128.114   125.727   115.910   114.986   117.420   116.732   135.346   255.462   245.533   242.459   251.256   248.678   933.333
1378.4000     0.000 -1057.745   140.134   127.404   124.121   116.130   114.932   116.488   115.720   133.945   255.066   243.892   239.841   250.075   247.218   933.333
1378.5000     0.000 -1052.509   140.491   126.693   122.117   114.715   114.319   115.864   114.361   133.375   254.810   242.556   236.478   248.090   245.484   933.424
1378.6000     0.000 -1062.982   140.077   126.554   121.796   114.756   114.035   115.418   113.474   132.879   254.112   241.972   235.270   247.635   244.747   933.333
1378.7000     0.000 -1052.509   140.353   126.278   121.611   114.781   113.909   115.238   113.143   132.415   254.262   241.515   234.754   247.196   244.432   933.333
1378.8000     0.000 -1042.036   141.127   126.266   121.621   114.762   113.783   115.024   113.486   133.235   254.910   241.290   235.107   247.997   244.826   933.061
1378.9000     0.000 -1052.509   141.497   126.508   121.659   114.759   113.893   115.288   113.994   134.121   255.390   241.796   235.653   248.879   245.430   933.000
1379.0000     1.000 -1056.000   141.834   126.518   121.808   114.888   114.395   116.030   115.047   134.882   256.229   242.548   236.854   249.770   246.350   933.056
1379.1000     0.000 -1057.745   142.589   126.792   121.985   115.030   115.102   117.774   114.484   135.304   257.691   244.566   236.469   250.334   247.265   933.333
1379.2000     0.000 -1056.000   143.255   127.144   122.112   115.047   115.209   116.761   115.057   135.644   258.464   243.905   237.169   250.690   247.557   933.333
1379.3000     0.000 -1052.509   143.600   128.418   122.273   115.148   115.115   117.001   115.027   136.030   258.715   245.419   237.300   251.178   248.153   933.424
1379.4000     0.000 -1049.018   144.475   129.279   122.363   115.174   115.149   116.913   115.301   136.149   259.624   246.192   237.664   251.322   248.701   933.333
1379.5000     0.000 -1042.036   144.740   129.021   122.363   115.298   115.353   117.062   116.303   136.964   260.094   246.083   238.666   252.262   249.276   933.333
1379.6000     0.000 -1042.036   143.262   126.890   122.259   115.573   115.461   117.334   115.530   137.802   258.723   244.223   237.790   253.376   248.528   933.333
1379.7000     0.000 -1026.327   142.662   126.110   122.338   116.055   116.104   117.502   117.355   138.826   258.766   243.612   239.692   254.882   249.238   933.273
1379.8000     0.000 -1031.564   142.073   126.333   122.418   114.757   116.219   117.895   116.317   136.047   258.292   244.228   238.734   250.803   248.015   933.000
1379.9000     0.000 -1031.564   142.218   126.612   122.274   114.723   115.521   118.223   116.201   135.874   257.738   244.835   238.475   250.597   247.911   933.000
1380.0000     0.000 -1026.327   145.428   126.047   121.971   114.538   115.523   117.831   116.444   135.725   260.951   243.878   238.415   250.263   248.377   933.000
1380.1000     0.000 -1054.255   142.919   125.930   122.082   114.480   115.678   118.010   116.808   136.360   258.596   243.940   238.890   250.840   248.066   933.000
1380.2000     0.000 -1050.764   143.181   125.951   122.956   114.286   115.766   118.507   117.249   138.244   258.947   244.457   240.204   252.531   249.035   933.000
1380.3000     0.000 -1047.273   143.628   125.958   122.984   114.026   115.377   118.865   118.165   137.769   259.005   244.823   241.149   251.795   249.193   933.151
1380.4000     0.000 -1052.509   144.072   125.547   121.923   114.169   115.595   118.880   121.816   139.175   259.667   244.427   243.738   253.344   250.294   933.242
1380.5000     0.000 -1047.273   143.204   124.703   122.331   114.999   116.333   120.788   122.071   138.785   259.537   245.491   244.402   253.785   250.804   933.333
1380.6000     0.000 -1047.273   141.508   125.162   122.927   115.611   117.148   121.369   121.482   140.692   258.656   246.531   244.409   256.303   251.475   933.636
1380.7000     0.000 -1042.036   141.614   126.457   122.978   116.965   116.554   123.002   121.443   137.193   258.168   249.459   244.420   254.159   251.551   933.333
1380.8000     0.000 -1052.509   140.013   126.038   123.514   116.467   116.597   120.779   119.281   136.066   256.610   246.817   242.795   252.533   249.689   933.333
1380.9000     0.000 -1043.782   140.450   125.952   123.851   115.351   116.152   120.766   118.886   135.872   256.602   246.718   242.736   251.223   249.320   933.333
1381.0000     0.000 -1024.582   141.589   126.501   124.342   115.436   115.855   120.696   118.312   136.187   257.444   247.197   242.654   251.623   249.730   933.333
1381.1000     0.000 -1060.800   146.523   127.978   122.086   115.687   115.903   120.023   118.174   136.902   262.426   248.001   240.261   252.589   250.819   933.333
1381.2000     0.000 -1048.320   141.357   126.184   121.856   115.758   115.925   119.396   118.482   136.385   257.281   245.580   240.338   252.143   248.836   933.233
1381.3000     0.000 -1052.509   141.651   126.034   121.886   116.041   115.964   118.857   118.288   136.174   257.615   244.891   240.174   252.215   248.724   933.333
1381.4000     0.000 -1057.745   141.892   126.519   121.712   116.427   115.908   118.469   118.150   136.701   257.800   244.989   239.861   253.128   248.944   933.061
1381.5000     0.000 -1057.745   143.511   126.780   121.741   116.215   115.908   118.881   118.412   136.550   259.419   245.661   240.153   252.765   249.499   932.909
1381.6000     0.000 -1057.745   146.026   126.346   121.450   116.102   116.054   117.673   117.657   136.873   262.080   244.019   239.108   252.976   249.546   932.697
1381.7000     0.000 -1042.036   145.003   125.901   121.584   116.257   116.369   117.544   117.044   136.912   261.372   243.445   238.628   253.169   249.154   933.000
1381.8000     0.000 -1042.036   142.605   125.906   122.104   116.380   116.513   117.595   117.215   137.017   259.118   243.501   239.320   253.397   248.834   933.182
1381.9000     0.000 -1036.800   142.714   126.090   122.869   116.475   116.755   117.657   117.265   137.345   259.469   243.747   240.134   253.819   249.292   933.333
1382.0000     0.000 -1026.327   143.234   126.455   123.628   116.573   117.032   117.645   117.215   137.669   260.266   244.099   240.843   254.243   249.863   933.333
1382.1000     0.000 -1033.309   142.253   126.778   123.892   116.547   116.994   117.750   117.249   137.490   259.247   244.528   241.141   254.037   249.738   933.333
1382.2000     0.000 -1049.600   141.969   127.567   124.704   116.625   116.901   117.631   117.410   137.109   258.870   245.198   242.114   253.733   249.979   933.333
1382.3000     0.000 -1052.509   141.772   128.024   125.115   116.747   117.101   117.707   117.095   136.307   258.874   245.731   242.210   253.054   249.967   933.273
1382.4000     0.000 -1050.240   141.796   128.526   125.528   116.730   117.159   117.551   116.903   135.456   258.956   246.076   242.430   252.186   249.912   933.000
1382.5000     0.000 -1040.291   142.011   129.256   126.269   116.718   117.175   117.296   117.408   135.112   259.186   246.552   243.677   251.829   250.311   932.909
