~Version Information
VERS.                     2.0 : CWLS Log ASCII Standart
WRAP.                     NO  : One line per depth step
~Well Information
STRT.M                       485.0000  : Start Depth
STOP.M                      1606.7000  : Stop Depth
STEP.M                         0.1000  : Step
NULL.                         -999.25  : Null Value
COMP.                                  : Company
WELL.                                  : Well
FLD .                                  : Field
LOC .                                  : Location
PROV.                                  : Province
SRVC.                                  : Service Company
DATE.      06/12/2011                  : Log Date
UWI .                                  : Unique Well ID
~Curve Information
DEPT.M                                 :
mapo_ds.                                  :
speed_ds.                                   :
R1_ds.¬¬                                  :
R2_ds.¬¬                                  :
R3_ds.¬¬                                  :
R4_ds.¬¬                                  :
R5_ds.¬¬                                  :
R6_ds.¬¬                                  :
R7_ds.¬¬                                  :
R8_ds.¬¬                                  :
PR1_ds.¬¬                                  :
PR2_ds.¬¬                                  :
PR3_ds.¬¬                                  :
PR4_ds.¬¬                                  :
DS_ds.¬¬                                 :
tense_ds.                                 :
~ASCII Log Data
# ...
931.4000     0.000 -1152.000   131.070   114.649   119.323   111.768   123.154   131.036   126.287   134.568   254.224   245.685   245.610   246.337   247.964   673.567
931.5000     0.000 -1152.000   131.134   114.405   119.299   111.759   123.168   130.834   125.948   134.691   254.302   245.239   245.247   246.450   247.809   687.333
931.6000     0.000 -1198.080   131.373   114.219   119.296   111.759   122.953   131.249   126.258   134.519   254.326   245.468   245.555   246.279   247.907   686.067
931.7000     0.000 -1209.600   131.514   114.214   119.303   111.776   122.902   130.985   125.795   134.473   254.416   245.199   245.098   246.248   247.740   674.233
931.8000     0.000 -1164.800   131.205   114.205   119.319   111.759   122.749   131.112   126.189   134.736   253.954   245.317   245.508   246.494   247.818   668.556
931.9000     0.000 -1152.000   131.097   113.993   119.166   111.738   122.771   131.728   126.713   134.972   253.868   245.720   245.879   246.710   248.044   675.900
932.0000     0.000 -1152.000   130.937   113.933   118.969   111.699   122.784   131.606   127.598   135.584   253.721   245.540   246.567   247.283   248.278   685.100
932.1000     0.000 -1152.000   131.282   113.927   118.886   111.625   122.770   131.870   128.231   136.345   254.051   245.797   247.117   247.970   248.734   674.100
932.2000     0.000 -1152.000   131.228   113.746   119.225   111.617   122.428   131.560   128.355   136.513   253.656   245.305   247.580   248.130   248.668   677.467
932.3000     0.000 -1175.040   130.955   113.798   119.420   111.626   122.423   131.252   127.706   135.990   253.377   245.050   247.126   247.616   248.293   685.500
932.4000     0.000 -1207.680   130.693   113.964   119.421   111.669   122.710   130.937   126.864   135.674   253.403   244.900   246.284   247.342   247.983   676.833
932.5000     0.000 -1171.200   130.977   113.995   119.426   111.696   123.256   131.894   128.042   136.654   254.233   245.889   247.468   248.350   248.985   686.200
932.6000     0.000 -1152.000   130.535   113.955   119.451   111.598   123.339   132.794   128.598   136.902   253.874   246.749   248.049   248.500   249.293   686.185
932.7000     0.000 -1169.280   130.686   113.910   119.451   111.365   123.184   132.964   128.276   136.651   253.870   246.874   247.726   248.016   249.122   671.433
932.8000     0.000 -1152.000   131.247   114.124   119.478   111.670   122.834   132.405   128.297   136.466   254.082   246.529   247.775   248.137   249.131   661.467
932.9000     0.000 -1152.000   132.240   114.243   119.723   112.005   123.038   132.169   128.265   136.734   255.278   246.411   247.988   248.739   249.604   661.967
933.0000     0.000 -1152.000   131.537   114.716   120.158   112.609   123.109   130.794   127.059   135.881   254.646   245.510   247.217   248.490   248.966   662.833
933.1000     0.000 -1157.760   131.908   115.129   120.310   113.025   123.504   130.781   126.350   135.547   255.411   245.909   246.660   248.573   249.138   664.067
933.2000     0.000 -1152.000   132.106   115.650   120.492   113.293   123.597   130.534   126.278   135.654   255.703   246.184   246.770   248.947   249.401   667.900
933.3000     0.000 -1180.800   132.345   115.837   120.654   113.450   123.466   130.745   125.923   136.026   255.811   246.582   246.577   249.476   249.612   676.900
933.4000     0.000 -1198.080   132.055   116.352   120.713   113.740   123.330   129.453   124.749   135.144   255.385   245.805   245.462   248.885   248.884   691.633
933.5000     0.000 -1158.400   132.684   116.968   120.717   113.947   123.749   128.980   123.479   134.609   256.433   245.948   244.196   248.556   248.783   691.111
933.6000     0.000 -1159.680   132.469   116.772   120.350   113.888   123.686   129.400   123.679   134.587   256.154   246.172   244.029   248.475   248.708   681.133
933.7000     0.000 -1173.120   131.751   116.777   120.241   113.951   123.582   128.727   122.984   133.737   255.332   245.504   243.225   247.688   247.937   663.900
933.8000     0.000 -1152.000   131.657   117.092   120.211   114.617   123.701   128.534   122.105   133.175   255.358   245.626   242.316   247.792   247.773   661.000
933.9000     0.000 -1152.000   130.923   118.103   121.007   115.666   123.594   127.599   120.695   132.278   254.517   245.703   241.703   247.944   247.467   661.100
934.0000     0.000 -1152.000   131.496   118.103   120.965   115.853   124.302   127.551   119.781   131.341   255.798   245.654   240.746   247.193   247.348   661.533
934.1000     0.000 -1153.920   131.798   117.156   119.524   115.230   124.110   128.806   122.100   132.410   255.908   245.962   241.624   247.640   247.783   662.367
934.2000     0.000 -1176.960   131.665   116.299   119.057   114.021   123.973   129.060   122.980   133.148   255.637   245.358   242.037   247.169   247.550   665.000
934.3000     0.000 -1198.080   130.739   115.926   117.919   113.672   123.361   128.161   122.277   132.765   254.100   244.087   240.196   246.437   246.205   670.133
934.4000     0.000 -1186.133   131.406   116.918   119.881   114.949   124.119   128.615   121.842   132.523   255.525   245.533   241.723   247.472   247.563   681.222
934.5000     0.000 -1157.760   132.293   117.730   120.654   115.231   124.354   128.784   122.192   132.868   256.647   246.514   242.846   248.099   248.526   689.567
934.6000     0.000 -1152.000   132.556   118.265   121.081   115.204   124.313   128.502   121.822   132.710   256.869   246.767   242.903   247.913   248.613   690.333
934.7000     0.000 -1157.760   131.940   116.910   119.641   114.004   123.710   128.891   122.935   133.368   255.650   245.802   242.576   247.371   247.850   682.733
934.8000     0.000 -1152.000   131.459   116.277   118.966   114.112   123.856   129.070   123.155   133.333   255.315   245.347   242.120   247.446   247.557   675.433
934.9000     0.000 -1152.000   131.902   116.147   118.231   114.305   124.459   129.365   122.735   133.199   256.362   245.511   240.966   247.504   247.586   661.633
935.0000     0.000 -1169.280   131.280   115.480   118.800   114.068   124.377   129.352   123.131   133.417   255.657   244.833   241.931   247.485   247.476   661.567
935.1000     0.000 -1209.600   132.401   115.814   119.284   113.939   124.360   129.900   123.951   134.100   256.761   245.714   243.235   248.038   248.437   663.567
935.2000     0.000 -1196.800   132.027   115.696   119.874   113.690   124.251   130.262   124.244   134.503   256.278   245.958   244.118   248.193   248.637   667.296
935.3000     0.000 -1152.000   130.765   115.446   120.472   113.738   123.666   129.638   123.857   133.702   254.432   245.084   244.329   247.441   247.821   675.267
935.4000     0.000 -1152.000   131.430   116.512   120.626   114.368   123.854   129.358   123.503   133.400   255.285   245.870   244.129   247.767   248.263   689.833
935.5000     0.000 -1152.000   132.693   117.477   120.643   114.879   124.420   129.567   123.243   133.734   257.113   247.044   243.886   248.613   249.164   688.967
935.6000     0.000 -1152.000   132.144   116.684   120.524   114.237   124.336   129.913   123.753   133.905   256.480   246.597   244.277   248.142   248.874   675.767
935.7000     0.000 -1152.000   131.569   115.973   120.417   113.711   123.704   129.883   124.329   133.876   255.273   245.856   244.746   247.587   248.366   661.300
935.8000     0.000 -1198.080   131.757   115.840   120.121   113.562   123.821   129.541   123.700   133.728   255.579   245.380   243.821   247.290   248.017   661.000
935.9000     0.000 -1209.600   130.701   115.737   119.769   113.449   123.835   129.835   123.970   134.049   254.536   245.572   243.739   247.499   247.837   661.333
936.0000     0.000 -1164.800   130.955   115.841   119.767   113.434   123.499   129.095   123.151   133.220   254.454   244.936   242.918   246.653   247.240   661.444
936.1000     0.000 -1152.000   130.492   116.047   119.772   113.547   123.125   128.248   122.302   132.383   253.618   244.296   242.074   245.930   246.479   661.333
