~Version Information
VERS.                     2.0 : CWLS Log ASCII Standart
WRAP.                     NO  : One line per depth step
~Well Information
STRT.M                      1422.8000  : Start Depth
STOP.M                      1601.3000  : Stop Depth
STEP.M                         0.1000  : Step
NULL.                         -999.25  : Null Value
COMP.                                  : Company
WELL.                                  : Well
FLD .                                  : Field
LOC .                                  : Location
PROV.                                  : Province
SRVC.                                  : Service Company
DATE.      06/12/2011                  : Log Date
UWI .                                  : Unique Well ID
~Curve Information
DEPT.M                                 :
mapo_ek.                                  :
speed_ek.                                   :
IK_ek.¬‘¬/¬                            :
BK_ek.Ž¬¬                              :
A4M05N_ek.O¬¬                  :
A8M1N_ek.Ž¬¬                  :
A04M01N_ek.Ž¬¬                  :
A1M01N_ek.Ž¬¬                  :
A2M05N_ek.Ž¬¬                  :
REZ_ek.Ž¬¬                   :
tense_ek.                                 :
_GK_ek.¨¬¯/c                               :
PS_ek.                                 :
~ASCII Log Data
# ...
1509.8000     0.000  -818.206  1339.335     0.794     1.098     2.301     0.332     0.529     0.760     0.040  1009.667    10.309 -1417.190
1509.9000     0.000  -812.730  1337.483     0.803     1.050     2.235     0.332     0.529     0.734     0.040  1009.524    10.921 -1417.270
1510.0000     0.000  -818.139  1338.537     0.813     1.038     2.169     0.331     0.529     0.727     0.040  1009.333    14.809 -1417.171
1510.1000     0.000  -820.061  1338.947     0.822     0.981     2.124     0.331     0.529     0.694     0.040  1009.333    17.367 -1417.225
1510.2000     0.000  -821.356  1340.824     0.822     0.942     2.070     0.333     0.529     0.694     0.040  1009.429    15.303 -1417.156
1510.3000     0.000  -818.831  1342.908     0.815     0.912     2.003     0.335     0.529     0.688     0.040  1009.667    10.836 -1416.782
1510.4000     0.000  -818.012  1344.459     0.807     0.873     1.964     0.331     0.529     0.678     0.040  1009.444    11.095 -1416.641
1510.5000     0.000  -813.341  1345.765     0.807     0.840     1.917     0.331     0.529     0.661     0.040  1009.611    13.955 -1416.288
1510.6000     0.000  -814.000  1345.485     0.806     0.807     1.876     0.332     0.529     0.661     0.040  1009.429    13.460 -1415.952
1510.7000     0.000  -817.596  1345.789     0.804     0.785     1.831     0.325     0.516     0.655     0.040  1009.389    12.584 -1415.558
1510.8000     0.000  -821.943  1345.104     0.808     0.755     1.785     0.324     0.509     0.641     0.040  1009.333    11.996 -1415.083
1510.9000     0.000  -827.249  1345.700     0.808     0.721     1.739     0.324     0.496     0.628     0.040  1009.333    12.379 -1414.509
1511.0000     0.000  -829.512  1346.741     0.799     0.702     1.699     0.324     0.496     0.628     0.040  1009.333    13.016 -1413.913
1511.1000     0.000  -820.455  1345.626     0.793     0.668     1.661     0.324     0.496     0.628     0.040  1009.381    11.250 -1413.242
1511.2000     0.000  -826.647  1348.337     0.784     0.655     1.626     0.326     0.496     0.615     0.040  1009.667    12.722 -1412.710
1511.3000     0.000  -814.808  1351.863     0.773     0.628     1.593     0.327     0.496     0.602     0.040  1009.333    15.868 -1412.191
1511.4000     0.000  -828.165  1353.437     0.773     0.603     1.560     0.324     0.496     0.595     0.040  1009.583    17.162 -1411.769
1511.5000     0.000  -817.026  1355.521     0.779     0.588     1.547     0.319     0.496     0.595     0.040  1009.583    16.906 -1411.409
1511.6000     0.000  -821.275  1357.986     0.790     0.562     1.514     0.317     0.496     0.595     0.040  1009.667    14.980 -1411.185
1511.7000     0.000  -823.171  1356.605     0.808     0.542     1.494     0.317     0.489     0.588     0.040  1009.333    13.055 -1411.179
1511.8000     0.000  -822.304  1357.409     0.831     0.516     1.468     0.319     0.488     0.575     0.040  1009.333    11.965 -1411.181
1511.9000     0.000  -822.136  1356.294     0.847     0.516     1.448     0.328     0.496     0.582     0.040  1009.333    11.445 -1411.262
1512.0000     0.000  -823.822  1354.743     0.844     0.496     1.421     0.331     0.502     0.589     0.040  1009.333    12.112 -1411.394
1512.1000     0.000  -821.597  1352.716     0.832     0.489     1.388     0.331     0.496     0.595     0.040  1009.333    12.529 -1411.609
1512.2000     0.000  -816.127  1349.180     0.832     0.471     1.382     0.328     0.496     0.575     0.040  1009.333    12.266 -1411.873
1512.3000     0.000  -808.820  1345.301     0.835     0.463     1.369     0.331     0.496     0.569     0.040  1009.333    14.837 -1412.243
1512.4000     0.000  -813.209  1344.168     0.825     0.450     1.342     0.331     0.496     0.562     0.040  1009.500    17.306 -1412.563
1512.5000     0.000  -817.347  1343.262     0.817     0.430     1.309     0.329     0.496     0.562     0.040  1009.667    15.159 -1412.846
1512.6000     0.000  -815.849  1345.608     0.810     0.423     1.283     0.326     0.496     0.562     0.040  1009.381    11.809 -1413.098
1512.7000     0.000  -816.418  1346.785     0.798     0.417     1.256     0.324     0.496     0.562     0.040  1009.333     9.883 -1413.362
1512.8000     0.000  -819.166  1347.010     0.787     0.403     1.256     0.323     0.483     0.555     0.040  1009.444     9.581 -1413.487
1512.9000     0.000  -819.615  1350.953     0.795     0.397     1.223     0.319     0.496     0.562     0.040  1009.476     9.884 -1413.479
1513.0000     0.000  -830.583  1358.777     0.816     0.397     1.217     0.324     0.496     0.554     0.040  1009.619    13.995 -1413.471
1513.1000     0.000  -826.513  1367.317     0.817     0.390     1.190     0.327     0.503     0.555     0.040  1009.500    16.006 -1413.468
1513.2000     0.000  -826.726  1371.543     0.800     0.383     1.177     0.324     0.496     0.549     0.040  1009.500    12.805 -1413.714
1513.3000     0.000  -820.920  1372.727     0.783     0.370     1.157     0.324     0.496     0.549     0.040  1009.524    11.650 -1413.914
1513.4000     0.000  -822.348  1369.902     0.771     0.357     1.157     0.326     0.496     0.536     0.040  1009.429    10.614 -1414.005
1513.5000     0.000  -818.033  1365.855     0.760     0.344     1.144     0.323     0.496     0.529     0.040  1009.333     9.404 -1414.185
1513.6000     0.000  -814.589  1366.977     0.750     0.337     1.137     0.317     0.483     0.522     0.040  1009.333    10.704 -1414.475
1513.7000     0.000  -823.265  1372.195     0.744     0.331     1.111     0.316     0.483     0.529     0.040  1009.333    12.159 -1414.662
1513.8000     0.000  -828.637  1377.753     0.741     0.331     1.124     0.311     0.463     0.529     0.040  1009.333    10.814 -1414.770
1513.9000     0.000  -832.360  1386.587     0.748     0.331     1.131     0.309     0.463     0.542     0.040  1009.500     8.940 -1414.639
1514.0000     0.000  -830.443  1399.512     0.767     0.344     1.117     0.311     0.488     0.542     0.040  1009.476     9.925 -1414.580
1514.1000     0.000  -829.175  1410.391     0.799     0.357     1.124     0.321     0.507     0.562     0.040  1009.556    11.914 -1414.733
1514.2000     0.000  -832.381  1414.191     0.808     0.370     1.124     0.327     0.509     0.595     0.040  1009.500    13.456 -1414.770
1514.3000     0.000  -820.329  1413.254     0.800     0.370     1.118     0.327     0.529     0.588     0.040  1009.333    15.321 -1414.712
1514.4000     0.000  -824.326  1404.477     0.796     0.370     1.107     0.337     0.522     0.595     0.040  1009.467    15.702 -1414.570
1514.5000     0.000  -815.852  1395.455     0.773     0.372     1.091     0.319     0.496     0.595     0.040  1009.458    16.209 -1414.451
1514.6000     0.000  -814.354  1386.164     0.769     0.357     1.051     0.327     0.502     0.584     0.040  1009.333    16.073 -1414.482
1514.7000     0.000  -808.599  1376.950     0.784     0.350     1.025     0.340     0.521     0.562     0.040  1009.333    16.034 -1414.496
1514.8000     0.000  -812.899  1376.098     0.782     0.330     0.998     0.324     0.476     0.555     0.040  1009.333    17.371 -1414.334
1514.9000     0.000  -818.596  1376.817     0.775     0.324     0.975     0.317     0.463     0.542     0.040  1009.333    16.653 -1414.267
1515.0000     0.000  -828.156  1375.022     0.777     0.297     0.937     0.316     0.463     0.529     0.040  1009.333    14.249 -1414.188
1515.1000     0.000  -826.890  1376.763     0.781     0.291     0.899     0.317     0.456     0.502     0.040  1009.333    12.857 -1414.241
1515.2000     0.000  -826.543  1373.593     0.762     0.264     0.876     0.324     0.463     0.504     0.040  1009.292    11.766 -1414.274
1515.3000     0.000  -824.978  1370.155     0.744     0.264     0.866     0.317     0.450     0.496     0.040  1009.333    12.454 -1414.137
1515.4000     0.000  -822.052  1368.144     0.738     0.245     0.860     0.317     0.463     0.496     0.040  1009.333    11.061 -1413.956
1515.5000     0.000  -815.932  1365.086     0.738     0.245     0.833     0.319     0.463     0.496     0.040  1009.389     8.050 -1413.903
