~Version Information
VERS.                     2.0 : CWLS Log ASCII Standart
WRAP.                     NO  : One line per depth step
~Well Information
STRT.M                      1451.2000  : Start Depth
STOP.M                      1602.5000  : Stop Depth
STEP.M                         0.1000  : Step
NULL.                         -999.25  : Null Value
COMP.                                  : Company
WELL.                                  : Well
FLD .                                  : Field
LOC .                                  : Location
PROV.                                  : Province
SRVC.                                  : Service Company
DATE.      06/12/2011                  : Log Date
UWI .                                  : Unique Well ID
~Curve Information
DEPT.M                                 :
mapo_mek.                                  :
speed_mek.                                   :
MGZ_mek.Ž¬                                 :
MPZ_mek.Ž¬                                 :
BMK_mek.O¬                                 :
U_mek.‚                                    :
J_mek.A                                    :
tense_mek.                                 :
~ASCII Log Data
# ...
1593.6000     0.000  -993.549     1.182     1.212    67.652     0.395     0.000   987.788
1593.7000     0.000 -1009.371     1.209     1.307    59.881     0.370     0.000   989.633
1593.8000     0.000 -1008.586     1.887     1.442    33.965     0.327     0.000   994.424
1593.9000     0.000 -1024.453     1.996     1.728    46.527     0.323     0.000  1006.788
1594.0000     0.000 -1012.447     1.321     1.296    51.724     0.424     0.000  1022.867
1594.1000     0.000 -1000.954     1.184     1.134    55.059     0.435     0.000  1022.273
1594.2000     0.000 -1000.349     1.019     1.172    74.294     0.438     0.000  1016.697
1594.3000     0.000  -839.934     1.239     1.499    91.696     0.437     0.000  1002.970
1594.4000     0.000  -636.121     1.428     1.649   129.322     0.445     0.000   986.944
1594.5000     0.000  -599.319     1.662     1.643   121.556     0.440     0.000   986.204
1594.6000     0.000  -598.223     1.261     1.502   122.374     0.424     0.000   986.333
1594.7000     0.000  -594.041     1.617     1.585   115.257     0.417     0.000   986.333
1594.8000     0.000  -590.592     1.855     1.492   100.236     0.411     0.000   986.333
1594.9000     0.000  -596.867     1.165     1.373    86.972     0.403     0.000   986.333
1595.0000     0.000  -584.543     1.638     1.461    81.597     0.395     0.000   986.333
1595.1000     0.000  -577.016     1.376     1.347    68.005     0.401     0.000   986.333
1595.2000     0.000  -598.179     1.367     1.397    70.978     0.401     0.000   986.333
1595.3000     0.000  -599.965     1.805     1.419    82.179     0.397     0.000   986.407
1595.4000     0.000  -591.469     1.655     1.501    65.726     0.392     0.000   986.333
1595.5000     0.000  -608.416     0.716     1.005    64.820     0.392     0.000   986.608
1595.6000     0.000  -602.367     1.208     1.306    65.931     0.393     0.000   986.630
1595.7000     0.000  -605.791     1.643     1.587    47.072     0.395     0.000   986.333
1595.8000     0.000  -602.136     0.811     0.985    32.857     0.395     0.000   986.352
1595.9000     0.000  -580.840     1.082     1.087    37.779     0.359     0.000   986.431
1596.0000     0.000  -600.629     1.248     1.797    15.543     0.317     0.000   986.333
1596.1000     0.000  -578.032     1.534     1.470    20.412     0.293     0.000   986.333
1596.2000     0.000  -585.799     1.468     1.369    62.497     0.390     0.000   986.421
1596.3000     0.000  -596.584     1.092     1.304    59.831     0.397     0.000   986.333
1596.4000     0.000  -576.000     1.201     1.429    18.361     0.398     0.000   986.333
1596.5000     0.000  -587.899     1.236     1.197    11.679     0.403     0.000   986.333
1596.6000     0.000  -591.100     0.910     1.214    57.253     0.414     0.000   986.278
1596.7000     0.000  -585.004     1.415     1.471    87.749     0.412     0.000   986.000
1596.8000     0.000  -597.742     0.927     1.248    97.531     0.413     0.000   986.070
1596.9000     0.000  -576.508     1.173     1.411   100.831     0.410     0.000   986.000
1597.0000     0.000  -576.481     1.398     1.479    79.502     0.400     0.000   986.000
1597.1000     0.000  -577.524     0.967     1.222    55.701     0.400     0.000   986.148
1597.2000     0.000  -594.854     1.118     1.333    73.110     0.406     0.000   986.035
1597.3000     0.000  -581.818     1.347     1.461    71.175     0.407     0.000   986.018
1597.4000     0.000  -584.705     1.250     1.328    87.382     0.410     0.000   986.298
1597.5000     0.000  -599.811     1.121     1.392    95.385     0.412     0.000   986.333
1597.6000     0.000  -586.455     1.152     1.419   105.961     0.408     0.000   986.333
1597.7000     0.000  -593.824     0.852     1.166    88.395     0.399     0.000   986.370
1597.8000     0.000  -595.204     1.158     1.359    86.421     0.393     0.000   987.000
1597.9000     0.000  -587.196     1.060     1.286    83.350     0.398     0.000   989.157
1598.0000     0.000  -581.774     1.024     1.199    85.920     0.402     0.000   999.421
1598.1000     0.000  -591.838     1.016     1.183    72.555     0.402     0.000  1003.500
1598.2000     0.000  -588.218     0.926     1.020    69.820     0.412     0.000   989.200
1598.3000     0.000  -603.065     0.801     1.151    48.159     0.359     0.000   999.542
1598.4000     0.000  -587.286     1.948     1.404    11.855     0.298     0.000  1019.456
1598.5000     0.000  -634.357     1.639     1.610    14.058     0.278     0.000  1006.982
1598.6000     0.000  -709.153     1.250     1.325    58.127     0.365     0.000   964.733
1598.7000     0.000  -736.519     1.091     1.291    73.937     0.415     0.000   947.063
1598.8000     0.000  -730.597     1.426     1.534    78.321     0.410     0.000   947.000
1598.9000     0.000  -726.442     1.773     1.556    77.593     0.407     0.000   947.000
1599.0000     1.000  -750.545     1.076     1.197    81.731     0.410     0.000   947.000
1599.1000     0.000  -742.622     1.234     1.378    98.522     0.417     0.000   946.378
1599.2000     0.000  -752.429     1.340     1.549   108.271     0.418     0.000   944.467
1599.3000     0.000  -756.197     1.415     1.523   103.501     0.410     0.000   937.844
1599.4000     0.000  -757.259     1.322     1.234   119.342     0.416     0.000   918.308
1599.5000     0.000  -760.341     0.682     1.074    93.559     0.425     0.000   908.214
1599.6000     0.000  -814.601     1.245     1.146    67.118     0.423     0.000   909.689
1599.7000     0.000  -929.630     0.726     1.035    80.951     0.390     0.000   914.205
1599.8000     0.000  -957.733     1.073     1.237    38.831     0.322     0.000   924.909
1599.9000     0.000  -962.494     0.922     1.179    42.113     0.328     0.000   920.424
1600.0000     0.000  -943.679     0.544     0.820   100.576     0.405     0.000   893.364
1600.1000     0.000  -946.701     0.560     0.867    96.094     0.436     0.000   866.576
1600.2000     0.000  -935.385     0.532     0.850    94.715     0.430     0.000   824.436
1600.3000     0.000  -768.416     0.547     0.882    83.666     0.407     0.000   767.733
1600.4000     0.000  -237.368     0.563     0.886    70.915     0.409     0.000   702.361
1600.5000  -999.250  -999.250     0.444     0.776    65.704     0.407     0.000  -999.250
1600.6000  -999.250  -999.250     0.350     0.681    57.864     0.388     0.000  -999.250
1600.7000  -999.250  -999.250     0.110     0.279    16.293     0.360     0.000  -999.250
1600.8000  -999.250  -999.250     0.059     0.175     4.962     0.345     0.001  -999.250
1600.9000  -999.250  -999.250     0.059     0.174     3.990     0.342     0.001  -999.250
1601.0000  -999.250  -999.250     0.060     0.174     3.898     0.341     0.001  -999.250
1601.1000  -999.250  -999.250     0.062     0.174     3.887     0.341     0.001  -999.250
1601.2000  -999.250  -999.250     0.060     0.173     3.868     0.341     0.001  -999.250
1601.3000  -999.250  -999.250     0.060     0.173     3.860     0.341     0.001  -999.250
1601.4000  -999.250  -999.250     0.059     0.172     3.853     0.341     0.001  -999.250
1601.5000  -999.250  -999.250     0.059     0.172     3.848     0.341     0.001  -999.250
1601.6000  -999.250  -999.250     0.059     0.173     3.843     0.341     0.001  -999.250
1601.7000  -999.250  -999.250     0.059     0.173     3.838     0.341     0.001  -999.250
1601.8000  -999.250  -999.250     0.059     0.172     3.834     0.341     0.001  -999.250
1601.9000  -999.250  -999.250     0.059     0.172     3.828     0.341     0.001  -999.250
1602.0000  -999.250  -999.250     0.059     0.173     3.824     0.341     0.001  -999.250
1602.1000  -999.250  -999.250     0.059     0.172     3.820     0.341     0.001  -999.250
1602.2000  -999.250  -999.250     0.059     0.172     3.815     0.341     0.001  -999.250
1602.3000  -999.250  -999.250     0.059     0.171     3.808     0.341     0.001  -999.250
1602.4000  -999.250  -999.250     0.059     0.171     3.801     0.340     0.001  -999.250
