~Version Information
VERS.                     2.0 : CWLS Log ASCII Standart
WRAP.                     NO  : One line per depth step
~Well Information
STRT.M                       485.0000  : Start Depth
STOP.M                      1606.7000  : Stop Depth
STEP.M                         0.1000  : Step
NULL.                         -999.25  : Null Value
COMP.                                  : Company
WELL.                                  : Well
FLD .                                  : Field
LOC .                                  : Location
PROV.                                  : Province
SRVC.                                  : Service Company
DATE.      06/12/2011                  : Log Date
UWI .                                  : Unique Well ID
~Curve Information
DEPT.M                                 :
mapo_ds.                                  :
speed_ds.                                   :
R1_ds.¬¬                                  :
R2_ds.¬¬                                  :
R3_ds.¬¬                                  :
R4_ds.¬¬                                  :
R5_ds.¬¬                                  :
R6_ds.¬¬                                  :
R7_ds.¬¬                                  :
R8_ds.¬¬                                  :
PR1_ds.¬¬                                  :
PR2_ds.¬¬                                  :
PR3_ds.¬¬                                  :
PR4_ds.¬¬                                  :
DS_ds.¬¬                                 :
tense_ds.                                 :
~ASCII Log Data
# ...
710.6000     0.000 -1209.600   136.827   122.198   123.065   115.750   123.223   128.220   122.760   135.533   260.050   250.418   245.825   251.283   251.894   540.074
710.7000     0.000 -1209.600   136.612   122.343   123.234   116.307   123.418   128.729   123.272   135.198   260.030   251.072   246.506   251.506   252.278   542.000
710.8000     0.000 -1232.640   136.661   122.487   123.448   117.067   124.306   128.114   121.856   135.438   260.967   250.600   245.304   252.505   252.344   546.667
710.9000     0.000 -1209.600   134.121   119.863   122.270   115.225   123.650   127.310   121.416   134.044   257.771   247.173   243.686   249.270   249.475   556.444
711.0000     0.000 -1228.800   134.231   120.033   122.049   115.255   123.619   126.828   120.748   133.433   257.850   246.861   242.796   248.687   249.049   570.815
711.1000     0.000 -1209.600   134.434   120.229   122.017   115.297   123.630   127.278   120.997   133.936   258.065   247.507   243.014   249.233   249.455   572.033
711.2000     0.000 -1228.800   134.660   120.163   122.026   115.282   123.764   126.714   120.696   133.656   258.424   246.877   242.721   248.938   249.240   566.518
711.3000     0.000 -1215.360   134.420   119.959   121.983   115.313   123.713   127.019   121.003   133.627   258.133   246.977   242.985   248.940   249.259   554.167
711.4000     0.000 -1222.400   134.741   120.213   121.965   115.397   123.918   127.014   120.664   133.712   258.658   247.227   242.629   249.109   249.406   546.111
711.5000     0.000 -1230.720   134.927   120.390   122.068   115.845   124.178   127.539   121.423   133.996   259.105   247.930   243.491   249.841   250.091   539.667
711.6000     0.000 -1211.733   134.211   120.277   122.086   116.141   124.605   127.358   121.019   133.590   258.816   247.636   243.105   249.731   249.822   537.963
711.7000     0.000 -1222.400   134.302   120.396   122.093   116.219   124.335   127.081   120.706   133.147   258.637   247.477   242.799   249.366   249.570   537.889
711.8000     0.000 -1209.600   134.345   120.574   122.086   116.268   124.495   127.291   121.307   133.357   258.840   247.865   243.392   249.625   249.930   538.167
711.9000     0.000 -1235.200   133.613   119.600   122.076   115.845   123.923   126.928   120.773   132.732   257.536   246.527   242.849   248.577   248.873   538.778
712.0000     0.000 -1211.520   133.687   120.004   122.071   116.055   123.775   126.280   120.101   132.423   257.462   246.284   242.172   248.478   248.599   539.833
712.1000     0.000 -1226.667   133.801   120.149   122.105   115.899   124.171   126.781   120.335   132.839   257.972   246.931   242.440   248.738   249.020   542.259
712.2000     0.000 -1226.880   133.266   119.841   122.101   115.715   123.774   126.595   120.200   132.406   257.040   246.436   242.300   248.121   248.474   546.033
712.3000     0.000 -1216.000   133.547   120.450   122.098   116.011   123.717   126.350   120.029   132.180   257.264   246.800   242.127   248.191   248.595   538.778
712.4000     0.000 -1203.200   133.188   120.018   122.092   115.973   123.833   126.511   120.013   132.175   257.021   246.528   242.105   248.148   248.451   538.259
712.5000     0.000 -1192.320   133.109   119.578   122.136   116.050   123.902   126.903   120.475   132.418   257.011   246.480   242.612   248.468   248.643   538.567
712.6000     0.000 -1209.600   133.336   119.653   122.375   115.466   123.395   126.258   119.995   132.446   256.731   245.911   242.370   247.911   248.231   539.767
712.7000     0.000 -1190.400   133.238   119.676   122.561   115.502   123.137   125.829   119.603   132.173   256.375   245.505   242.163   247.675   247.930   542.185
712.8000     0.000 -1209.600   133.242   120.068   122.578   115.423   123.299   126.093   119.906   132.066   256.541   246.161   242.484   247.489   248.169   547.467
712.9000     0.000 -1222.400   133.282   119.143   121.801   115.357   123.296   126.056   119.986   132.472   256.579   245.199   241.787   247.829   247.848   559.148
713.0000     0.000 -1209.600   132.699   119.208   121.861   115.506   123.336   126.288   119.944   131.915   256.035   245.495   241.806   247.421   247.689   570.300
713.1000     0.000 -1216.000   132.543   119.258   122.065   116.622   123.311   125.464   119.514   131.754   255.854   244.722   241.579   248.377   247.633   564.111
713.2000     0.000 -1209.600   133.097   119.977   122.454   115.011   123.012   125.509   119.539   131.801   256.109   245.486   241.993   246.811   247.600   549.533
713.3000     0.000 -1222.400   133.607   119.819   122.127   114.899   123.220   125.964   119.950   132.291   256.826   245.782   242.077   247.190   247.969   546.852
713.4000     0.000 -1209.600   132.845   119.312   121.459   114.866   123.120   125.407   119.349   131.783   255.966   244.718   240.808   246.649   247.035   555.733
713.5000     0.000 -1235.200   132.860   119.308   121.450   114.821   123.150   125.841   119.198   131.844   256.010   245.149   240.648   246.665   247.118   559.852
713.6000     0.000 -1209.600   133.071   119.381   121.497   114.842   122.924   125.845   119.331   132.202   255.995   245.226   240.828   247.044   247.273   552.600
713.7000     0.000 -1196.800   132.946   119.532   121.669   114.758   122.835   126.077   119.421   131.987   255.781   245.609   241.090   246.745   247.306   539.593
713.8000     0.000 -1215.360   132.988   119.404   121.746   114.803   122.953   125.318   118.774   131.454   255.941   244.722   240.520   246.257   246.860   539.933
713.9000     0.000 -1241.600   133.339   119.527   121.737   114.799   123.281   126.007   119.352   131.908   256.621   245.534   241.089   246.706   247.488   541.778
714.0000     0.000 -1242.240   133.467   119.395   121.739   114.675   123.172   126.229   119.275   132.115   256.640   245.624   241.015   246.790   247.517   545.567
714.1000     0.000 -1211.733   132.822   119.281   121.694   114.651   122.866   125.734   119.061   131.639   255.687   245.016   240.755   246.289   246.937   553.074
714.2000     0.000 -1228.800   132.577   119.248   121.671   114.646   122.901   125.921   119.035   131.763   255.478   245.169   240.706   246.409   246.940   547.444
714.3000     0.000 -1209.600   132.420   119.339   121.668   114.639   122.968   126.078   118.958   131.670   255.387   245.417   240.627   246.308   246.935   540.000
714.4000     0.000 -1222.400   132.551   119.206   121.841   114.499   122.932   125.854   119.150   131.386   255.482   245.060   240.990   245.885   246.854   542.111
714.5000     0.000 -1232.640   132.804   119.373   122.264   115.148   122.954   125.937   119.376   131.481   255.758   245.310   241.640   246.628   247.334   546.167
714.6000     0.000 -1222.400   132.939   119.514   122.720   115.856   123.013   125.646   119.289   131.365   255.952   245.160   242.009   247.221   247.586   539.074
714.7000     0.000 -1216.000   133.200   119.826   122.945   116.038   123.647   126.267   119.252   131.284   256.847   246.093   242.197   247.322   248.115   538.333
714.8000     0.000 -1209.600   133.084   120.215   123.098   115.872   123.372   126.439   119.108   131.416   256.456   246.654   242.206   247.287   248.151   538.333
714.9000     0.000 -1216.000   133.042   120.248   123.095   116.008   123.272   126.010   119.043   131.327   256.314   246.258   242.138   247.335   248.011   538.333
715.0000     0.000 -1209.600   133.544   120.670   123.097   116.306   123.379   125.991   118.691   131.643   256.924   246.661   241.788   247.948   248.330   538.333
715.1000     0.000 -1235.200   133.186   120.951   123.113   116.664   123.582   125.671   118.134   131.146   256.768   246.621   241.247   247.811   248.112   538.333
715.2000     0.000 -1209.600   132.886   120.545   122.667   116.427   123.920   125.595   118.164   131.039   256.806   246.141   240.831   247.466   247.811   538.033
715.3000     0.000 -1203.200   133.114   120.358   122.514   115.960   123.772   125.692   118.060   131.145   256.885   246.049   240.573   247.105   247.653   537.852
