~Version Information
VERS.                     2.0 : CWLS Log ASCII Standart
WRAP.                     NO  : One line per depth step
~Well Information
STRT.M                      1422.8000  : Start Depth
STOP.M                      1601.3000  : Stop Depth
STEP.M                         0.1000  : Step
NULL.                         -999.25  : Null Value
COMP.                                  : Company
WELL.                                  : Well
FLD .                                  : Field
LOC .                                  : Location
PROV.                                  : Province
SRVC.                                  : Service Company
DATE.      06/12/2011                  : Log Date
UWI .                                  : Unique Well ID
~Curve Information
DEPT.M                                 :
mapo_ek.                                  :
speed_ek.                                   :
IK_ek.¬‘¬/¬                            :
BK_ek.Ž¬¬                              :
A4M05N_ek.O¬¬                  :
A8M1N_ek.Ž¬¬                  :
A04M01N_ek.Ž¬¬                  :
A1M01N_ek.Ž¬¬                  :
A2M05N_ek.Ž¬¬                  :
REZ_ek.Ž¬¬                   :
tense_ek.                                 :
_GK_ek.¨¬¯/c                               :
PS_ek.                                 :
~ASCII Log Data
# ...
1533.0000     0.000  -826.752   127.144   101.966    21.158    19.750     1.031     4.460    12.778     0.045  1015.905    11.325 -1419.105
1533.1000     0.000  -826.908   104.331    83.108    21.840    20.324     1.069     4.633    13.234     0.045  1027.000     8.547 -1419.732
1533.2000     0.000  -824.832    91.512    62.320    22.359    20.899     1.090     4.724    13.604     0.045  1038.708     8.357 -1420.168
1533.3000     0.000  -813.364    82.421    32.598    21.482    21.388     1.136     4.903    12.944     0.044  1038.200    10.970 -1420.402
1533.4000     0.000  -805.908    69.129    11.384    20.929    21.680     1.122     4.988    12.488     0.045  1020.083    17.552 -1420.282
1533.5000     0.000  -810.871    49.071     8.367    20.333    21.837     0.748     3.449    12.111     0.046  1015.667    24.796 -1419.968
1533.6000     0.000  -819.378    26.971    13.001    19.695    22.260     0.892     4.110    11.695     0.045  1020.556    26.941 -1419.523
1533.7000     0.000  -835.370    60.991    27.060    18.902    22.464     0.956     4.334    11.257     0.045  1015.762    29.006 -1419.082
1533.8000     0.000  -823.846   132.580    38.320    19.847    22.564     0.976     4.447    11.397     0.045  1009.444    25.437 -1418.619
1533.9000     0.000  -828.224   173.759    42.356    20.295    22.780     0.965     4.440    12.461     0.045  1009.458    15.174 -1418.219
1534.0000     0.000  -819.504   206.198    41.886    20.625    23.778     0.999     4.651    12.851     0.044  1009.667    11.660 -1417.843
1534.1000     0.000  -826.918   201.018    37.091    20.905    24.414     0.979     4.575    13.241     0.044  1009.667    14.214 -1417.676
1534.2000     0.000  -823.696   146.018    36.559    21.303    25.074     1.027     4.658    13.696     0.044  1009.667    14.023 -1417.482
1534.3000     0.000  -820.594   124.878    43.398    21.720    25.775     1.040     4.807    14.057     0.043  1009.889    11.301 -1416.972
1534.4000     0.000  -821.868   136.991    51.868    21.957    26.270     1.064     4.905    14.457     0.043  1009.952    10.471 -1416.253
1534.5000     0.000  -814.674   138.611    68.545    22.138    26.257     1.081     4.975    14.926     0.042  1010.000    10.724 -1415.480
1534.6000     1.000  -819.792   125.000    85.193    22.478    26.680     1.114     5.107    15.534     0.042  1010.000     9.308 -1414.682
1534.7000     1.000  -818.308   116.910    65.206    22.851    27.012     1.146     5.272    15.890     0.042  1010.556     7.913 -1413.870
1534.8000     1.000  -821.228    95.241    34.165    22.418    27.103     1.192     5.529    15.547     0.042  1012.333    11.279 -1413.065
1534.9000     1.000  -817.338    72.092    13.033    22.447    27.004     1.126     5.061    15.540     0.044  1017.222    18.128 -1412.296
1535.0000     1.000  -817.352    43.982    11.102    22.315    26.840     0.816     3.972    15.449     0.044  1034.619    27.525 -1411.989
1535.1000     1.000  -820.592    20.053    19.238    22.160    26.627     0.998     4.731    15.256     0.041  1042.111    29.974 -1411.980
1535.2000     1.000  -822.514    72.092    33.493    21.805    26.511     1.012     4.817    15.302     0.041  1049.222    20.632 -1412.043
1535.3000     1.000  -820.912   129.027    45.070    22.787    26.763     1.031     4.909    15.988     0.041  1049.250    15.885 -1411.998
1535.4000     1.000  -811.585   169.278    50.854    23.139    27.251     1.040     4.975    16.326     0.041  1049.333    16.311 -1412.128
1535.5000     1.000  -810.570   206.969    59.233    23.557    28.523     1.049     5.047    16.716     0.041  1049.048    13.108 -1412.328
1535.6000     1.000  -808.470   188.894    80.884    23.898    29.317     1.074     5.145    17.044     0.041  1048.667     9.934 -1412.666
1535.7000     1.000  -819.958   142.168    98.534    24.336    30.026     1.100     5.226    17.361     0.041  1046.714     9.041 -1412.899
1535.8000     1.000  -818.893   130.531   103.226    25.167    30.692     1.119     5.312    17.681     0.040  1042.600     9.042 -1412.996
1535.9000     1.000  -818.141   125.652   124.261    26.460    31.324     1.140     5.391    18.094     0.040  1029.208     9.153 -1413.240
1536.0000     1.000  -820.258   120.487   135.958    27.675    31.966     1.169     5.517    18.465     0.041  1031.111     7.657 -1413.574
1536.1000     1.000  -820.132   117.389   112.089    28.818    32.673     1.193     5.635    18.819     0.041  1042.333    10.523 -1413.767
1536.2000     1.000  -824.321   113.490   105.251    29.960    33.404     1.205     5.721    19.118     0.040  1049.238    15.529 -1413.805
1536.3000     1.000  -821.425   107.028   123.820    31.063    34.199     1.226     5.814    19.438     0.040  1049.389    15.504 -1413.839
1536.4000     1.000  -815.035   101.327   123.251    32.001    35.020     1.257     5.951    19.749     0.040  1049.190    15.259 -1413.854
1536.5000     1.000  -812.382    97.345   104.681    32.959    35.759     1.280     6.072    20.104     0.040  1048.556    14.726 -1413.984
1536.6000     1.000  -816.404    95.000    96.549    34.022    36.472     1.300     6.169    20.496     0.040  1046.667    13.389 -1413.953
1536.7000     1.000  -827.471    95.354    96.252    35.108    37.223     1.325     6.283    20.883     0.040  1042.056    17.758 -1414.151
1536.8000     1.000  -828.359    95.839   113.006    36.189    37.906     1.346     6.390    21.240     0.039  1026.619    17.967 -1414.577
1536.9000     1.000  -830.789    96.594   106.749    37.325    38.864     1.371     6.547    21.566     0.039  1017.810    12.951 -1415.158
1537.0000     1.000  -825.680    96.956    76.030    38.481    39.543     1.402     6.693    21.868     0.039  1034.778    12.775 -1415.629
1537.1000     1.000  -828.531    97.212    64.792    39.696    39.913     1.407     6.746    22.220     0.039  1049.208    14.097 -1416.008
1537.2000     1.000  -825.968    97.566    85.065    40.703    40.738     1.414     6.798    22.531     0.039  1049.467    18.304 -1416.124
1537.3000     1.000  -825.351    98.938    98.855    41.618    41.891     1.443     6.963    22.784     0.039  1049.333    21.148 -1416.214
1537.4000     1.000  -812.280   101.993    94.120    42.596    43.191     1.464     7.076    23.213     0.039  1049.000    17.192 -1416.092
1537.5000     1.000  -807.445   103.010    90.434    43.620    43.797     1.481     7.187    23.627     0.038  1048.333    10.809 -1415.757
1537.6000     1.000  -806.859    96.990    92.004    44.663    43.998     1.496     7.286    24.064     0.037  1046.333     8.936 -1415.328
1537.7000     1.000  -813.219    87.207    86.863    45.812    44.538     1.510     7.398    24.665     0.037  1039.500     8.050 -1414.960
1537.8000     1.000  -817.307    82.356    63.679    46.087    44.979     1.539     7.525    24.736     0.037  1023.524     5.283 -1414.690
1537.9000     0.000  -813.740    76.504    27.032    45.053    45.422     1.579     7.768    24.034     0.039  1032.867     6.209 -1414.679
1538.0000     0.000  -810.605    65.885    12.108    44.709    45.785     1.527     7.148    23.630     0.040  1048.917    14.322 -1414.640
1538.1000     0.000  -779.044    48.628    13.144    44.174    46.125     1.209     5.986    23.157     0.037  1049.333    25.050 -1414.749
1538.2000     0.000  -751.638    38.894    22.526    43.369    46.482     1.317     6.513    22.496     0.040  1049.333    32.664 -1414.978
1538.3000     0.000  -714.379    80.531    30.287    42.417    46.648     1.328     6.586    22.080     0.044  1049.143    30.952 -1415.186
1538.4000     0.000  -711.016   115.487    36.446    43.804    46.701     1.325     6.605    22.646     0.046  1049.333    20.983 -1415.368
1538.5000     0.000  -699.070   140.168    40.831    44.379    47.100     1.317     6.566    22.831     0.048  1049.429    13.144 -1415.474
1538.6000     0.000  -716.124   158.020    43.505    44.699    47.705     1.320     6.579    22.886     0.049  1049.389    12.288 -1415.467
1538.7000     0.000  -718.046   153.097    40.842    44.980    47.698     1.333     6.599    22.914     0.048  1049.333    14.517 -1415.620
