~Version Information
VERS.                     2.0 : CWLS Log ASCII Standart
WRAP.                     NO  : One line per depth step
~Well Information
STRT.M                      1451.2000  : Start Depth
STOP.M                      1602.5000  : Stop Depth
STEP.M                         0.1000  : Step
NULL.                         -999.25  : Null Value
COMP.                                  : Company
WELL.                                  : Well
FLD .                                  : Field
LOC .                                  : Location
PROV.                                  : Province
SRVC.                                  : Service Company
DATE.      06/12/2011                  : Log Date
UWI .                                  : Unique Well ID
~Curve Information
DEPT.M                                 :
mapo_mek.                                  :
speed_mek.                                   :
MGZ_mek.Ž¬                                 :
MPZ_mek.Ž¬                                 :
BMK_mek.O¬                                 :
U_mek.‚                                    :
J_mek.A                                    :
tense_mek.                                 :
~ASCII Log Data
# ...
1549.1000     0.000  -791.807     1.237     1.302    14.660     0.409     0.000   946.667
1549.2000     0.000  -798.753     1.410     1.457    17.867     0.414     0.000   946.667
1549.3000     0.000  -808.371     1.373     1.346    18.079     0.418     0.000   946.667
1549.4000     0.000  -813.417     1.487     1.500    16.591     0.413     0.000   946.667
1549.5000     0.000  -811.029     1.515     1.412    12.927     0.412     0.000   946.769
1549.6000     0.000  -817.423     1.289     1.304    10.613     0.421     0.001   947.000
1549.7000     0.000  -814.034     1.132     1.168    16.332     0.425     0.000   947.000
1549.8000     0.000  -824.264     1.110     1.315    19.773     0.427     0.000   947.000
1549.9000     0.000  -808.015     1.514     1.394    20.522     0.426     0.000   946.976
1550.0000     0.000  -804.827     1.438     1.497    18.980     0.422     0.000   946.949
1550.1000     0.000  -809.047     1.640     1.622    46.501     0.413     0.000   947.000
1550.2000     0.000  -801.439     1.537     1.764    32.350     0.405     0.000   946.923
1550.3000     0.000  -805.996     1.464     0.989    30.730     0.400     0.000   946.667
1550.4000     0.000  -801.439     1.769     1.639    21.064     0.408     0.000   946.667
1550.5000     0.000  -805.759     2.208     1.875    13.214     0.420     0.000   946.667
1550.6000     0.000  -803.996     1.495     1.600    14.691     0.394     0.000   946.667
1550.7000     0.000  -804.252     1.725     1.569    12.997     0.374     0.000   946.667
1550.8000     0.000  -807.777     2.255     1.995    35.872     0.381     0.000   946.667
1550.9000     0.000  -798.991     3.537     2.135    46.272     0.425     0.000   946.667
1551.0000     0.000  -797.347     2.413     2.246    59.229     0.435     0.000   946.667
1551.1000     0.000  -799.648     2.664     2.085    82.205     0.425     0.000   946.667
1551.2000     0.000  -793.826     2.202     1.850    69.509     0.384     0.000   946.667
1551.3000     0.000  -801.630     1.648     1.257    57.780     0.365     0.000   946.667
1551.4000     0.000  -811.221     0.424     0.273    54.145     0.368     0.000   946.667
1551.5000     0.000  -807.065     0.503     0.501    32.424     0.398     0.000   946.667
1551.6000     0.000  -800.927     1.280     1.259    17.779     0.408     0.000   946.667
1551.7000     0.000  -799.457     1.368     1.290    12.723     0.412     0.000   946.667
1551.8000     0.000  -815.852     1.297     1.322    21.283     0.413     0.000   946.667
1551.9000     0.000  -801.306     1.102     1.250    12.956     0.413     0.000   946.667
1552.0000     0.000  -804.096     1.133     1.285    19.948     0.410     0.000   946.905
1552.1000     0.000  -807.001     1.807     1.482    22.236     0.409     0.000   947.000
1552.2000     0.000  -800.799     1.807     1.493    18.437     0.406     0.000   946.820
1552.3000     0.000  -809.677     1.454     1.427    17.103     0.409     0.000   946.738
1552.4000     0.000  -808.663     1.425     1.363    20.569     0.408     0.000   946.949
1552.5000     0.000  -818.382     1.343     1.325    17.630     0.409     0.000   947.000
1552.6000     0.000  -807.001     1.213     1.339    19.275     0.412     0.000   947.000
1552.7000     0.000  -799.521     1.462     1.271    19.337     0.410     0.000   947.000
1552.8000     0.000  -805.996     1.318     1.532    18.464     0.413     0.000   947.000
1552.9000     0.000  -801.439     1.557     1.418    20.062     0.412     0.000   947.000
1553.0000     0.000  -791.629     1.239     1.329    12.120     0.410     0.000   947.000
1553.1000     0.000  -792.876     1.116     1.213    12.594     0.408     0.000   946.905
1553.2000     0.000  -792.163     1.338     1.284    11.818     0.409     0.000   946.833
1553.3000     0.000  -796.579     1.061     1.152    11.604     0.411     0.001   946.846
1553.4000     0.000  -800.891     1.309     1.394    11.603     0.414     0.001   947.000
1553.5000     0.000  -810.262     1.614     1.308    14.345     0.412     0.000   947.000
1553.6000     0.000  -807.896     1.166     1.305    12.981     0.411     0.000   947.000
1553.7000     0.000  -802.781     1.375     1.341    12.463     0.412     0.000   947.000
1553.8000     0.000  -810.390     1.277     1.289    13.485     0.414     0.000   946.923
1553.9000     0.000  -802.315     1.411     1.324    14.472     0.415     0.000   947.000
1554.0000     0.000  -794.533     1.404     1.568    19.128     0.417     0.000   947.000
1554.1000     0.000  -801.365     1.342     1.194     9.204     0.420     0.001   947.357
1554.2000     0.000  -791.720     1.022     1.205     8.189     0.421     0.001   948.051
1554.3000     0.000  -807.010     1.169     1.172    10.540     0.422     0.001   951.311
1554.4000     0.000  -810.581     1.033     1.210    11.648     0.425     0.001   960.974
1554.5000     0.000  -819.405     1.049     1.104    12.065     0.426     0.001   969.564
1554.6000     0.000  -814.226     1.067     1.120    14.745     0.430     0.000   949.795
1554.7000     0.000  -815.249     1.116     1.191    17.502     0.431     0.000   947.000
1554.8000     0.000  -809.622     1.354     1.242    24.072     0.426     0.000   947.026
1554.9000     0.000  -809.262     1.106     1.117    23.183     0.423     0.000   947.452
1555.0000     0.000  -823.816     1.192     1.264    27.990     0.423     0.000   948.462
1555.1000     0.000  -812.627     0.952     1.098    36.703     0.425     0.000   951.180
1555.2000     0.000  -807.768     1.820     1.487    38.424     0.429     0.000   958.128
1555.3000     0.000  -815.249     1.929     1.564    33.517     0.431     0.000   953.000
1555.4000     0.000  -797.506     1.391     1.535    33.375     0.432     0.000   947.000
1555.5000     0.000  -801.840     1.650     1.591    30.510     0.431     0.000   947.167
1555.6000     0.000  -799.968     1.983     1.275    30.905     0.428     0.000   947.564
1555.7000     0.000  -803.147     1.228     1.436    17.473     0.428     0.000   948.952
1555.8000     0.000  -808.535     1.737     1.392    12.024     0.427     0.001   953.051
1555.9000     0.000  -792.935     1.399     1.383    11.417     0.426     0.001   951.769
1556.0000     0.000  -799.288     2.092     1.716     8.063     0.425     0.001   952.429
1556.1000     0.000  -793.958     1.174     1.253     6.270     0.425     0.001   950.564
1556.2000     0.000  -800.297     1.538     1.135     6.018     0.422     0.001   947.262
1556.3000     0.000  -803.548     1.111     1.191     7.047     0.423     0.001   948.000
1556.4000     0.000  -802.781     0.985     1.210     9.421     0.427     0.001   950.231
1556.5000     0.000  -808.668     2.058     1.418    15.506     0.432     0.000   957.476
1556.6000     0.000  -803.548     1.318     1.622    18.612     0.430     0.000   954.410
1556.7000     0.000  -802.589     1.808     1.481    36.726     0.428     0.000   947.744
1556.8000     0.000  -804.516     2.161     1.563    40.797     0.429     0.000   949.578
1556.9000     0.000  -798.689     1.561     1.677    12.612     0.424     0.000   955.718
1557.0000     0.000  -803.676     1.484     1.404     9.732     0.427     0.001   971.256
1557.1000     0.000  -811.280     1.664     1.421    10.265     0.429     0.001   985.952
1557.2000     0.000  -806.745     1.193     1.340    11.052     0.427     0.001   985.385
1557.3000     0.000  -814.034     1.251     1.292    11.306     0.422     0.001   983.564
1557.4000     0.000  -807.768     2.014     1.721    16.330     0.421     0.000   978.282
1557.5000     0.000  -812.052     2.539     2.234    41.162     0.418     0.000   966.000
1557.6000     0.000  -814.609     2.511     1.286    71.912     0.407     0.000   950.359
1557.7000     0.000  -806.362     1.214     1.510    66.886     0.420     0.000   947.103
1557.8000     0.000  -804.188     1.957     1.729    24.816     0.425     0.000   947.436
1557.9000     0.000  -808.672     1.444     1.072    22.739     0.412     0.000   948.378
