~Version Information
VERS.                     2.0 : CWLS Log ASCII Standart
WRAP.                     NO  : One line per depth step
~Well Information
STRT.M                       485.0000  : Start Depth
STOP.M                      1606.7000  : Stop Depth
STEP.M                         0.1000  : Step
NULL.                         -999.25  : Null Value
COMP.                                  : Company
WELL.                                  : Well
FLD .                                  : Field
LOC .                                  : Location
PROV.                                  : Province
SRVC.                                  : Service Company
DATE.      06/12/2011                  : Log Date
UWI .                                  : Unique Well ID
~Curve Information
DEPT.M                                 :
mapo_ds.                                  :
speed_ds.                                   :
R1_ds.¬¬                                  :
R2_ds.¬¬                                  :
R3_ds.¬¬                                  :
R4_ds.¬¬                                  :
R5_ds.¬¬                                  :
R6_ds.¬¬                                  :
R7_ds.¬¬                                  :
R8_ds.¬¬                                  :
PR1_ds.¬¬                                  :
PR2_ds.¬¬                                  :
PR3_ds.¬¬                                  :
PR4_ds.¬¬                                  :
DS_ds.¬¬                                 :
tense_ds.                                 :
~ASCII Log Data
# ...
1526.6000     0.000  -738.000   129.966   114.926   121.061   113.862   119.380   126.947   122.471   132.982   249.346   241.873   243.533   246.845   245.399  1014.979
1526.7000     0.000  -748.800   129.885   115.192   121.074   114.014   119.489   127.274   122.778   133.093   249.374   242.466   243.852   247.107   245.700  1012.667
1526.8000     0.000  -742.400   130.017   115.582   121.078   113.747   119.288   127.478   123.102   133.377   249.305   243.060   244.180   247.124   245.917  1012.667
1526.9000     0.000  -754.800   129.811   114.454   120.237   112.871   119.133   128.230   123.919   134.152   248.944   242.684   244.156   247.023   245.702  1012.667
1527.0000     0.000  -748.800   127.594   107.704   112.189   107.281   118.382   133.726   132.193   138.477   245.977   241.430   244.382   245.758   244.387  1012.911
1527.1000     0.000  -748.800   126.954   102.136   105.398   102.046   116.242   137.342   139.436   143.444   243.196   239.477   244.833   245.490   243.249  1013.000
1527.2000     0.000  -756.480   126.136   102.727   107.730   105.134   119.461   137.819   138.072   141.490   245.597   240.547   245.802   246.623   244.642  1012.933
1527.3000     0.000  -748.800   134.843   119.344   122.513   118.639   126.995   138.981   133.661   140.712   261.838   258.325   256.173   259.351   258.922  1013.000
1527.4000     0.000  -763.200   151.897   143.166   144.301   131.553   143.497   152.254   142.697   148.301   295.395   295.420   286.997   279.854   289.417  1013.000
1527.5000     0.000  -747.520   173.931   164.319   165.111   139.375   151.463   169.266   140.479   160.095   325.393   333.585   305.591   299.470   316.010  1012.867
1527.6000     0.000  -739.840   189.667   182.221   188.450   158.874   170.424   167.349   136.204   167.410   360.091   349.569   324.654   326.284   340.150  1013.000
1527.7000     0.000  -739.200   174.272   187.909   182.538   176.174   191.131   151.113   138.323   149.290   365.403   339.022   320.861   325.464   337.688  1013.563
1527.8000     0.000  -732.160   137.751   134.103   139.264   130.768   147.300   153.927   131.854   126.086   285.051   288.029   271.118   256.855   275.263  1015.733
1527.9000     0.000  -756.000   128.723   116.611   124.387   117.637   121.744   127.196   120.601   129.210   250.467   243.807   244.988   246.847   246.527  1023.792
1528.0000     0.000  -759.040   129.122   116.029   124.059   117.080   121.183   125.098   118.766   129.543   250.305   241.127   242.824   246.623   245.220  1043.844
1528.1000     0.000  -748.800   129.421   115.988   123.038   116.594   120.399   124.862   118.649   129.909   249.820   240.851   241.687   246.503   244.715  1042.489
1528.2000     0.000  -764.400   129.560   116.091   123.492   116.678   120.828   125.041   119.062   130.114   250.388   241.131   242.554   246.792   245.216  1021.958
1528.3000     0.000  -751.360   129.689   116.109   123.572   116.686   121.115   125.061   119.017   130.190   250.803   241.170   242.589   246.876   245.359  1013.000
1528.4000     0.000  -765.440   129.714   116.105   123.395   116.613   121.012   125.019   118.947   130.139   250.726   241.123   242.342   246.752   245.236  1013.200
1528.5000     0.000  -751.360   129.709   116.094   123.057   116.261   120.911   125.183   119.209   130.421   250.620   241.277   242.266   246.682   245.211  1014.111
1528.6000     0.000  -756.000   129.770   116.095   123.040   116.211   120.915   125.257   119.277   130.504   250.684   241.351   242.317   246.715   245.267  1017.188
1528.7000     0.000  -753.920   129.783   116.118   123.057   116.067   120.938   125.428   119.402   130.567   250.721   241.545   242.459   246.634   245.340  1027.000
1528.8000     0.000  -755.200   129.790   116.117   123.079   116.023   121.078   125.592   119.645   130.656   250.868   241.710   242.724   246.679   245.495  1047.111
1528.9000     0.000  -748.800   129.806   116.430   123.066   115.948   121.136   125.848   120.173   131.086   250.942   242.278   243.239   247.034   245.873  1044.867
1529.0000     1.000  -748.800   129.921   117.223   123.101   116.353   121.349   126.351   120.574   131.228   251.270   243.574   243.675   247.581   246.525  1039.000
1529.1000     0.000  -760.320   130.418   117.658   123.620   116.999   121.609   126.405   120.057   130.842   252.027   244.063   243.677   247.840   246.902  1025.267
1529.2000     0.000  -765.600   129.399   114.383   120.342   114.411   121.051   128.429   123.810   133.102   250.450   242.812   244.153   247.513   246.232  1016.771
1529.3000     0.000  -756.480   135.241   121.210   124.664   119.041   125.358   132.071   126.299   136.638   260.599   253.281   250.962   255.679   255.130  1013.089
1529.4000     0.000  -760.320   129.569   116.751   124.769   117.615   121.980   126.231   122.021   130.445   251.549   242.983   246.791   248.060   247.346  1013.133
1529.5000     0.000  -744.960   134.055   125.498   131.221   124.234   124.975   128.305   120.725   131.826   259.030   253.802   251.947   256.060   255.210  1013.000
1529.6000     0.000  -742.400   150.609   142.134   144.945   137.370   135.955   140.435   132.692   145.555   286.565   282.569   277.637   282.925   282.424  1013.000
1529.7000     0.000  -740.400   151.286   127.406   129.574   123.910   135.775   147.419   146.132   152.790   287.061   274.826   275.706   276.700   278.573  1013.000
1529.8000     0.000  -734.400   129.934   116.463   123.408   115.905   120.943   125.995   120.071   130.898   250.876   242.458   243.479   246.803   245.904  1013.000
1529.9000     0.000  -744.960   129.236   114.852   121.741   115.067   120.989   127.485   121.504   131.748   250.225   242.337   243.245   246.816   245.656  1013.000
1530.0000     0.000  -736.800   128.915   113.925   120.363   114.485   120.634   128.234   123.109   132.539   249.549   242.159   243.472   247.024   245.551  1012.938
1530.1000     0.000  -739.840   129.074   114.088   120.295   114.418   120.679   128.048   123.421   132.943   249.753   242.136   243.715   247.360   245.741  1013.000
1530.2000     0.000  -742.800   129.550   114.958   121.262   115.184   120.569   127.357   122.435   132.629   250.120   242.316   243.697   247.814   245.987  1013.000
1530.3000     0.000  -739.840   129.776   116.279   123.330   116.753   120.704   125.795   120.277   131.210   250.480   242.074   243.607   247.962   246.031  1013.000
1530.4000     0.000  -744.000   129.604   116.255   123.357   116.777   120.809   125.850   120.163   130.861   250.413   242.105   243.520   247.638   245.919  1012.854
1530.5000     0.000  -734.720   129.553   116.230   123.362   116.783   121.016   126.373   120.521   130.938   250.569   242.602   243.883   247.721   246.194  1012.867
1530.6000     0.000  -738.000   129.451   115.956   123.252   116.805   121.210   126.609   120.525   130.971   250.662   242.566   243.777   247.777   246.195  1013.000
1530.7000     0.000  -728.400   129.056   115.532   122.844   116.605   121.235   127.082   120.880   130.967   250.291   242.613   243.724   247.572   246.050  1013.000
1530.8000     0.000  -730.800   128.960   111.011   116.755   111.929   119.387   130.675   126.912   135.407   248.347   241.686   243.667   247.336   245.259  1013.000
1530.9000     0.000  -736.000   132.199   108.918   110.694   104.916   114.430   130.405   132.983   142.369   246.629   239.322   243.677   247.284   244.228  1013.400
1531.0000     0.000  -747.600   130.343   115.813   119.874   113.433   120.183   128.992   125.842   135.591   250.525   244.805   245.717   249.024   247.518  1014.396
1531.1000     0.000  -765.440   141.040   135.811   138.108   133.057   133.428   134.382   124.665   137.327   274.468   270.193   262.773   270.384   269.454  1017.711
1531.2000     0.000  -771.840   160.262   146.037   154.278   150.915   149.745   150.827   140.085   152.362   310.007   296.864   294.363   303.277   301.128  1028.467
1531.3000     0.000  -759.040   168.986   128.957   157.946   152.438   169.846   171.852   159.966   155.048   338.831   300.809   317.912   307.486   316.259  1045.267
