~Version Information
VERS.                     2.0 : CWLS Log ASCII Standart
WRAP.                     NO  : One line per depth step
~Well Information
STRT.M                      1451.2000  : Start Depth
STOP.M                      1602.5000  : Stop Depth
STEP.M                         0.1000  : Step
NULL.                         -999.25  : Null Value
COMP.                                  : Company
WELL.                                  : Well
FLD .                                  : Field
LOC .                                  : Location
PROV.                                  : Province
SRVC.                                  : Service Company
DATE.      06/12/2011                  : Log Date
UWI .                                  : Unique Well ID
~Curve Information
DEPT.M                                 :
mapo_mek.                                  :
speed_mek.                                   :
MGZ_mek.Ž¬                                 :
MPZ_mek.Ž¬                                 :
BMK_mek.O¬                                 :
U_mek.‚                                    :
J_mek.A                                    :
tense_mek.                                 :
~ASCII Log Data
# ...
1558.0000     0.000  -810.198     1.016     0.867    17.435     0.387     0.000   951.205
1558.1000     0.000  -796.388     1.080     1.392    22.505     0.378     0.000   958.744
1558.2000     0.000  -793.766     2.349     1.511    56.914     0.403     0.000   952.429
1558.3000     0.000  -803.229     1.863     1.612    66.587     0.437     0.000   947.769
1558.4000     0.000  -803.101     2.450     1.751    60.877     0.440     0.000   949.231
1558.5000     0.000  -810.805     1.786     1.650    82.204     0.434     0.000   954.238
1558.6000     0.000  -809.111     1.994     1.689    96.904     0.431     0.000   968.051
1558.7000     0.000  -814.801     1.400     1.369    50.867     0.431     0.000   967.154
1558.8000     0.000  -807.960     0.927     1.159    28.672     0.428     0.000   955.564
1558.9000     0.000  -793.944     1.157     1.183    13.491     0.426     0.000   953.143
1559.0000     0.000  -793.826     1.040     1.173    10.203     0.418     0.001   966.000
1559.1000     0.000  -797.566     1.112     1.136    12.536     0.420     0.000   985.524
1559.2000     0.000  -792.551     1.110     1.169    12.849     0.423     0.000   985.180
1559.3000     0.000  -801.662     1.505     1.248    26.398     0.420     0.000   982.190
1559.4000     0.000  -805.594     1.721     1.515    74.078     0.418     0.000   974.256
1559.5000     0.000  -802.398     0.917     1.066    89.314     0.361     0.000   973.769
1559.6000     0.000  -810.627     1.425     1.167     1.233     0.328     0.004   971.524
1559.7000     0.000  -815.824     0.757     0.487     2.722     0.318     0.002   963.410
1559.8000     0.000  -818.382     0.574     0.766    34.391     0.372     0.000   982.538
1559.9000     0.000  -801.630     1.011     1.069    14.258     0.395     0.000   981.820
1560.0000     0.000  -808.609     1.324     1.299    13.952     0.395     0.000   975.429
1560.1000     0.000  -812.691     1.622     1.363    11.333     0.393     0.000   973.590
1560.2000     0.000  -802.375     0.885     1.102     9.032     0.402     0.001   957.524
1560.3000     0.000  -808.855     0.983     0.997    11.931     0.405     0.000   964.308
1560.4000     0.000  -800.032     1.284     1.211    17.105     0.404     0.000   953.410
1560.5000     0.000  -802.731     1.185     1.159    14.728     0.408     0.000   947.024
1560.6000     0.000  -801.055     0.917     1.088    17.089     0.410     0.000   947.462
1560.7000     0.000  -808.472     1.265     1.181    18.363     0.410     0.000   948.026
1560.8000     0.000  -813.002     1.411     1.292    41.837     0.401     0.000   950.048
1560.9000     0.000  -792.168     0.991     1.020    19.868     0.394     0.000   955.923
1561.0000     0.000  -792.698     0.835     0.994    12.515     0.409     0.000   969.405
1561.1000     0.000  -801.119     1.176     1.122    10.432     0.419     0.001   970.846
1561.2000     0.000  -793.944     1.177     1.272    10.290     0.429     0.001   957.262
1561.3000     0.000  -808.430     1.373     1.304     9.656     0.432     0.001   972.429
1561.4000     0.000  -803.676     1.498     1.431    10.802     0.430     0.001   965.256
1561.5000     0.000  -803.484     1.294     1.209     9.344     0.429     0.001   951.385
1561.6000     0.000  -804.156     1.099     1.121    11.447     0.429     0.001   954.452
1561.7000     0.000  -803.357     1.084     1.129    12.160     0.438     0.001   952.615
1561.8000     0.000  -805.594     0.936     1.113    11.833     0.446     0.001   963.872
1561.9000     0.000  -808.193     1.076     1.126    10.719     0.446     0.001   976.452
1562.0000     0.000  -805.019     1.112     1.125     5.565     0.442     0.001   976.846
1562.1000     0.000  -797.219     0.919     1.007     4.125     0.437     0.002   967.359
1562.2000     0.000  -802.315     0.781     0.810     4.356     0.440     0.001   984.071
1562.3000     0.000  -817.870     0.846     0.939     5.170     0.438     0.001   985.513
1562.4000     0.000  -812.586     0.863     0.964     6.019     0.432     0.001   983.762
1562.5000     0.000  -829.698     0.920     1.171     6.404     0.434     0.001   978.282
1562.6000     0.000  -818.254     1.028     1.049     9.252     0.435     0.001   962.180
1562.7000     0.000  -803.868     1.223     0.979    12.095     0.442     0.001   951.949
1562.8000     0.000  -817.158     1.046     1.105    24.480     0.446     0.000   962.238
1562.9000     0.000  -811.157     1.261     1.257    47.799     0.454     0.000   976.590
1563.0000     0.000  -807.832     1.062     1.220    49.626     0.439     0.000   976.462
1563.1000     0.000  -808.216     1.176     1.135    52.554     0.427     0.000   986.333
1563.2000     0.000  -789.866     1.162     1.234    42.000     0.424     0.000   986.282
1563.3000     0.000  -803.622     1.083     1.137    57.175     0.426     0.000   985.786
1563.4000     0.000  -796.378     1.276     1.247    71.600     0.429     0.000   984.333
1563.5000     0.000  -806.170     1.070     1.157    68.266     0.440     0.000   980.256
1563.6000     0.000  -820.044     1.287     1.164    80.647     0.443     0.000   969.026
1563.7000     0.000  -814.629     1.025     1.101    90.966     0.443     0.000   978.667
1563.8000     0.000  -815.875     0.896     1.107    96.838     0.443     0.000   986.548
1563.9000     0.000  -803.484     1.206     1.170    68.357     0.435     0.000   986.410
1564.0000     0.000  -813.061     1.294     1.312    47.905     0.439     0.000   986.548
1564.1000     0.000  -820.172     1.362     1.152    61.972     0.440     0.000   986.667
1564.2000     0.000  -803.868     1.081     1.173    61.024     0.445     0.000   986.487
1564.3000     0.000  -802.781     1.134     1.028    69.839     0.439     0.000   986.333
1564.4000     0.000  -810.152     1.157     1.232    29.834     0.438     0.000   986.333
1564.5000     0.000  -825.095     0.977     1.058    37.174     0.440     0.000   986.333
1564.6000     0.000  -814.801     1.138     1.074    37.523     0.446     0.000   986.615
1564.7000     0.000  -813.203     1.218     1.278    40.529     0.447     0.000   986.667
1564.8000     0.000  -825.287     1.374     1.305    34.532     0.444     0.000   986.538
1564.9000     0.000  -809.143     1.119     1.281    61.753     0.446     0.000   986.333
1565.0000     0.000  -815.377     1.375     1.373    70.007     0.446     0.000   986.333
1565.1000     0.000  -812.883     1.298     1.342    65.829     0.442     0.000   986.333
1565.2000     0.000  -806.362     0.986     1.154    49.998     0.443     0.000   986.103
1565.3000     0.000  -824.519     1.191     1.112    55.738     0.433     0.000   985.154
1565.4000     0.000  -809.622     0.747     0.963    51.486     0.427     0.000   982.436
1565.5000     0.000  -815.824     0.999     0.948   113.854     0.433     0.000   976.923
1565.6000     0.000  -818.062     1.040     1.168   113.575     0.431     0.000   977.308
1565.7000     0.000  -819.117     1.003     1.042    62.509     0.426     0.000   977.214
1565.8000     0.000  -823.049     1.164     1.260    73.218     0.423     0.000   986.667
1565.9000     0.000  -809.814     1.234     1.188    84.629     0.433     0.000   986.462
1566.0000     0.000  -806.293     0.842     1.006   109.359     0.437     0.000   986.333
1566.1000     0.000  -806.553     0.953     0.993    38.643     0.421     0.000   986.333
1566.2000     0.000  -805.019     0.951     0.829    35.225     0.396     0.000   986.154
1566.3000     0.000  -817.514     0.655     0.769    14.786     0.396     0.000   985.690
1566.4000     0.000  -809.431     0.933     0.694    55.733     0.408     0.000   984.154
1566.5000     0.000  -814.034     0.508     0.820    75.574     0.427     0.000   980.026
1566.6000     0.000  -823.944     0.808     0.998    54.223     0.417     0.000   967.718
1566.7000     0.000  -814.724     1.383     1.080    36.537     0.422     0.000   956.071
1566.8000     0.000  -809.622     0.988     1.004    42.626     0.426     0.000   972.872
