~Version Information
VERS.                     2.0 : CWLS Log ASCII Standart
WRAP.                     NO  : One line per depth step
~Well Information
STRT.M                      1451.2000  : Start Depth
STOP.M                      1602.5000  : Stop Depth
STEP.M                         0.1000  : Step
NULL.                         -999.25  : Null Value
COMP.                                  : Company
WELL.                                  : Well
FLD .                                  : Field
LOC .                                  : Location
PROV.                                  : Province
SRVC.                                  : Service Company
DATE.      06/12/2011                  : Log Date
UWI .                                  : Unique Well ID
~Curve Information
DEPT.M                                 :
mapo_mek.                                  :
speed_mek.                                   :
MGZ_mek.Ž¬                                 :
MPZ_mek.Ž¬                                 :
BMK_mek.O¬                                 :
U_mek.‚                                    :
J_mek.A                                    :
tense_mek.                                 :
~ASCII Log Data
# ...
1477.9000     0.000  -821.451     0.342     0.785     3.004     0.326     0.002   907.462
1478.0000     0.000  -808.280     0.774     0.754     3.116     0.340     0.002   907.333
1478.1000     0.000  -817.167     0.682     0.792     4.036     0.341     0.001   907.410
1478.2000     0.000  -810.070     0.411     0.932     3.814     0.359     0.001   907.333
1478.3000     0.000  -803.352     0.583     0.775     2.959     0.358     0.002   907.333
1478.4000     0.000  -819.788     0.679     0.778     2.316     0.368     0.002   907.513
1478.5000     0.000  -825.542     0.691     0.813     2.311     0.374     0.002   907.385
1478.6000     0.000  -824.967     0.829     0.978     3.060     0.373     0.002   907.667
1478.7000     0.000  -819.341     0.724     0.894     6.098     0.370     0.001   907.513
1478.8000     0.000  -813.842     1.018     1.027     4.253     0.369     0.001   907.564
1478.9000     0.000  -816.208     1.283     1.003     2.110     0.351     0.002   907.564
1479.0000     1.000  -808.007     0.807     0.847     1.805     0.351     0.003   907.333
1479.1000     0.000  -804.444     0.834     0.816     1.715     0.349     0.003   907.590
1479.2000     0.000  -809.175     1.006     0.857     1.840     0.342     0.003   907.615
1479.3000     0.000  -800.297     0.919     0.848     1.983     0.330     0.002   907.333
1479.4000     0.000  -809.796     0.908     0.903     2.042     0.323     0.002   907.333
1479.5000     0.000  -811.732     0.880     0.810     2.028     0.327     0.002   907.564
1479.6000     0.000  -814.892     1.024     0.924     2.388     0.345     0.002   908.139
1479.7000     0.000  -820.898     1.164     0.976     2.695     0.355     0.002   909.214
1479.8000     0.000  -795.072     0.992     1.015     3.151     0.354     0.002   912.643
1479.9000     0.000  -793.127     1.033     0.964     2.631     0.356     0.002   920.769
1480.0000     0.000  -798.306     1.195     1.020     3.400     0.352     0.002   918.872
1480.1000     0.000  -802.553     1.070     0.972     3.158     0.355     0.002   909.429
1480.2000     0.000  -794.342     0.806     0.847     4.989     0.348     0.001   907.333
1480.3000     0.000  -798.575     0.652     0.750    12.575     0.367     0.000   907.333
1480.4000     0.000  -794.533     1.122     1.317     6.923     0.374     0.001   907.333
1480.5000     0.000  -808.846     1.431     1.289     6.511     0.363     0.001   907.429
1480.6000     0.000  -799.329     1.597     1.184     3.374     0.359     0.002   907.385
1480.7000     0.000  -798.561     1.013     0.887     1.989     0.326     0.002   907.333
1480.8000     0.000  -797.700     0.494     0.467     0.980     0.220     0.003   907.511
1480.9000     0.000  -801.375     0.357     0.221     0.387     0.211     0.008   907.667
1481.0000     0.000  -799.347     0.043     0.183     0.581     0.203     0.005   907.357
1481.1000     0.000  -799.648     0.119     0.262     1.644     0.269     0.002   907.410
1481.2000     0.000  -796.260     0.821     0.734     1.799     0.361     0.003   907.538
1481.3000     0.000  -784.327     0.847     0.837     1.652     0.361     0.003   907.667
1481.4000     0.000  -793.766     0.730     0.707     1.615     0.363     0.003   907.667
1481.5000     0.000  -795.748     0.562     0.688     1.641     0.367     0.003   907.487
1481.6000     0.000  -801.365     0.727     0.766     1.912     0.359     0.003   907.667
1481.7000     0.000  -791.273     0.807     0.737     2.592     0.352     0.002   907.692
1481.8000     0.000  -793.766     0.909     0.832     3.410     0.341     0.001   908.167
1481.9000     0.000  -803.548     0.646     0.766     2.286     0.332     0.002   909.359
1482.0000     0.000  -784.879     0.859     0.716     2.312     0.333     0.002   913.077
1482.1000     0.000  -779.415     0.923     0.789     2.170     0.342     0.002   919.600
1482.2000     0.000  -793.944     0.902     0.731     1.851     0.329     0.003   911.238
1482.3000     0.000  -790.314     0.757     0.721     2.568     0.248     0.001   907.462
1482.4000     0.000  -798.694     0.271     0.334     0.984     0.229     0.003   907.333
1482.5000     0.000  -802.717     0.079     0.198     1.020     0.194     0.003   907.333
1482.6000     0.000  -805.224     0.062     0.178     0.816     0.199     0.004   907.333
1482.7000     0.000  -811.732     0.047     0.159     0.966     0.200     0.003   907.410
1482.8000     0.000  -801.055     0.044     0.146     0.569     0.188     0.005   907.333
1482.9000     0.000  -813.180     0.043     0.138     0.611     0.196     0.005   907.333
1483.0000     0.000  -812.691     0.035     0.129     0.457     0.181     0.006   907.333
1483.1000     0.000  -802.256     0.041     0.144     0.341     0.163     0.007   907.405
1483.2000     0.000  -791.688     0.051     0.140     0.553     0.164     0.004   907.333
1483.3000     0.000  -787.176     0.037     0.136     0.254     0.152     0.009   907.476
1483.4000     0.000  -793.766     0.033     0.111     0.284     0.156     0.008   907.333
1483.5000     0.000  -798.160     0.033     0.154     1.384     0.199     0.002   907.333
1483.6000     0.000  -801.375     0.369     0.411     2.240     0.301     0.002   907.333
1483.7000     0.000  -814.130     0.529     0.594     2.652     0.323     0.002   907.476
1483.8000     0.000  -805.019     0.437     0.606     4.898     0.345     0.001   907.436
1483.9000     0.000  -805.275     0.664     0.661     4.966     0.338     0.001   907.333
1484.0000     0.000  -792.551     1.024     0.814     3.795     0.328     0.001   907.487
1484.1000     0.000  -794.004     0.844     0.828     2.392     0.336     0.002   907.333
1484.2000     0.000  -798.516     0.949     0.711     2.336     0.346     0.002   907.333
1484.3000     0.000  -792.679     0.677     0.710     2.060     0.349     0.003   907.333
1484.4000     0.000  -808.193     0.480     0.654     2.415     0.325     0.002   907.333
1484.5000     0.000  -798.516     0.723     0.820     2.456     0.323     0.002   907.333
1484.6000     0.000  -811.844     1.014     0.939     2.502     0.323     0.002   907.333
1484.7000     0.000  -801.603     0.996     0.932     2.507     0.326     0.002   907.381
1484.8000     0.000  -801.128     1.037     0.910     2.204     0.350     0.002   907.500
1484.9000     0.000  -794.086     0.936     0.834     2.147     0.358     0.002   907.410
1485.0000     0.000  -801.128     0.729     0.716     2.323     0.361     0.002   907.333
1485.1000     0.000  -813.459     0.872     0.836     1.925     0.380     0.003   907.333
1485.2000     0.000  -805.850     0.823     0.822     2.168     0.380     0.003   907.333
1485.3000     0.000  -795.429     1.011     0.875     2.121     0.382     0.003   907.282
1485.4000     0.000  -803.622     1.056     0.890     2.397     0.385     0.002   907.286
1485.5000     0.000  -804.444     0.984     0.790     2.506     0.387     0.002   907.051
1485.6000     0.000  -818.879     1.053     0.935     2.266     0.384     0.003   907.238
1485.7000     0.000  -808.472     0.968     0.817     2.170     0.383     0.003   907.333
1485.8000     0.000  -820.364     0.833     0.808     2.708     0.384     0.002   907.333
1485.9000     0.000  -819.980     0.921     0.823     4.051     0.384     0.001   907.333
1486.0000     0.000  -816.336     0.684     0.805     3.433     0.369     0.002   907.333
1486.1000     0.000  -818.446     0.982     0.973     3.943     0.359     0.001   907.256
1486.2000     0.000  -816.208     1.280     0.880     4.849     0.353     0.001   907.333
1486.3000     0.000  -791.784     0.847     0.907     3.744     0.364     0.001   907.333
1486.4000     0.000  -810.508     0.901     0.872     3.144     0.374     0.002   907.333
1486.5000     0.000  -811.349     1.071     0.857     4.116     0.367     0.001   907.205
1486.6000     0.000  -801.630     0.845     0.990     3.593     0.365     0.002   907.205
1486.7000     0.000  -806.174     0.830     0.819     6.160     0.315     0.001   907.333
